{
  "version": 0.6,
  "generator": "Overpass API 0.7.55.9 ab41fea6",
  "osm3s": {
    "timestamp_osm_base": "2020-02-05T20:25:02Z",
    "copyright": "The data included in this document is from www.openstreetmap.org. The data is made available under ODbL."
  },
  "elements": [

{
  "type": "node",
  "id": 4858379452,
  "lat": 50.8342564,
  "lon": -3.4763403,
  "tags": {
    "craft": "brewery",
    "name": "Exe Valley Brewery"
  }
},
{
  "type": "way",
  "id": 313962357,
  "nodes": [
    3200054456,
    3200054457,
    3200054458,
    3200054459,
    3200054460,
    3200054461,
    3200054462,
    3200054463,
    3200054456
  ],
  "tags": {
    "building": "yes",
    "craft": "brewery",
    "name": "Old Cider Works"
  }
},
{
  "type": "way",
  "id": 415634312,
  "nodes": [
    4166478712,
    4166478719,
    4166478710,
    4166478709,
    4166478712
  ],
  "tags": {
    "addr:city": "Christow",
    "addr:postcode": "EX6 7QB",
    "addr:street": "Unit 5 & 6, Gidleys Meadow",
    "building": "yes",
    "craft": "brewery",
    "name": "Black Tor Brewery",
    "telephone": "01647-25 21 20",
    "website": "https://blacktorbrewery.co.uk/"
  }
},
{
  "type": "node",
  "id": 4166478709,
  "lat": 50.6555339,
  "lon": -3.6444446
},
{
  "type": "node",
  "id": 4166478710,
  "lat": 50.6555676,
  "lon": -3.6443431
},
{
  "type": "node",
  "id": 4166478712,
  "lat": 50.6557719,
  "lon": -3.6446413
},
{
  "type": "node",
  "id": 4166478719,
  "lat": 50.6558056,
  "lon": -3.6445399
},
{
  "type": "node",
  "id": 3200054456,
  "lat": 50.7886479,
  "lon": -3.6458494
},
{
  "type": "node",
  "id": 3200054457,
  "lat": 50.7888353,
  "lon": -3.6451173
},
{
  "type": "node",
  "id": 3200054458,
  "lat": 50.7887070,
  "lon": -3.6450351
},
{
  "type": "node",
  "id": 3200054459,
  "lat": 50.7887677,
  "lon": -3.6447982
},
{
  "type": "node",
  "id": 3200054460,
  "lat": 50.7886643,
  "lon": -3.6447320
},
{
  "type": "node",
  "id": 3200054461,
  "lat": 50.7884627,
  "lon": -3.6455192
},
{
  "type": "node",
  "id": 3200054462,
  "lat": 50.7885544,
  "lon": -3.6455779
},
{
  "type": "node",
  "id": 3200054463,
  "lat": 50.7885078,
  "lon": -3.6457596
}

  ]
}
