{
  "version": 0.6,
  "generator": "Overpass API 0.7.55.1011 6c2efc30",
  "osm3s": {
    "timestamp_osm_base": "2020-02-06T09:11:02Z",
    "copyright": "The data included in this document is from www.openstreetmap.org. The data is made available under ODbL."
  },
  "elements": [

{
  "type": "node",
  "id": 4452514132,
  "lat": 38.3647865,
  "lon": -0.4979039,
  "tags": {
    "craft": "brewery",
    "name": "Mediterráneo"
  }
},
{
  "type": "node",
  "id": 4953743687,
  "lat": 38.3467450,
  "lon": -0.4839228,
  "tags": {
    "craft": "brewery",
    "name": "Beercokers",
    "outdoor_seating": "yes",
    "source": "survey"
  }
},
{
  "type": "node",
  "id": 5814681177,
  "lat": 38.3978124,
  "lon": -0.4356193,
  "tags": {
    "craft": "brewery",
    "name": "Cervecería"
  }
},
{
  "type": "node",
  "id": 5814683817,
  "lat": 38.3945419,
  "lon": -0.4375767,
  "tags": {
    "craft": "brewery",
    "name": "Cervecería Karlos"
  }
},
{
  "type": "node",
  "id": 6175313066,
  "lat": 38.3945146,
  "lon": -0.4376303,
  "tags": {
    "addr:street": "Ramón de Campoamor",
    "craft": "brewery",
    "name": "Karlo's"
  }
},
{
  "type": "node",
  "id": 6339945688,
  "lat": 38.3486219,
  "lon": -0.4974751,
  "tags": {
    "craft": "brewery",
    "name": "Cervecería Paco"
  }
},
{
  "type": "node",
  "id": 6341124733,
  "lat": 38.3426870,
  "lon": -0.5006455,
  "tags": {
    "craft": "brewery",
    "name": "Nou Benalúa"
  }
},
{
  "type": "node",
  "id": 6407458085,
  "lat": 38.3411123,
  "lon": -0.5055907,
  "tags": {
    "craft": "brewery",
    "name": "Vozmediano"
  }
},
{
  "type": "node",
  "id": 6407549031,
  "lat": 38.3622361,
  "lon": -0.4945545,
  "tags": {
    "craft": "brewery",
    "name": "El Pitari de los Ángeles"
  }
},
{
  "type": "node",
  "id": 6433819446,
  "lat": 38.3595657,
  "lon": -0.4820878,
  "tags": {
    "craft": "brewery",
    "name": "Mediterráneo"
  }
},
{
  "type": "node",
  "id": 6433820286,
  "lat": 38.3591984,
  "lon": -0.4829069,
  "tags": {
    "craft": "brewery",
    "name": "Los Barriles"
  }
},
{
  "type": "node",
  "id": 6527860817,
  "lat": 38.3408859,
  "lon": -0.4966922,
  "tags": {
    "craft": "brewery",
    "name": "La Barrita de Patxi"
  }
},
{
  "type": "node",
  "id": 6534765002,
  "lat": 38.4008898,
  "lon": -0.4352593,
  "tags": {
    "addr:city": "Sant Joan d'Alacant",
    "addr:housenumber": "3",
    "addr:postcode": "03550",
    "addr:street": "Avenida La Rambla",
    "amenity": "pub",
    "contact:facebook": "https://www.facebook.com/cerveceria.cuatroduros",
    "craft": "brewery",
    "email": "cerveceriacuatroduros@gmail.com",
    "name": "Cervecería 4 duros",
    "opening_hours": "Tu-Sa 8:00-0:00; Su 09:00-16:00",
    "payment:coins": "yes",
    "payment:mastercard": "yes",
    "payment:notes": "yes",
    "payment:visa": "yes",
    "payment:visa_debit": "yes",
    "phone": "+34 965 65 71 23",
    "smoking": "outside"
  }
},
{
  "type": "node",
  "id": 6545908675,
  "lat": 38.3615972,
  "lon": -0.4740485,
  "tags": {
    "craft": "brewery",
    "name": "Cervecería Alambique"
  }
},
{
  "type": "node",
  "id": 6545930445,
  "lat": 38.3596108,
  "lon": -0.4805123,
  "tags": {
    "craft": "brewery",
    "name": "Cervecería Romero"
  }
},
{
  "type": "node",
  "id": 6545943367,
  "lat": 38.3604862,
  "lon": -0.4798766,
  "tags": {
    "craft": "brewery",
    "name": "Cervecería Mavi"
  }
},
{
  "type": "node",
  "id": 6745807092,
  "lat": 38.3445506,
  "lon": -0.5046013,
  "tags": {
    "addr:city": "Alicante",
    "addr:housenumber": "5",
    "addr:postcode": "03006",
    "addr:street": "Calle Deportista Manuel Suárez",
    "craft": "brewery",
    "name": "Canela"
  }
}

  ]
}
