{
  "version": 0.6,
  "generator": "Overpass API 0.7.55.9 ab41fea6",
  "osm3s": {
    "timestamp_osm_base": "2020-02-05T20:19:02Z",
    "copyright": "The data included in this document is from www.openstreetmap.org. The data is made available under ODbL."
  },
  "elements": [

{
  "type": "node",
  "id": 401671459,
  "lat": 50.8745117,
  "lon": 0.0164813,
  "tags": {
    "addr:postcode": "BN7 2AH",
    "brand": "Harvey's",
    "craft": "brewery",
    "name": "The Bridge Wharf Brewery",
    "opening_hours": "Mo-Th 18:30-20:45; PH off; Aug off; Dec-May off",
    "operator": "Harvey & Son",
    "real_ale": "yes",
    "website": "https://www.harveys.org.uk/"
  }
},
{
  "type": "way",
  "id": 137012895,
  "nodes": [
    1503077812,
    1503077816,
    1503077819,
    1503077818,
    1503077812
  ],
  "tags": {
    "addr:housenumber": "22",
    "addr:postcode": "RH13 8RA",
    "addr:street": "Star Road",
    "building": "industrial",
    "contact:email": "info@darkstarbrewing.co.uk",
    "contact:phone": "+441403713085",
    "craft": "brewery",
    "fhrs:id": "438526",
    "name": "Dark Star Brewery",
    "operator": "The Dark Star Brewing Co. Ltd",
    "source:geometry": "Bing",
    "website": "https://www.darkstarbrewing.co.uk/"
  }
},
{
  "type": "way",
  "id": 576900003,
  "nodes": [
    5532020710,
    5529473240,
    5532020695,
    5532020711,
    5532020712,
    5532020713,
    5532020714,
    5532020715,
    5532020709,
    5012498084,
    5532020710
  ],
  "tags": {
    "addr:city": "Eastbourne",
    "addr:housenumber": "11-23",
    "addr:postcode": "BN21 3YN",
    "addr:street": "Grand Parade",
    "amenity": "bar",
    "fhrs:id": "130828",
    "food": "yes",
    "microbrewery": "yes",
    "name": "The Belgian Café",
    "source:addr": "FSA Food Hygiene Rating Scheme open data"
  }
},
{
  "type": "way",
  "id": 739914592,
  "nodes": [
    6928108471,
    3923925997,
    3923925998,
    6928108472,
    6928108471
  ],
  "tags": {
    "building": "industrial",
    "craft": "brewery",
    "name": "Firebird Brewery",
    "opening_hours": "Monday to Thursday: 8am – 5pm, Friday: 8am – 7pm, Saturday: 10am - 3pm"
  }
},
{
  "type": "node",
  "id": 3923925997,
  "lat": 51.0962365,
  "lon": -0.4539596
},
{
  "type": "node",
  "id": 3923925998,
  "lat": 51.0964774,
  "lon": -0.4534387
},
{
  "type": "node",
  "id": 6928108471,
  "lat": 51.0963789,
  "lon": -0.4541266
},
{
  "type": "node",
  "id": 6928108472,
  "lat": 51.0966198,
  "lon": -0.4536057
},
{
  "type": "node",
  "id": 1503077812,
  "lat": 50.9580093,
  "lon": -0.3043459
},
{
  "type": "node",
  "id": 1503077816,
  "lat": 50.9580641,
  "lon": -0.3037207
},
{
  "type": "node",
  "id": 1503077818,
  "lat": 50.9583021,
  "lon": -0.3044106
},
{
  "type": "node",
  "id": 1503077819,
  "lat": 50.9583570,
  "lon": -0.3037855
},
{
  "type": "node",
  "id": 5012498084,
  "lat": 50.7664419,
  "lon": 0.2909721
},
{
  "type": "node",
  "id": 5529473240,
  "lat": 50.7666295,
  "lon": 0.2909087
},
{
  "type": "node",
  "id": 5532020695,
  "lat": 50.7665691,
  "lon": 0.2910416
},
{
  "type": "node",
  "id": 5532020709,
  "lat": 50.7664256,
  "lon": 0.2909519
},
{
  "type": "node",
  "id": 5532020710,
  "lat": 50.7665227,
  "lon": 0.2907960
},
{
  "type": "node",
  "id": 5532020711,
  "lat": 50.7664997,
  "lon": 0.2911942
},
{
  "type": "node",
  "id": 5532020712,
  "lat": 50.7664970,
  "lon": 0.2912001
},
{
  "type": "node",
  "id": 5532020713,
  "lat": 50.7663914,
  "lon": 0.2910780
},
{
  "type": "node",
  "id": 5532020714,
  "lat": 50.7664173,
  "lon": 0.2910244
},
{
  "type": "node",
  "id": 5532020715,
  "lat": 50.7664009,
  "lon": 0.2910039
}

  ]
}
