{
  "version": 0.6,
  "generator": "Overpass API 0.7.55.9 ab41fea6",
  "osm3s": {
    "timestamp_osm_base": "2020-02-06T08:59:02Z",
    "copyright": "The data included in this document is from www.openstreetmap.org. The data is made available under ODbL."
  },
  "elements": [

{
  "type": "node",
  "id": 2034780565,
  "lat": 41.4073551,
  "lon": 2.1514486,
  "tags": {
    "addr:street": "Carrer del Torrent de l'Olla",
    "craft": "brewery",
    "cuisine": "tapas",
    "internet_access": "yes",
    "name": "Cerbeseria Lesseps",
    "outdoor_seating": "yes",
    "source": "survey",
    "takeaway": "yes"
  }
},
{
  "type": "node",
  "id": 2529449464,
  "lat": 41.4116901,
  "lon": 2.1387655,
  "tags": {
    "addr:city": "Barcelona",
    "addr:housenumber": "24",
    "addr:postcode": "08022",
    "addr:street": "Carrer de Craywinckel",
    "craft": "brewery",
    "name": "Cortacans",
    "opening_hours": "08:00-21:00",
    "shop": "convenience"
  }
},
{
  "type": "node",
  "id": 3329191502,
  "lat": 41.3981676,
  "lon": 2.1608707,
  "tags": {
    "addr:city": "Barelcona",
    "addr:housenumber": "14",
    "addr:postcode": "08012",
    "addr:street": "Carrer de Sant Agustí",
    "craft": "brewery",
    "entrance": "yes",
    "name": "La Cervesera Artesana",
    "phone": "+34932379594",
    "website": "http://www.cervesa.cat"
  }
},
{
  "type": "node",
  "id": 3965462826,
  "lat": 41.3726558,
  "lon": 2.1631344,
  "tags": {
    "addr:housenumber": "52",
    "addr:street": "Margarit",
    "craft": "brewery",
    "name": "Brew Pub Le Sec",
    "opening_hours": "Mo, Th 18:30-01:00; Fr 18:30-02:30; Sa 12:00-15:00; Sa 18:30-02:30; Su 12:00-15:00; Su 18:30-01:00",
    "phone": "+34 934618875",
    "website": "http://brewpublesec.com"
  }
},
{
  "type": "node",
  "id": 4518693334,
  "lat": 41.4003498,
  "lon": 2.2015471,
  "tags": {
    "addr:housenumber": "184",
    "addr:street": "Llull",
    "craft": "brewery",
    "name": "La cervecita",
    "opening_hours": "Mo, Tu 17:30-22:30; We-Sa 11:30-14:00, 17:30-22:30; Su 17:30-21:30",
    "phone": "+34 934869271"
  }
},
{
  "type": "node",
  "id": 5271863045,
  "lat": 41.4319972,
  "lon": 2.1835426,
  "tags": {
    "craft": "brewery",
    "name": "El Racó de Sant Andreu"
  }
},
{
  "type": "node",
  "id": 5271863085,
  "lat": 41.4334657,
  "lon": 2.1837219,
  "tags": {
    "craft": "brewery",
    "name": "Cervecería - Frankfurt \"El Plbe\""
  }
},
{
  "type": "node",
  "id": 5271863092,
  "lat": 41.4338357,
  "lon": 2.1838266,
  "tags": {
    "craft": "brewery",
    "name": "Paella Plus +"
  }
},
{
  "type": "node",
  "id": 5285685835,
  "lat": 41.4491270,
  "lon": 2.2472456,
  "tags": {
    "amenity": "pub",
    "microbrewery": "yes",
    "name": "4 pedres",
    "opening_hours": "Mo-We 18:00-23:00; Th 18:00-24:00; PH 18:00-23:00; Sa 10:00-15:00,18:45-01:30; Su 19:00-23:00",
    "toilets": "yes",
    "toilets:access": "customers",
    "toilets:wheelchair": "no",
    "wheelchair": "no"
  }
},
{
  "type": "node",
  "id": 5488633879,
  "lat": 41.6321409,
  "lon": 2.2962773,
  "tags": {
    "craft": "brewery",
    "name": "Bar.ril"
  }
},
{
  "type": "node",
  "id": 5685705646,
  "lat": 41.5256327,
  "lon": 2.1248424,
  "tags": {
    "craft": "brewery",
    "name": "La Roma"
  }
},
{
  "type": "node",
  "id": 5693392765,
  "lat": 41.5213455,
  "lon": 2.1264663,
  "tags": {
    "craft": "brewery",
    "name": "La Penúltima"
  }
},
{
  "type": "node",
  "id": 6052504958,
  "lat": 41.3980539,
  "lon": 2.1610008,
  "tags": {
    "addr:city": "Barelcona",
    "addr:housenumber": "14",
    "addr:postcode": "08012",
    "addr:street": "Carrer de Sant Agustí",
    "craft": "brewery",
    "entrance": "yes",
    "name": "La Cervesera Artesana",
    "phone": "+34932379594",
    "website": "http://www.cervesa.cat"
  }
},
{
  "type": "node",
  "id": 6779994555,
  "lat": 41.6054510,
  "lon": 2.2863549,
  "tags": {
    "addr:city": "Granollers",
    "addr:housenumber": "57",
    "addr:postcode": "08401",
    "addr:street": "Carrer de Miquel Ricomà",
    "amenity": "restaurant",
    "bar": "yes",
    "brewery": "yes",
    "contact:facebook": "https://www.facebook.com/Anònims-Cerveses-Menjars-i-Pensars-1411045472523520/",
    "cuisine": "regional;mediterranean",
    "email": "anonimsgr@gmail.com",
    "microbrewery": "yes",
    "name": "Anònims",
    "outdoor_seating": "yes",
    "phone": "+34 938 60 07 89",
    "wheelchair": "yes"
  }
},
{
  "type": "way",
  "id": 653644259,
  "nodes": [
    6125602360,
    6125602398,
    6125602374,
    6125602220,
    6125602375,
    6125602315,
    6125602292,
    6125602379,
    6125602256,
    6125602308,
    6125602337,
    6125602283,
    6125602273,
    6125602357,
    6125602360
  ],
  "tags": {
    "building": "industrial",
    "building:levels": "2",
    "craft": "brewery",
    "name": "Edge Brewery",
    "opening_hours": "Fr 18:00-21:00",
    "shop": "craft",
    "website": "http://edgebrewing.com/"
  }
},
{
  "type": "node",
  "id": 6125602220,
  "lat": 41.3942359,
  "lon": 2.1931324
},
{
  "type": "node",
  "id": 6125602256,
  "lat": 41.3939564,
  "lon": 2.1932405
},
{
  "type": "node",
  "id": 6125602273,
  "lat": 41.3941356,
  "lon": 2.1929937
},
{
  "type": "node",
  "id": 6125602283,
  "lat": 41.3941151,
  "lon": 2.1930219
},
{
  "type": "node",
  "id": 6125602292,
  "lat": 41.3940630,
  "lon": 2.1935481
},
{
  "type": "node",
  "id": 6125602308,
  "lat": 41.3940731,
  "lon": 2.1930797
},
{
  "type": "node",
  "id": 6125602315,
  "lat": 41.3943041,
  "lon": 2.1932267
},
{
  "type": "node",
  "id": 6125602337,
  "lat": 41.3940856,
  "lon": 2.1930625
},
{
  "type": "node",
  "id": 6125602357,
  "lat": 41.3941570,
  "lon": 2.1930234
},
{
  "type": "node",
  "id": 6125602360,
  "lat": 41.3941264,
  "lon": 2.1930625
},
{
  "type": "node",
  "id": 6125602374,
  "lat": 41.3941922,
  "lon": 2.1930720
},
{
  "type": "node",
  "id": 6125602375,
  "lat": 41.3942889,
  "lon": 2.1932058
},
{
  "type": "node",
  "id": 6125602379,
  "lat": 41.3938787,
  "lon": 2.1933474
},
{
  "type": "node",
  "id": 6125602398,
  "lat": 41.3941614,
  "lon": 2.1931114
}

  ]
}
