{
  "version": 0.6,
  "generator": "Overpass API 0.7.55.9 ab41fea6",
  "osm3s": {
    "timestamp_osm_base": "2020-02-14T14:02:02Z",
    "copyright": "The data included in this document is from www.openstreetmap.org. The data is made available under ODbL."
  },
  "elements": [

{
  "type": "node",
  "id": 34050681,
  "lat": 50.8500506,
  "lon": 5.6932018,
  "tags": {
    "name": "Museum de Historische Drukkerij",
    "tourism": "museum",
    "website": "http://www.drukmuseum.nl/",
    "wikidata": "Q30163006"
  }
},
{
  "type": "node",
  "id": 34050692,
  "lat": 50.9653261,
  "lon": 5.7605743,
  "tags": {
    "addr:city": "Stein",
    "addr:housenumber": "14a",
    "addr:postcode": "6171VP",
    "addr:street": "Hoppenkampstraat",
    "name": "Archeologie Museum",
    "source": "BAG",
    "source:date": "2014-03-24",
    "tourism": "museum",
    "wikidata": "Q2135658",
    "wikipedia": "nl:Archeologiemuseum Stein"
  }
},
{
  "type": "node",
  "id": 160079640,
  "lat": 50.8450995,
  "lon": 6.0201736,
  "tags": {
    "addr:city": "Aachen",
    "addr:country": "DE",
    "addr:housenumber": "497",
    "addr:postcode": "52072",
    "addr:street": "Horbacher Straße",
    "contact:phone": "+49-241-9970615",
    "name": "Zollmuseum",
    "tourism": "museum",
    "website": "http://www.zollmuseum-friedrichs.de/",
    "wikidata": "Q16858227"
  }
},
{
  "type": "node",
  "id": 183487777,
  "lat": 50.8943051,
  "lon": 6.1158365,
  "tags": {
    "created_by": "Potlatch 0.6c",
    "name": "Besucherzentrum Grube Adolf Park",
    "tourism": "museum"
  }
},
{
  "type": "node",
  "id": 252382829,
  "lat": 50.8637156,
  "lon": 5.8320799,
  "tags": {
    "addr:city": "Valkenburg",
    "addr:housenumber": "31",
    "addr:postcode": "6301CW",
    "addr:street": "Grotestraat Centrum",
    "name": "Museum Land van Valkenburg",
    "source:addr": "BAG",
    "source:addr:date": "2014-03-24",
    "tourism": "museum",
    "website": "http://www.museumlandvanvalkenburg.nl/"
  }
},
{
  "type": "node",
  "id": 252846215,
  "lat": 50.8749150,
  "lon": 6.1461687,
  "tags": {
    "addr:city": "Alsdorf",
    "addr:country": "DE",
    "addr:housenumber": "7",
    "addr:postcode": "52477",
    "addr:street": "Konrad-Adenauer-Allee",
    "contact:fax": "+49 2404 59911 19",
    "contact:phone": "+49 2404 59911 0",
    "name": "Energeticon gGmbH",
    "tourism": "museum",
    "website": "http://www.energeticon.de/web/",
    "wheelchair": "yes",
    "wheelchair:description": "Im Energeticon befindet sich eine Gaststätte. Das ,,Eduards,, voll Rolligerecht und Mega lecker.",
    "wikidata": "Q16830609"
  }
},
{
  "type": "node",
  "id": 252846234,
  "lat": 50.8745859,
  "lon": 6.1495992,
  "tags": {
    "name": "EBV Kraftzentrale",
    "tourism": "museum"
  }
},
{
  "type": "node",
  "id": 271394429,
  "lat": 50.7213483,
  "lon": 5.9888327,
  "tags": {
    "name": "Musee de Moresnet",
    "tourism": "museum"
  }
},
{
  "type": "node",
  "id": 274975563,
  "lat": 50.8332301,
  "lon": 6.1207126,
  "tags": {
    "name": "Karnevalsmuseum",
    "tourism": "museum"
  }
},
{
  "type": "node",
  "id": 299640182,
  "lat": 50.7750373,
  "lon": 6.0828206,
  "tags": {
    "fee": "yes",
    "name": "Domschatzkammer",
    "opening_hours": "Tu-Su,PH 10:00-18:00, Mo 10:00-13:00",
    "phone": "+49 241 47709127",
    "toilets:wheelchair": "yes",
    "tourism": "museum",
    "website": "http://www.aachendom.de/schatzkammer.html",
    "wheelchair": "yes",
    "wikidata": "Q15106167",
    "wikipedia": "de:Aachener Domschatzkammer"
  }
},
{
  "type": "node",
  "id": 358039107,
  "lat": 50.8606699,
  "lon": 5.8559632,
  "tags": {
    "amenity": "place_of_worship",
    "name": "kruisweg op de Schaelsberg",
    "opening_hours": "24/7",
    "religion": "christian",
    "tourism": "museum",
    "website": "http://www.dekluisvalkenburg.nl"
  }
},
{
  "type": "node",
  "id": 461151921,
  "lat": 50.6452983,
  "lon": 5.5732626,
  "tags": {
    "layer": "-1",
    "name": "Archéoforum",
    "tourism": "museum",
    "wheelchair": "limited",
    "wikipedia": "fr:Archéoforum",
    "wikipedia:nl": "Archéoforum"
  }
},
{
  "type": "node",
  "id": 473380736,
  "lat": 50.8653394,
  "lon": 5.8214553,
  "tags": {
    "name": "Romeinse katakomben",
    "tourism": "museum",
    "website": "https://www.katakomben.nl/",
    "wikidata": "Q2409236"
  }
},
{
  "type": "node",
  "id": 490948959,
  "lat": 50.9104683,
  "lon": 6.1713919,
  "tags": {
    "name": "Riesenmemory",
    "tourism": "museum"
  }
},
{
  "type": "node",
  "id": 534928048,
  "lat": 50.6688706,
  "lon": 5.8840043,
  "tags": {
    "name": "Remember 39-45",
    "tourism": "museum"
  }
},
{
  "type": "node",
  "id": 619266524,
  "lat": 50.8333135,
  "lon": 6.0444999,
  "tags": {
    "name": "Skulptur",
    "tourism": "museum"
  }
},
{
  "type": "node",
  "id": 669157110,
  "lat": 50.9328158,
  "lon": 5.3403933,
  "tags": {
    "name": "Nationaal Jenevermuseum",
    "tourism": "museum",
    "wheelchair": "yes",
    "wikidata": "Q2613770"
  }
},
{
  "type": "node",
  "id": 669912114,
  "lat": 50.9298112,
  "lon": 5.3384828,
  "tags": {
    "fee": "yes",
    "name": "Beiaardmuseum",
    "name:en": "Municipal Carillon Museum",
    "opening_hours": "Su Jul-Aug 10:00-17:00",
    "tourism": "museum"
  }
},
{
  "type": "node",
  "id": 676088249,
  "lat": 50.9299166,
  "lon": 5.3420095,
  "tags": {
    "addr:housenumber": "2",
    "addr:street": "Guido Gezellestraat",
    "fee": "no",
    "name": "Het Stadsmus",
    "opening_hours": "Tu-Su 13:00-17:00",
    "tourism": "museum",
    "website": "http://www.hetstadsmus.be/",
    "wikidata": "Q1862121"
  }
},
{
  "type": "node",
  "id": 706736849,
  "lat": 50.8922713,
  "lon": 5.9701628,
  "tags": {
    "addr:city": "Heerlen",
    "addr:country": "NL",
    "addr:housenumber": "1",
    "addr:street": "Kloosterweg",
    "description": "Schachtgebouw van de voormalige steenkolenmijn ON 1.",
    "name": "Nederlands Mijnmuseum",
    "tourism": "museum",
    "website": "nederlandsmijnmuseum.com",
    "wikidata": "Q2054056"
  }
},
{
  "type": "node",
  "id": 718731354,
  "lat": 50.9826185,
  "lon": 5.4909899,
  "tags": {
    "name": "Koolmijn Winterslag C-mine",
    "tourism": "museum"
  }
},
{
  "type": "node",
  "id": 719549546,
  "lat": 50.9601601,
  "lon": 5.4072639,
  "tags": {
    "tourism": "museum"
  }
},
{
  "type": "node",
  "id": 974966754,
  "lat": 50.6109969,
  "lon": 5.6797217,
  "tags": {
    "name": "Musée de Fléron",
    "tourism": "museum"
  }
},
{
  "type": "node",
  "id": 1006149800,
  "lat": 50.6863350,
  "lon": 5.7226648,
  "tags": {
    "heritage": "1",
    "heritage:operator": "whc",
    "historic": "industrial",
    "name": "Charbonnage de Blegny-Mine",
    "ref:whc": "1344-004",
    "tourism": "museum",
    "whc:criteria": "(ii)(iv)",
    "whc:inscription_date": "2012"
  }
},
{
  "type": "node",
  "id": 1100566560,
  "lat": 50.6258969,
  "lon": 6.0301564,
  "tags": {
    "addr:housenumber": "3",
    "addr:postcode": "4700",
    "addr:street": "Loten",
    "name": "Ikob -Internationales Kunstzentrum Ostbelgien",
    "tourism": "museum"
  }
},
{
  "type": "node",
  "id": 1200202359,
  "lat": 50.6918624,
  "lon": 6.1057144,
  "tags": {
    "name": "Mö(h)renmuseum",
    "tourism": "museum"
  }
},
{
  "type": "node",
  "id": 1554851552,
  "lat": 50.5681150,
  "lon": 5.5861737,
  "tags": {
    "name": "Musée de l'abeille",
    "tourism": "museum"
  }
},
{
  "type": "node",
  "id": 1636161522,
  "lat": 51.1064605,
  "lon": 5.8673138,
  "tags": {
    "name": "Museum van de Vrouw",
    "tourism": "museum"
  }
},
{
  "type": "node",
  "id": 1709919891,
  "lat": 50.9402730,
  "lon": 5.7937123,
  "tags": {
    "addr:city": "Beek",
    "addr:housenumber": "4c",
    "addr:postcode": "6191EB",
    "addr:street": "Wolfeynde",
    "name": "Elsmuseum",
    "source": "BAG",
    "source:date": "2014-03-24",
    "tourism": "museum",
    "website": "http://www.elsmuseum.nl/",
    "wikidata": "Q28737188"
  }
},
{
  "type": "node",
  "id": 1722636722,
  "lat": 50.9377946,
  "lon": 5.7917487,
  "tags": {
    "name": "Heemkunde Museum",
    "tourism": "museum"
  }
},
{
  "type": "node",
  "id": 2069249271,
  "lat": 50.9322564,
  "lon": 5.3362532,
  "tags": {
    "name": "Heilig Paterke",
    "tourism": "museum",
    "website": "https://www.hasselt.be/nl/203/content/1532/museum-heilig-paterke.html"
  }
},
{
  "type": "node",
  "id": 2114145103,
  "lat": 50.6460060,
  "lon": 5.5802012,
  "tags": {
    "name": "Musée des Beaux-Arts de Liège (BAL)",
    "tourism": "museum"
  }
},
{
  "type": "node",
  "id": 2143264756,
  "lat": 50.9946735,
  "lon": 5.5357706,
  "tags": {
    "name": "Mijndepot",
    "tourism": "museum"
  }
},
{
  "type": "node",
  "id": 2195545885,
  "lat": 50.8316829,
  "lon": 5.9782537,
  "tags": {
    "name": "Zuid-Limburgse Stoomtrein Maatschappij (ZLSM)",
    "tourism": "museum",
    "wheelchair": "yes"
  }
},
{
  "type": "node",
  "id": 2292916522,
  "lat": 50.8146592,
  "lon": 5.3580994,
  "tags": {
    "name": "Fruitstreekmuseum",
    "tourism": "museum",
    "website": "www.vzw-fruitstreekmuseum.be"
  }
},
{
  "type": "node",
  "id": 2383958387,
  "lat": 51.0229770,
  "lon": 5.7498488,
  "tags": {
    "name": "Vlechtwerkmuseum",
    "tourism": "museum"
  }
},
{
  "type": "node",
  "id": 2594488736,
  "lat": 51.0043890,
  "lon": 5.5324855,
  "tags": {
    "name": "Goalmine",
    "tourism": "museum"
  }
},
{
  "type": "node",
  "id": 2650701092,
  "lat": 50.8508529,
  "lon": 5.6867884,
  "tags": {
    "name": "N More",
    "tourism": "museum"
  }
},
{
  "type": "node",
  "id": 2789496868,
  "lat": 50.7701797,
  "lon": 6.0195270,
  "tags": {
    "name": "Museum de Kopermolen",
    "tourism": "museum",
    "wheelchair": "no"
  }
},
{
  "type": "node",
  "id": 2804892708,
  "lat": 50.8483543,
  "lon": 5.6887551,
  "tags": {
    "addr:city": "Maastricht",
    "addr:housenumber": "18",
    "addr:postcode": "6211LD",
    "addr:street": "Vrijthof",
    "description": "photography museum",
    "fee": "MJK_free",
    "name": "Museum aan het Vrijthof",
    "opening_hours": "Tu-Su 10:00-17:30",
    "source": "BAG",
    "source:date": "2014-03-24",
    "tourism": "museum",
    "website": "http://www.museumaanhetvrijthof.nl/",
    "wikidata": "Q1634251",
    "wikipedia": "nl:Museum aan het Vrijthof"
  }
},
{
  "type": "node",
  "id": 2804898630,
  "lat": 50.8457856,
  "lon": 5.6927111,
  "tags": {
    "addr:city": "Maastricht",
    "addr:housenumber": "7",
    "addr:postcode": "6211JM",
    "addr:street": "Sint Pieterstraat",
    "name": "Regionaal Historisch Centrum Limburg",
    "source": "BAG",
    "source:date": "2014-03-24",
    "tourism": "museum",
    "website": "https://www.rhcl.nl/",
    "wikidata": "Q21004453",
    "wikipedia": "nl:Regionaal Historisch Centrum Limburg"
  }
},
{
  "type": "node",
  "id": 2804898641,
  "lat": 50.8450433,
  "lon": 5.6878046,
  "tags": {
    "addr:city": "Maastricht",
    "addr:housenumber": "7",
    "addr:postcode": "6211KJ",
    "addr:street": "De Bosquetplein",
    "fee": "MJK_free",
    "name": "Natuurhistorisch Museum Maastricht",
    "opening_hours": "Tu-Fr 11:00-17:00; Sa,Su 13:00-17:00",
    "source": "BAG",
    "source:date": "2014-03-24",
    "tourism": "museum",
    "website": "https://nhmmaastricht.nl/",
    "wikidata": "Q2412016"
  }
},
{
  "type": "node",
  "id": 2804902056,
  "lat": 50.8477987,
  "lon": 5.6931982,
  "tags": {
    "addr:city": "Maastricht",
    "addr:housenumber": "6",
    "addr:postcode": "6211HD",
    "addr:street": "Onze Lieve Vrouweplein",
    "name": "Museumkelder Derlon",
    "operator": "Hotel Derlon",
    "source": "BAG",
    "source:date": "2014-03-24",
    "tourism": "museum",
    "wikidata": "Q13866198",
    "wikipedia": "nl:Museumkelder Derlon"
  }
},
{
  "type": "node",
  "id": 2808618022,
  "lat": 50.8518926,
  "lon": 5.6858430,
  "tags": {
    "addr:city": "Maastricht",
    "addr:housenumber": "98",
    "addr:postcode": "6211RT",
    "addr:street": "Capucijnenstraat",
    "description": "Contemporary Culture",
    "fee": "MJK_free",
    "name": "Marres",
    "opening_hours": "Tu-Su 12:00-17:00",
    "source": "BAG",
    "source:date": "2014-03-24",
    "tourism": "museum",
    "website": "https://www.marres.org/"
  }
},
{
  "type": "node",
  "id": 2821530250,
  "lat": 50.9477849,
  "lon": 5.7589953,
  "tags": {
    "addr:city": "Elsloo",
    "addr:housenumber": "6",
    "addr:postcode": "6181GT",
    "addr:street": "Op de Berg",
    "name": "Streekmuseum Schippersbeurs",
    "source": "BAG",
    "source:date": "2014-03-24",
    "tourism": "museum"
  }
},
{
  "type": "node",
  "id": 2822975623,
  "lat": 50.9034461,
  "lon": 5.8247379,
  "tags": {
    "addr:city": "Schimmert",
    "addr:housenumber": "36",
    "addr:postcode": "6333BJ",
    "addr:street": "Hoofdstraat",
    "fee": "yes",
    "name": "Boerderij- en Heemkundemuseum Schimmert",
    "source": "BAG",
    "source:date": "2014-03-24",
    "tourism": "museum",
    "website": "http://www.boerderijmuseumschimmert.nl"
  }
},
{
  "type": "node",
  "id": 2915121971,
  "lat": 50.6729615,
  "lon": 5.5848077,
  "tags": {
    "name": "Musée de la Fraise et de la Vie d' Antan",
    "tourism": "museum",
    "website": "https://fraisevottem.wixsite.com/musee"
  }
},
{
  "type": "node",
  "id": 2952898756,
  "lat": 50.7453064,
  "lon": 5.7310075,
  "tags": {
    "addr:city": "Berneau",
    "addr:housenumber": "29",
    "addr:postcode": "4607",
    "addr:street": "Rue de Maëstricht",
    "name": "World War II Memory Museum",
    "note": "I don't know the exact location but it must be very near the indicated point.",
    "phone": "+32 479 82 98 12",
    "tourism": "museum",
    "website": "http://www.wwii-memory-museum.com"
  }
},
{
  "type": "node",
  "id": 2986025218,
  "lat": 50.8617039,
  "lon": 6.0581178,
  "tags": {
    "name": "Continium Discovery Center",
    "opening_hours": "Tu-Su,PH 10:00-17:00",
    "tourism": "museum",
    "website": "http://continium.nl/",
    "wikidata": "Q19461133",
    "wikipedia": "nl:Discovery Center Continium"
  }
},
{
  "type": "node",
  "id": 3261602866,
  "lat": 50.6471529,
  "lon": 5.5769673,
  "tags": {
    "addr:city": "Liège",
    "addr:housenumber": "2",
    "addr:postcode": "4000",
    "addr:street": "Rue Mère Dieu",
    "name": "Musée Liégeois du Luminaire",
    "note": "Sehr sehenswerte Museum zu Geschichte des Lichtes von Philippe Deitz  http://www.freizeitguide-euregio.de/kunst-kultur-geschichte/historische-museen-ausstellungen/46234.mulum-musee-de-lumiere.html",
    "operator": "Philippe Deitz",
    "tourism": "museum",
    "website": "http://lesmuseesdeliege.be/mulum/"
  }
},
{
  "type": "node",
  "id": 3825351116,
  "lat": 50.8305623,
  "lon": 5.6419091,
  "tags": {
    "addr:city": "Vroenhoven (Riemst)",
    "addr:housenumber": "212",
    "addr:postcode": "3770",
    "addr:street": "Maastrichtersteenweg",
    "air_conditioning": "no",
    "fee": "yes",
    "name": "Brug van Vroenhoven",
    "opening_hours": "We-Su 10:00-17:00",
    "payment:cash": "yes",
    "payment:debit_cards": "yes",
    "tourism": "museum",
    "website": "http://www.debrugvanvroenhoven.be/",
    "wheelchair": "yes"
  }
},
{
  "type": "node",
  "id": 3866902357,
  "lat": 50.8608270,
  "lon": 6.0577402,
  "tags": {
    "fixme": "position",
    "name": "Cube Design Museum",
    "opening_hours": "Tu-Su,PH 10:00-17:00",
    "tourism": "museum",
    "website": "https://www.cubedesignmuseum.nl/",
    "wikidata": "Q54944120"
  }
},
{
  "type": "node",
  "id": 4088565091,
  "lat": 50.6307883,
  "lon": 5.5655253,
  "tags": {
    "name": "MadMusée",
    "tourism": "museum"
  }
},
{
  "type": "node",
  "id": 4560188519,
  "lat": 51.0398710,
  "lon": 5.3281638,
  "tags": {
    "name": "De Luchtfabriek",
    "tourism": "museum"
  }
},
{
  "type": "node",
  "id": 4719991841,
  "lat": 50.8490467,
  "lon": 5.6872893,
  "tags": {
    "name": "De Schatkamer",
    "opening_hours": "Mo-Sa 10:00-17:00; Su 12:30-17:00",
    "operator": "Sint Servaasbasilliek",
    "tourism": "museum",
    "website": "https://www.sintservaas.nl/index24.html"
  }
},
{
  "type": "node",
  "id": 4883868495,
  "lat": 50.7910336,
  "lon": 6.1030625,
  "tags": {
    "name": "Fernmeldemuseum Aachen",
    "opening_hours": "Mo 11:00+ || \"nach Vereinbarung\"",
    "operator": "Verein der Förderer des Fernmeldemuseums Aachen e.V.",
    "phone": "+49 241 9191148",
    "tourism": "museum",
    "website": "http://www.fernmeldemuseum-aachen.de/",
    "wikidata": "Q16831351"
  }
},
{
  "type": "node",
  "id": 5006029993,
  "lat": 50.8567335,
  "lon": 5.6902773,
  "tags": {
    "addr:city": "Maastricht",
    "addr:housenumber": "9",
    "addr:postcode": "6211AS",
    "addr:street": "Boschstraat",
    "fee": "MJK_free",
    "name": "Bureau Europa",
    "opening_hours": "We-Su 12:00-17:00; Jan 01 off; Dec 25 off; Apr 27 off; \"during Carnival off\"",
    "source": "BAG",
    "source:date": "2017-08-01",
    "tourism": "museum"
  }
},
{
  "type": "node",
  "id": 5030612115,
  "lat": 50.6470244,
  "lon": 5.5821399,
  "tags": {
    "name": "Musée d'Ansembourg",
    "opening_hours": "Th-Su 10:00-18:00",
    "tourism": "museum",
    "wheelchair": "no",
    "wikidata": "Q2478313",
    "wikipedia": "fr:Musée d'Ansembourg"
  }
},
{
  "type": "node",
  "id": 5102700283,
  "lat": 50.6410571,
  "lon": 5.5836365,
  "tags": {
    "name": "Musée Gretry",
    "tourism": "museum",
    "wikidata": "Q3329180"
  }
},
{
  "type": "node",
  "id": 5394134148,
  "lat": 50.6387581,
  "lon": 5.5787869,
  "tags": {
    "addr:city": "Liège",
    "addr:housenumber": "22",
    "addr:postcode": "4020",
    "addr:street": "Quai Édouard Van Beneden",
    "name": "Maison de la science",
    "opening_hours": "Mo-Fr 09:00-12:30,13:30-17:00; Sa,Su 14:00-18:00; PH 14:00-18:00; Jul-Aug 13:30-18:00",
    "opening_hours:url": "http://maisondelascience.uliege.be/en-pratique/horaires/",
    "tourism": "museum",
    "website": "http://www.maisondelascience.ulg.ac.be/"
  }
},
{
  "type": "node",
  "id": 5443170741,
  "lat": 51.1411315,
  "lon": 5.5973451,
  "tags": {
    "name": "Stadsmuseum",
    "tourism": "museum"
  }
},
{
  "type": "node",
  "id": 5584611381,
  "lat": 50.9612561,
  "lon": 5.6996866,
  "tags": {
    "name": "Carnavalmuseum Mechelen-aan-de-Maas",
    "tourism": "museum"
  }
},
{
  "type": "node",
  "id": 6106216508,
  "lat": 50.8842344,
  "lon": 5.7540496,
  "tags": {
    "name": "Erfgoedhuis Meerssen",
    "tourism": "museum"
  }
},
{
  "type": "node",
  "id": 6202145549,
  "lat": 50.7694254,
  "lon": 6.0030476,
  "tags": {
    "addr:city": "Vaals",
    "addr:housenumber": "7",
    "addr:postcode": "6291NK",
    "addr:street": "Eschberg",
    "description": "  Museum Vaals is sinds eind april 2009 een nieuwe trekpleister in het mooie heuvel-achtige Zuid-Limburg, een stukje buitenland in Nederland, slechts twee kilometer vanaf het drielandenpunt.",
    "name": "Museum Vaals",
    "tourism": "museum",
    "website": "http://www.museumvaals.nl/index.html"
  }
},
{
  "type": "node",
  "id": 6237931311,
  "lat": 51.0953746,
  "lon": 5.7913046,
  "tags": {
    "tourism": "museum"
  }
},
{
  "type": "node",
  "id": 6583641279,
  "lat": 50.7952720,
  "lon": 6.0951874,
  "tags": {
    "name": "CHIO Aachen-Museum",
    "opening_hours": "We,Fr 12:00-17:00; Mo,Tu,Th,Sa,Su,PH off",
    "toilets:wheelchair": "yes",
    "tourism": "museum",
    "website": "https://www.chioaachen.de/de/chio-co/mehr-chio-aachen/chio-aachen-museum/",
    "wheelchair": "yes"
  }
},
{
  "type": "node",
  "id": 6791455375,
  "lat": 50.6110303,
  "lon": 5.7486434,
  "tags": {
    "name": "Musée de la vie populaire",
    "tourism": "museum"
  }
},
{
  "type": "way",
  "id": 8113202,
  "nodes": [
    60841557,
    6325145002,
    6325145001,
    6325145004,
    6325145003,
    1116365359,
    6325145019,
    6325145020,
    1116365071,
    6325145018,
    6325145017,
    6325145014,
    6325145016,
    6325145015,
    1116364957,
    1116365322,
    6325145000,
    6325144999,
    6325144998,
    6325144997,
    60841558,
    6325144996,
    6325144995,
    1116365053,
    1116365157,
    1116365003,
    1116365116,
    1116365393,
    1116365218,
    1116364991,
    1116365263,
    60841559,
    6325144675,
    6325144676,
    1116365106,
    6325144677,
    6325144678,
    1116365204,
    6325144679,
    6325144680,
    6325144681,
    6325144682,
    6325144683,
    6325144684,
    1116365304,
    6325144985,
    6325144986,
    1116365038,
    60841560,
    1116365144,
    1116365251,
    6325144987,
    6325144988,
    1116365349,
    485231182,
    6325145013,
    6325144989,
    485231188,
    6325144990,
    486646071,
    6325144991,
    485231185,
    6325144992,
    6325145012,
    485231178,
    1116365372,
    6325145011,
    1116365023,
    6325144994,
    6325144993,
    1116365223,
    6325145010,
    6325145009,
    6325145008,
    6325145007,
    6325145006,
    6325145005,
    60841557
  ],
  "tags": {
    "addr:housenumber": "3",
    "addr:street": "Parc de la Boverie",
    "alt_name": "Palais des beaux-arts de Liège",
    "building": "yes",
    "historic": "building",
    "name": "La Boverie",
    "start_date": "1905",
    "tourism": "museum",
    "website": "https://www.laboverie.com/",
    "wikidata": "Q21511875",
    "wikipedia": "fr:La Boverie"
  }
},
{
  "type": "way",
  "id": 30962032,
  "nodes": [
    344289477,
    6518122671,
    6518122672,
    344289479,
    6518122674,
    6518122673,
    344289481,
    344289483,
    344289477
  ],
  "tags": {
    "building": "yes",
    "description": "Fermé - En travaux",
    "name": "Madmusée",
    "opening_hours": "off",
    "tourism": "museum",
    "wikidata": "Q17347120",
    "wikipedia": "fr:MADmusée"
  }
},
{
  "type": "way",
  "id": 31694505,
  "nodes": [
    354673663,
    1103964250,
    1103964492,
    1103964040,
    1103963894,
    1103964083,
    1103964290,
    1103964546,
    1103964343,
    1103964133,
    1103964210,
    1103964460,
    1103964001,
    354673665,
    354673666,
    4049966837,
    4049966838,
    4050074336,
    354673668,
    4049966839,
    4049966841,
    4050074338,
    4050074337,
    4050042700,
    354673669,
    4049966840,
    4049966842,
    4049966844,
    4049966845,
    4049966847,
    4049966848,
    4049966849,
    354673671,
    4050042706,
    4049966850,
    4049966851,
    354673672,
    1103964099,
    1103964309,
    4049966852,
    1103964059,
    4049966853,
    1103964581,
    354673673,
    354673663
  ],
  "tags": {
    "addr:city": "Liège",
    "addr:country": "BE",
    "addr:housenumber": "22",
    "addr:postcode": "4020",
    "addr:street": "Quai Édouard Van Beneden",
    "building": "yes",
    "name": "Aquarium & Museum",
    "tourism": "museum",
    "wikidata": "Q40680"
  }
},
{
  "type": "way",
  "id": 31858213,
  "nodes": [
    356664002,
    356664004,
    4560286905,
    4560286904,
    356664005,
    4560286903,
    4560286902,
    4560286901,
    4560286900,
    4560286899,
    4560286898,
    4560286897,
    4560286896,
    356664007,
    4560286895,
    356664014,
    4560286907,
    356664002
  ],
  "tags": {
    "addr:housenumber": "17",
    "addr:street": "Boulevard Raymond Poincaré",
    "building": "yes",
    "name": "Maison de la métallurgie",
    "tourism": "museum",
    "website": "http://mmil.uliege.be/"
  }
},
{
  "type": "way",
  "id": 33419227,
  "nodes": [
    380238665,
    380238667,
    380238669,
    380238671,
    380238673,
    380238674,
    380238676,
    380238677,
    380238678,
    380238679,
    380238681,
    924402600,
    380238682,
    380238684,
    380238686,
    380238687,
    380238688,
    380238690,
    380238692,
    380238694,
    380238696,
    380238697,
    380238665
  ],
  "tags": {
    "addr:city": "Aachen",
    "addr:country": "DE",
    "addr:housenumber": "45",
    "addr:street": "Goffartstraße",
    "building": "yes",
    "building:levels": "3",
    "castle_type": "castle",
    "heritage": "8",
    "heritage:operator": "UntereDenkmalbehörde",
    "historic": "castle",
    "name": "Burg Frankenberg",
    "operator": "Frankenb(u)erger e.V.",
    "roof:levels": "1",
    "toilets:wheelchair": "yes",
    "tourism": "museum",
    "website": "http://www.burgfrankenberg.de/",
    "wheelchair": "yes",
    "wikidata": "Q1011767",
    "wikipedia": "de:Burg Frankenberg (Aachen)"
  }
},
{
  "type": "way",
  "id": 40023553,
  "nodes": [
    481213381,
    481217221,
    6833131640,
    481205276,
    481205279,
    481209423,
    481213901,
    481215278,
    481208623,
    6833131635,
    6833131634,
    6833131633,
    6833131632,
    2264340637,
    2264340640,
    481205280,
    481205289,
    6833131628,
    6833131626,
    6833131625,
    6833131627,
    481205238,
    481205247,
    6833131623,
    6833131624,
    2264340602,
    2264340605,
    2264340586,
    2264340583,
    2264340579,
    481207019,
    481207034,
    2264340606,
    2264340594,
    2264340607,
    2264340623,
    481205265,
    2264340629,
    2264340631,
    481205269,
    6833131637,
    6833131636,
    6833131638,
    6833131639,
    481208159,
    481213079,
    481213381
  ],
  "tags": {
    "addr:city": "Tongeren",
    "addr:country": "BE",
    "addr:housenumber": "16",
    "addr:street": "Kielenstraat",
    "building": "public",
    "name": "Gallo-Romeins Museum",
    "name:de": "Gallo-Römisches Museum",
    "name:en": "Gallo-Roman Museum",
    "name:eo": "Gaŭl-Romia muzeo",
    "name:fr": "Musée gallo-romain",
    "name:nl": "Gallo-Romeins Museum",
    "opening_hours": "09:00-18:00",
    "tourism": "museum",
    "website": "https://www.galloromeinsmuseum.be/",
    "wikidata": "Q1492516",
    "wikipedia": "nl:Gallo-Romeins Museum (Tongeren)"
  }
},
{
  "type": "way",
  "id": 44225062,
  "nodes": [
    561925416,
    561925424,
    561925399,
    561925409,
    561925402,
    561925443,
    6786651264,
    561924774,
    561924741,
    561924751,
    561925441,
    561925416
  ],
  "tags": {
    "building": "civic",
    "name": "Maison de la Montagne Saint Pierre",
    "tourism": "museum"
  }
},
{
  "type": "way",
  "id": 45340745,
  "nodes": [
    576340796,
    576340800,
    576340802,
    576340805,
    576340796
  ],
  "tags": {
    "building": "yes",
    "museum": "local",
    "name": "Museum Zoe was Alleke",
    "tourism": "museum"
  }
},
{
  "type": "way",
  "id": 46595756,
  "nodes": [
    595504101,
    595504103,
    2203145886,
    595504105,
    1116365125,
    595504104,
    595504102,
    595504100,
    595504101
  ],
  "tags": {
    "addr:city": "Liège",
    "addr:country": "BE",
    "addr:housenumber": "9",
    "addr:postcode": "4020",
    "addr:street": "Rue Richard Heintz",
    "building": "yes",
    "name": "Musée des Transports en commun de Wallonie",
    "operator": "TEC",
    "tourism": "museum",
    "website": "www.musee-transports.be",
    "wikidata": "Q839424"
  }
},
{
  "type": "way",
  "id": 47236397,
  "nodes": [
    2577691874,
    2577690946,
    2577690852,
    2577690956,
    2577690791,
    2577691636,
    2577691874
  ],
  "tags": {
    "building": "yes",
    "contact:email": "info@Bauernmuseum-Selfkant.de",
    "contact:fax": "+49 2456 509530",
    "contact:phone": "+49 2456 5070365",
    "contact:website": "http://www.bauernmuseum-selfkant.de",
    "museum": "agriculture",
    "name": "Bauernmuseum Selfkant",
    "opening_hours": "We,Su 13:00-18:00 || \"Groups can make additional reservation by phone.\"",
    "tourism": "museum",
    "wikidata": "Q55189564"
  }
},
{
  "type": "way",
  "id": 50670009,
  "nodes": [
    2648284481,
    2648284472,
    2648284501,
    2648284502,
    2648284529,
    2648284498,
    2648284504,
    2648284496,
    2648284489,
    2648284481
  ],
  "tags": {
    "addr:city": "Waldfeucht",
    "addr:country": "DE",
    "addr:housenumber": "32",
    "addr:postcode": "52525",
    "addr:street": "Brabanter Straße",
    "building": "yes",
    "description": "Der in zeittypischer Backsteinmanier errichtete zweigeschossige Bau erhielt ein angesetztes Treppenhaus und eine in den Geschossen unterschiedliche Fassadengestaltung",
    "heritage": "yes",
    "historic": "building",
    "historic:website": "www.limburg-bernd.de",
    "image": "https://upload.wikimedia.org/wikipedia/commons/3/3f/Waldfeucht_Denkmal-Nr._84%2C_Brabanter_Stra%C3%9Fe_32_%285063%29.jpg",
    "name": "Gerhard-Tholen-Stube",
    "note": "Sonntags nur am 3. Sonntag im Monat geöffnet!",
    "old_name": "ehemalige Volksschule",
    "opening_hours": "Mo-Th 09:00-12:00,14:00-16:00, Fr 09:00-12:00, Su 14:00-17:00",
    "operator": "Historischer Verein Waldfeucht e.V.",
    "source": "3dShapes",
    "start_date": "1935",
    "tourism": "museum",
    "tourism:website": "www.hist-waldfeucht.de",
    "wheelchair": "no",
    "wikipedia": "de:Liste der Baudenkmäler in Waldfeucht"
  }
},
{
  "type": "way",
  "id": 54185897,
  "nodes": [
    683472392,
    6919104303,
    6919104304,
    6919104305,
    2843051182,
    6919104306,
    2843051179,
    6919104307,
    2843051177,
    6919104308,
    6919104309,
    2843051174,
    2843051175,
    2843051165,
    2843051164,
    6919104310,
    683471700,
    683473480,
    683474467,
    2843051150,
    683473827,
    683472616,
    683474813,
    683474699,
    683472732,
    683475662,
    2843051153,
    2843051155,
    2843051156,
    2843051158,
    683473429,
    683474274,
    683473305,
    2843051172,
    683472267,
    2843051181,
    683473595,
    683471397,
    683472392
  ],
  "tags": {
    "addr:city": "Dilsen-Stokkem",
    "addr:country": "BE",
    "addr:housenumber": "2-3",
    "addr:postcode": "3650",
    "addr:street": "Negenoordlaan",
    "building": "public",
    "name": "Maascentrum De Wissen",
    "tourism": "museum"
  }
},
{
  "type": "way",
  "id": 77755724,
  "nodes": [
    914438449,
    1013134219,
    914438514,
    914438379,
    914438434,
    914438499,
    914438512,
    914438564,
    2446449981,
    914438403,
    914438521,
    914438500,
    914438449
  ],
  "tags": {
    "addr:city": "Aachen",
    "addr:country": "DE",
    "addr:housenumber": "18-20",
    "addr:postcode": "52070",
    "addr:street": "Wilhelmstraße",
    "building": "civic",
    "building:levels": "6",
    "contact:fax": "+49-241-37075",
    "contact:phone": "+49-241-47980-0",
    "name": "Suermondt-Ludwig-Museum",
    "name:de": "Suermondt-Ludwig-Museum",
    "name:ru": "Музей Сюрмонда-Людвига",
    "opening_hours": "Tu 12:00-18:00;We 12:00-20:00;Th-Fr 12:00-18:00;Sa-Su 11:00-18:00",
    "phone": "+49 241 479800",
    "toilets:wheelchair": "yes",
    "tourism": "museum",
    "website": "http://www.suermondt-ludwig-museum.de/",
    "wheelchair": "yes",
    "wikipedia": "de:Suermondt-Ludwig-Museum"
  }
},
{
  "type": "way",
  "id": 77817084,
  "nodes": [
    914914841,
    1222029410,
    914914843,
    1222029423,
    914914837,
    1715129232,
    914914848,
    1222029428,
    914914855,
    1222029421,
    1222029394,
    1222029402,
    914914845,
    914914841
  ],
  "tags": {
    "addr:city": "Aachen",
    "addr:country": "DE",
    "addr:housenumber": "97-109",
    "addr:postcode": "52070",
    "addr:street": "Jülicher Straße",
    "building": "yes",
    "contact:fax": "+49-241- 1807-101",
    "contact:phone": "+49-241- 1807-104",
    "heritage": "8",
    "heritage:operator": "UntereDenkmalbehörde",
    "name": "Ludwig Forum für Internationale Kunst",
    "name:ru": "Музей современного искусства Людвига",
    "opening_hours": "Tu-We 12:00-18:00; Th 12:00-22:00; Fr 12:00-18:00; Sa, Su, PH 11:00-18:00",
    "short_name": "Ludwig Forum",
    "tourism": "museum",
    "website": "http://www.ludwigforum.de/",
    "wheelchair": "yes",
    "wikidata": "Q464386",
    "wikipedia": "de:Ludwig Forum für Internationale Kunst"
  }
},
{
  "type": "way",
  "id": 79140320,
  "nodes": [
    924649326,
    1002784928,
    914308061,
    914307535,
    924649347,
    924649360,
    924649338,
    924649372,
    2297392445,
    924649359,
    4288767274,
    2297392410,
    4288767275,
    924649326
  ],
  "tags": {
    "addr:city": "Aachen",
    "addr:country": "DE",
    "addr:housenumber": "14",
    "addr:postcode": "52062",
    "addr:street": "Büchel",
    "building": "yes",
    "building:levels": "4",
    "description": "Es sollen in der roten Burg während des Jahres literarische Abende mit Lesungen von Autoren (auch aus der Region Aachen) und Musikabende zur Förderung junger Musiker stattfinden. https://roteburg-buechelmuseum.de/2018/07/17/eroeffnung/",
    "email": "info@roteburg-buechelmuseum.de",
    "fee": "https://roteburg-buechelmuseum.de/kontakt/",
    "heritage": "8",
    "heritage:operator": "UntereDenkmalbehörde",
    "name": "Büchel-Museum Rote Burg",
    "opening_hours": "Tu-Su 12:00-18:00",
    "operator": "Jörg von der Laage",
    "phone": "+49 241 887 499 88",
    "start_date": "September 2018",
    "tourism": "museum",
    "website": "https://roteburg-buechelmuseum.de/",
    "wikidata": "Q62665060",
    "wikipedia": "de:Rote Burg"
  }
},
{
  "type": "way",
  "id": 79141497,
  "nodes": [
    924660521,
    981576492,
    220999729,
    924660530,
    316560768,
    924660508,
    924660527,
    924660519,
    924660509,
    924660521
  ],
  "tags": {
    "addr:city": "Aachen",
    "addr:country": "DE",
    "addr:housename": "Haus Monheim",
    "addr:housenumber": "17",
    "addr:postcode": "52062",
    "addr:street": "Hühnermarkt",
    "building": "yes",
    "heritage": "8",
    "heritage:operator": "UntereDenkmalbehörde",
    "name": "Couven-Museum",
    "name:ru": "Музей Кувен (музей быта)",
    "opening_hours": "Tu-Su 10:00-18:00",
    "phone": "+49 241 4324421",
    "toilets:wheelchair": "no",
    "tourism": "museum",
    "website": "http://www.couven-museum.de",
    "wheelchair": "limited",
    "wikidata": "Q1590371",
    "wikipedia": "de:Haus Monheim"
  }
},
{
  "type": "way",
  "id": 103544384,
  "nodes": [
    1195493049,
    1195493050,
    1195492988,
    5881569776,
    1195493016,
    5881569784,
    5881569893,
    1213673508,
    1195493049
  ],
  "tags": {
    "MDG:criteria": "D",
    "MDG:inscription_date": "1983-03-25",
    "addr:city": "Eupen",
    "addr:country": "BE",
    "addr:housenumber": "52",
    "addr:postcode": "4700",
    "addr:street": "Gospertstraße",
    "building": "yes",
    "building:levels": "3",
    "description": "The townhouse dates back to 1697. Since 1980 it houses the city museum.",
    "description:de": "Das Stadthausstammt aus dem Jahr 1697. Es beherbergt seit 1980 das Stadtmuseum.",
    "description:en": "The townhouse dates back to 1697. Since 1980 it houses the city museum.",
    "description:fr": "La maison de ville date de 1697. Depuis 1980, elle abrite le musée de la ville.",
    "description:nl": "Het herenhuis dateert uit 1697. Sinds 1980 herbergt het stadsmuseum.",
    "email": "info@eupener-stadtmuseum.be",
    "heritage": "4",
    "heritage:operator": "MDG",
    "heritage:website": "http://www.ostbelgienkulturerbe.be/desktopdefault.aspx/tabid-3557/linkid=31126",
    "historic": "building",
    "image": "File:EUPEN_Gospertstrasse_52_(Stadtmuseum)_(2).JPG",
    "name": "Stadtmuseum Eupen",
    "opening_hours": "Mo-Fr 08:00-12:00, 13:00-17:00; Sa 08:00-12:00, 13:00-15:00",
    "operator": "Stadt Eupen",
    "payment:coins": "yes",
    "payment:maestro": "yes",
    "payment:mastercard": "yes",
    "payment:notes": "yes",
    "payment:visa": "yes",
    "phone": "+32 87 74 00 05",
    "ref:MDG": "31126",
    "start_date": "1697",
    "tourism": "museum",
    "wheelchair": "yes",
    "wikimedia_commons": "Category:Haus_Gospertstraße_52_(Eupen)"
  }
},
{
  "type": "way",
  "id": 105325959,
  "nodes": [
    1213673589,
    1195493049,
    1213673508,
    5881569894,
    5520141177,
    5881569899,
    1213673589
  ],
  "tags": {
    "addr:city": "Eupen",
    "addr:country": "BE",
    "addr:housenumber": "54",
    "addr:postcode": "4700",
    "addr:street": "Gospertstraße",
    "building": "yes",
    "building:levels": "3",
    "email": "info@eupener-stadtmuseum.be",
    "image": "https://commons.wikimedia.org/wiki/File:EUPEN_Gospertstrasse_52_(Stadtmuseum)_(2).JPG",
    "name": "Stadtmuseum Eupen",
    "opening_hours": "Mo-Fr 08:00-12:00, 13:00-17:00; Sa 08:00-12:00, 13:00-15:00",
    "operator": "Stadt Eupen",
    "payment:coins": "yes",
    "payment:maestro": "yes",
    "payment:mastercard": "yes",
    "payment:notes": "yes",
    "payment:visa": "yes",
    "phone": "+32 87 74 00 05",
    "tourism": "museum",
    "wheelchair": "yes",
    "wikimedia_commons": "Category:Stadtmuseum_Eupen"
  }
},
{
  "type": "way",
  "id": 131299948,
  "nodes": [
    1445338598,
    1445338596,
    1445338597,
    1445338599,
    1445338598
  ],
  "tags": {
    "addr:housenumber": "64",
    "addr:street": "Avenue de Navagne",
    "building": "yes",
    "name": "Club des Chercheurs et Correspondants Cheminot",
    "opening_hours": "\"needs reservation by phone\"",
    "phone": "+32 473 79 08 90",
    "short_name": "CCCC",
    "tourism": "museum",
    "website": "http://cccc-vise.over-blog.com/"
  }
},
{
  "type": "way",
  "id": 155557497,
  "nodes": [
    1679501065,
    5863186417,
    1679501063,
    1679501064,
    1679501069,
    1679501067,
    1679501065
  ],
  "tags": {
    "addr:city": "Limbourg",
    "addr:housenumber": "30",
    "addr:postcode": "4830",
    "addr:street": "Place Saint-Georges",
    "building": "yes",
    "name": "L'Arvo",
    "tourism": "museum"
  }
},
{
  "type": "way",
  "id": 163977380,
  "nodes": [
    1756331524,
    1756331504,
    1756331510,
    1756331512,
    1756331527,
    1756331525,
    1756331524
  ],
  "tags": {
    "addr:housenumber": "17",
    "addr:street": "Rue Renier",
    "building": "yes",
    "historic": "archaeological_site",
    "name": "Musée des Beaux-Arts et de la Céramique",
    "opening_hours": "Tu, We, Sa 14:00-17:00; Su 15:00-18:00",
    "tourism": "museum",
    "website": "http://musees.verviers.be/musee-des-beaux-arts"
  }
},
{
  "type": "way",
  "id": 164061380,
  "nodes": [
    4758463326,
    1757225827,
    4758463328,
    5995922028,
    4758463325,
    4758463326
  ],
  "tags": {
    "addr:city": "Verviers",
    "addr:housenumber": "42",
    "addr:postcode": "4800",
    "addr:street": "Rue des Raines",
    "building": "yes",
    "name": "Musée d'Archéologie et de Folklore",
    "phone": "+32 87 33 16 95",
    "tourism": "museum",
    "website": "http://musees.verviers.be"
  }
},
{
  "type": "way",
  "id": 174647053,
  "nodes": [
    1853014727,
    1853014725,
    1853014726,
    5043813894,
    5043813893,
    6695967263,
    6695967264,
    1853014729,
    5043813892,
    5043813891,
    1853014728,
    1853014730,
    1853014727
  ],
  "tags": {
    "building": "yes",
    "disused:man_made": "mine",
    "historic": "mine",
    "image": "File:Blegny- Mine Puits Marie 2.jpg",
    "name": "Blegny-Mine - Puits Marie",
    "resource": "coal",
    "tourism": "museum"
  }
},
{
  "type": "way",
  "id": 196610050,
  "nodes": [
    2069249277,
    2069249279,
    2069249282,
    5156863999,
    5156864000,
    2069249280,
    2069249277
  ],
  "tags": {
    "addr:city": "Hasselt",
    "addr:housenumber": "35",
    "addr:postcode": "3500",
    "addr:street": "Bampslaan",
    "building": "yes",
    "name": "Literair museum",
    "tourism": "museum",
    "website": "http://www.literairmuseum.be/"
  }
},
{
  "type": "way",
  "id": 199727993,
  "nodes": [
    2097146695,
    2097146685,
    2097146688,
    2407675225,
    2407675227,
    2407675238,
    2097146689,
    2097146697,
    2097146695
  ],
  "tags": {
    "OnroerendErfgoed:criteria": "M",
    "addr:city": "Heusden-Zolder",
    "addr:country": "BE",
    "addr:housenumber": "28",
    "addr:postcode": "3550",
    "addr:street": "Dekenstraat",
    "alt_name": "Woutershof",
    "building": "yes",
    "description": "Voormalige witherenpastorie uit 1744. Thans gerestaureerd en ingericht als gemeentelijk museum.",
    "heritage": "4",
    "heritage:operator": "OnroerendErfgoed",
    "heritage:website": "https://inventaris.onroerenderfgoed.be/erfgoedobjecten/22504",
    "name": "Heemkundig Museum Woutershof",
    "old_name": "Witherenpastorie Woutershof",
    "ref:OnroerendErfgoed": "22504",
    "start_date": "1744",
    "tourism": "museum",
    "wheelchair": "no"
  }
},
{
  "type": "way",
  "id": 210081990,
  "nodes": [
    975268308,
    975268305,
    2202079360,
    2202079384,
    2202079378,
    2202079346,
    2202079351,
    2202079381,
    975268260,
    2202079364,
    2202079366,
    2202079372,
    2202079370,
    2202079368,
    2202079382,
    975268266,
    975268281,
    2202079383,
    5447609394,
    5447609395,
    975268262,
    975268246,
    975268294,
    975268225,
    975268201,
    5447609387,
    975268310,
    1544204551,
    2311741662,
    975268214,
    2311741578,
    2311806242,
    975268256,
    1512631996,
    2311806239,
    975268286,
    975268216,
    975268251,
    975268308
  ],
  "tags": {
    "addr:city": "Aachen",
    "addr:housenumber": "1",
    "addr:postcode": "52062",
    "addr:street": "Katschhof",
    "building": "yes",
    "fee": "yes",
    "heritage": "8",
    "heritage:operator": "UntereDenkmalbehörde",
    "name": "Centre Charlemagne",
    "name:ru": "Исторический музей Ахена",
    "opening_hours": "Tu-Su,PH 10:00-17:00",
    "phone": "+49 241 4324902",
    "toilets:wheelchair": "yes",
    "tourism": "museum",
    "website": "http://www.route-charlemagne.eu/stationen/Centre_Charlemagne/",
    "wheelchair": "yes",
    "wikidata": "Q17278003"
  }
},
{
  "type": "way",
  "id": 242280124,
  "nodes": [
    2497867981,
    4922388540,
    4922388539,
    6912950248,
    2497867984,
    6912950247,
    2497867986,
    4922388538,
    4922388533,
    4922388532,
    4922388531,
    4922388534,
    2497867988,
    4922388535,
    4922388536,
    4922388537,
    2497867990,
    2497867981
  ],
  "tags": {
    "building": "yes",
    "disused": "yes",
    "name": "La Tour d'Air",
    "tourism": "museum"
  }
},
{
  "type": "way",
  "id": 242280125,
  "nodes": [
    2497867992,
    2497867994,
    2497867996,
    2497867998,
    2497867992
  ],
  "tags": {
    "disused": "yes",
    "name": "La Tour d'Air",
    "tourism": "museum"
  }
},
{
  "type": "way",
  "id": 245128986,
  "nodes": [
    2523751883,
    2523751879,
    2523751880,
    2523751882,
    2523751884,
    2523751890,
    2523751889,
    2523751892,
    2523751891,
    2523751888,
    2523751887,
    2523751886,
    2523751885,
    2523751881,
    2523751883
  ],
  "tags": {
    "building": "civic",
    "name": "Emile Van Dorenmuseum",
    "tourism": "museum",
    "wikidata": "Q2896852"
  }
},
{
  "type": "way",
  "id": 249265082,
  "nodes": [
    2558979048,
    2558979045,
    2558979019,
    2558979047,
    2558979008,
    5017127189,
    5017127190,
    5017127200,
    5017127198,
    5017127197,
    5017127196,
    5017127199,
    5017127195,
    5017127194,
    5017127193,
    5017127201,
    5017127192,
    5017127191,
    5017127188,
    2558979048
  ],
  "tags": {
    "amenity": "arts_centre",
    "building": "yes",
    "description": "Centre Wallon d'Art Contemporain",
    "historic": "manor",
    "name": "La Châtaigneraie",
    "start_date": "1830",
    "tourism": "museum",
    "website": "http://www.cwac.be"
  }
},
{
  "type": "way",
  "id": 259371270,
  "nodes": [
    2647724720,
    2647724713,
    2647724701,
    2647724702,
    2647724691,
    2647724703,
    2647724728,
    2647724719,
    2647724720
  ],
  "tags": {
    "addr:city": "Waldfeucht",
    "addr:country": "DE",
    "addr:housenumber": "57",
    "addr:postcode": "52525",
    "addr:street": "Kirchstraße",
    "addr:suburb": "Bocket",
    "building": "yes",
    "name": "Radio-Museum Bocket",
    "operator": "Hans Stellmacher",
    "phone": "+49 2455 9309933",
    "tourism": "museum",
    "website": "http://www.radiomuseum-bocket.de"
  }
},
{
  "type": "way",
  "id": 261457030,
  "nodes": [
    2670731554,
    3370677585,
    2670731555,
    2670731553,
    3370677577,
    3370677576,
    2670731552,
    2670731554
  ],
  "tags": {
    "addr:city": "Übach-Palenberg",
    "addr:country": "DE",
    "addr:housenumber": "21",
    "addr:postcode": "52531",
    "addr:street": "Otbertstraße",
    "building": "yes",
    "description": "by appointment only; Guided tours for groups only by denying",
    "description:de": "nur nach Vereinbarung; Führung für Gruppen nur nach Absprache",
    "name": "Sammlung Riediger",
    "phone": "+49 2451 45076",
    "tourism": "museum",
    "website": "https://liveserver5.ionas.de/brd/nrw/c5/sv_uebach_palenberg/kultur_freizeit_tourismus/kulturtraeger_in_uebach_palenberg/sammlung_riediger/index.html",
    "wheelchair": "no",
    "wikidata": "Q76635150"
  }
},
{
  "type": "way",
  "id": 261596460,
  "nodes": [
    2671916573,
    2671916537,
    2671916536,
    2671916530,
    2671916523,
    2671916512,
    2671916513,
    2671916503,
    2671916504,
    2671916506,
    2671916505,
    2671916524,
    2671916538,
    2671916539,
    2671916574,
    2671916573
  ],
  "tags": {
    "addr:city": "Geilenkirchen",
    "addr:country": "DE",
    "addr:housenumber": "2",
    "addr:postcode": "52511",
    "addr:street": "Vogteistraße",
    "building": "yes",
    "email": "museum@kreis-Heinsberg.de",
    "fax": "+49 2452 134095",
    "name": "Geilenkirchen – Kreismuseum",
    "opening_hours": "Sa 14:00-18:00; Su 10:00-12:30; 14:00-18:00",
    "phone": "+49 2452 134027",
    "tourism": "museum"
  }
},
{
  "type": "way",
  "id": 263412385,
  "nodes": [
    2690224697,
    2690224693,
    2690224715,
    2690224712,
    2690224709,
    2690224706,
    2690224703,
    2690224687,
    2690224690,
    2690224663,
    2690224666,
    2690224641,
    2690224644,
    2690224651,
    2690224648,
    2690224681,
    2690224678,
    2690224675,
    2690224684,
    2690224697
  ],
  "tags": {
    "abandoned:man_made": "windmill",
    "addr:city": "Gangelt",
    "addr:country": "DE",
    "addr:housenumber": "998",
    "addr:postcode": "52538",
    "addr:street": "Waldfeuchter Straße",
    "addr:suburb": "Breberen",
    "building": "yes",
    "description": "Turmwindmühle errichtet im Jahre 1842 (1827) aus Backstein. Die Mühle wurde 1950 restauriert",
    "heritage": "8",
    "heritage:operator": "UntereDenkmalbehörde",
    "image": "https://upload.wikimedia.org/wikipedia/commons/0/0c/Gangelt-Breberen_Denkmal-Nr._30%2C_M%C3%BChlenstra%C3%9Fe_%284013%29.jpg",
    "man_made": "windmill",
    "name": "Museumsmühle",
    "operator": "Verein Historische Mühlen im Selfkant e.V.",
    "ref:Gangelt": "30",
    "related:wikipedia": "de:Liste der Baudenkmäler in Gangelt",
    "start_date": "1842",
    "tourism": "museum",
    "tourism:addr_city": "Waldfeucht",
    "tourism:addr_housenumber": "13",
    "tourism:addr_postcode": "52525",
    "tourism:addr_street": "Lambertusstraße",
    "tourism:email": "j.vraetz@waldfeucht.de",
    "tourism:fax": "+49 2455 4077734",
    "tourism:phone": "+49 2455 39934",
    "tourism:website": "http://www.muehlenverein-selfkant.de/",
    "windmill:vanes": "yes"
  }
},
{
  "type": "way",
  "id": 267198183,
  "nodes": [
    2726676752,
    2726676766,
    2726676776,
    2726676761,
    2726676775,
    2386613334,
    2682937228,
    2726676763,
    2726676778,
    2682937219,
    2682937210,
    2726676745,
    2726676752
  ],
  "tags": {
    "addr:city": "Hasselt",
    "addr:housenumber": "11",
    "addr:postcode": "3500",
    "addr:street": "Gasthuisstraat",
    "building": "civic",
    "name": "Modemuseum Hasselt",
    "phone": "+32 11 23 96 21",
    "tourism": "museum",
    "website": "http://www.modemuseumhasselt.be/",
    "wikidata": "Q2515989"
  }
},
{
  "type": "way",
  "id": 274187428,
  "nodes": [
    2789478770,
    2789478838,
    2789478825,
    2789478755,
    2789478770
  ],
  "tags": {
    "addr:city": "Vaals",
    "addr:country": "NL",
    "addr:housenumber": "2c",
    "addr:postcode": "6291BB",
    "addr:street": "Akenerstraat",
    "building": "yes",
    "description": "het kleinste en hoogst gelegen museum van Nederland",
    "image": "File:Vaals-Douanepost Akenerstraat (1).JPG",
    "name": "Kleng Wach",
    "ref:bag": "981100000022080",
    "source": "BAG",
    "source:date": "2014-03-24",
    "start_date": "1988",
    "tourism": "museum",
    "wheelchair": "no",
    "wikimedia_commons": "Category:Grenzmuseum (Vaals)"
  }
},
{
  "type": "way",
  "id": 274540510,
  "nodes": [
    937991582,
    2792437028,
    2792437056,
    599279929,
    937991582
  ],
  "tags": {
    "building": "yes",
    "building:levels": "1",
    "name": "Netherlands American Cemetery and Memorial Museum",
    "ref:bag": "936100000006576",
    "source": "BAG",
    "source:date": "2014-03-24",
    "start_date": "1960",
    "tourism": "museum"
  }
},
{
  "type": "way",
  "id": 275332696,
  "nodes": [
    2799708000,
    2799707992,
    2799707990,
    2799718659,
    2799718660,
    4555503114,
    4555503113,
    4555503112,
    2799708000
  ],
  "tags": {
    "building": "house",
    "name": "Museum Sint-Pieters",
    "ref:bag": "935100000089492",
    "source": "BAG",
    "source:date": "2016-12-15",
    "start_date": "1927",
    "tourism": "museum",
    "wikidata": "Q2685462"
  }
},
{
  "type": "way",
  "id": 275350629,
  "nodes": [
    2799909628,
    2799909632,
    2799909640,
    2799909634,
    2799909646,
    2799909639,
    2799909606,
    2799909603,
    2799909593,
    2799909582,
    2799909586,
    2799909570,
    2799909579,
    2799909573,
    2799909585,
    2799909587,
    2799909604,
    2799909605,
    2799909618,
    2799909628
  ],
  "tags": {
    "building": "yes",
    "name": "Eyewitness",
    "opening_hours": "Mo off; Tu 10:00-17:00; We 10:00-17:00; Th 10:00-17:00; Fr 10:00-17:00; Sa 12:00-18:00; Su 12:00-18:00",
    "ref:bag": "888100000008464",
    "source": "BAG",
    "source:date": "2014-03-24",
    "start_date": "1921",
    "tourism": "museum",
    "website": "https://www.eyewitnesswo2.nl/",
    "wikidata": "Q18433388"
  }
},
{
  "type": "way",
  "id": 275826062,
  "nodes": [
    2804935839,
    2804935809,
    2804935492,
    2804934181,
    2804935839
  ],
  "tags": {
    "building": "yes",
    "name": "Schatkamer Sint-Servaasbasiliek",
    "name:en": "Treasury of the Basilica of Saint Servatius",
    "ref:bag": "935100000017083",
    "source": "BAG",
    "source:date": "2014-03-24",
    "start_date": "1854",
    "tourism": "museum",
    "wikidata": "Q2284283"
  }
},
{
  "type": "way",
  "id": 276399572,
  "nodes": [
    2809919855,
    2809919862,
    2809919872,
    2809919874,
    2809919882,
    2809919886,
    2809919888,
    2809919895,
    2809921301,
    2809921304,
    2809921310,
    2809921314,
    2809921320,
    2809921324,
    2809921327,
    2809921330,
    2809921331,
    2809921329,
    2809921326,
    2809921322,
    2809921318,
    2809921313,
    2809921308,
    2809921303,
    2809919898,
    2809919893,
    2809919887,
    2809919884,
    2809919879,
    2809919871,
    2809919880,
    2809921997,
    2809922000,
    2809921986,
    2809921991,
    2809922205,
    2809922206,
    2809921993,
    2809922201,
    2809922216,
    2809922218,
    2809922202,
    2809922211,
    2809922230,
    2809922232,
    2809922212,
    2809922222,
    2809922732,
    2809922733,
    2809922224,
    2809922234,
    2809922744,
    2809922746,
    2809922728,
    2809922736,
    2809922752,
    2809922754,
    2809922738,
    2809922750,
    2809922763,
    2809922765,
    2809922751,
    2809922758,
    2809922770,
    2809922771,
    2809922759,
    2809922767,
    2809924208,
    2809921398,
    2809923288,
    2809925407,
    2809924236,
    2809924235,
    2809922802,
    2809922809,
    2809922215,
    2809922213,
    2809921959,
    2809921961,
    2809919851,
    2809919844,
    2809917957,
    2809917956,
    2809913760,
    2809909162,
    2809917359,
    2809917928,
    2809920625,
    2809920613,
    2809919587,
    2809919585,
    2809920611,
    2809919597,
    2809919571,
    2809919568,
    2809919595,
    2809919579,
    2809919556,
    2809919554,
    2809919578,
    2809919564,
    2809919536,
    2809919534,
    2809919559,
    2809919550,
    2809919524,
    2809919523,
    2809919545,
    2809919529,
    2809919517,
    2809919515,
    2809919527,
    2809919521,
    2809919506,
    2809919501,
    2809919520,
    2809919510,
    2809916490,
    2809916488,
    2809919508,
    2809916498,
    2809916481,
    2809916480,
    2809920637,
    2809920633,
    2809920627,
    2809920621,
    2809920617,
    2809920610,
    2809919600,
    2809919594,
    2809919586,
    2809919576,
    2809919569,
    2809919560,
    2809919557,
    2809919553,
    2809919551,
    2809919547,
    2809919546,
    2809919549,
    2809919552,
    2809919555,
    2809919558,
    2809919566,
    2809919573,
    2809919583,
    2809919592,
    2809919599,
    2809920607,
    2809920616,
    2809920620,
    2809920631,
    2809920623,
    2809919593,
    2809919561,
    2809919532,
    2809919512,
    2809916493,
    2809916479,
    2809916464,
    2809916457,
    2809916450,
    2809916455,
    2809916463,
    2809916478,
    2809916494,
    2809919514,
    2809919533,
    2809919570,
    2809920609,
    2809920640,
    2809919853,
    2809919876,
    2809919897,
    2809921316,
    2809921334,
    2809921939,
    2809921942,
    2809921945,
    2809921944,
    2809921940,
    2809921335,
    2809921317,
    2809919900,
    2809919878,
    2809919855
  ],
  "tags": {
    "addr:city": "Maastricht",
    "addr:country": "NL",
    "addr:housenumber": "250",
    "addr:street": "Avenue Ceramique",
    "building": "yes",
    "fee": "MJK_free",
    "name": "Bonnefantenmuseum",
    "opening_hours": "Tu-Su 11:00-17:00",
    "ref:bag": "935100000023799",
    "source": "BAG",
    "source:date": "2014-03-24",
    "start_date": "1992",
    "tourism": "museum",
    "website": "https://www.bonnefanten.nl/",
    "wikidata": "Q892727",
    "wikipedia": "nl:Bonnefantenmuseum"
  }
},
{
  "type": "way",
  "id": 280321230,
  "nodes": [
    2844593114,
    2844593172,
    2844593406,
    2844593437,
    2844593427,
    2844593438,
    2844593445,
    2844593451,
    2844593458,
    2844593454,
    2844593446,
    2844593455,
    2844593491,
    2844593853,
    2844593815,
    2844593826,
    2844593811,
    2844593803,
    2844593462,
    2844593192,
    2844592963,
    2844592966,
    2844592916,
    2844592843,
    2844592903,
    2844592824,
    2844593114
  ],
  "tags": {
    "building": "yes",
    "name": "Thermenmuseum",
    "ref:bag": "917100000047163",
    "source": "BAG",
    "source:date": "2014-05-07",
    "start_date": "1977",
    "tourism": "museum",
    "website": "https://www.thermenmuseum.nl/",
    "wikidata": "Q153193",
    "wikipedia": "nl:Thermenmuseum"
  }
},
{
  "type": "way",
  "id": 295201782,
  "nodes": [
    2989099856,
    2989099860,
    2989099873,
    2989099872,
    2989099875,
    2989099867,
    2989099858,
    2989099857,
    2989099870,
    2989099866,
    2989099871,
    2989099868,
    2989099854,
    2989099856
  ],
  "tags": {
    "addr:city": "Bree",
    "addr:country": "BE",
    "addr:housenumber": "66",
    "addr:postcode": "3960",
    "addr:street": "Gruitroderkiezel",
    "building": "house",
    "name": "Rijtuigenmuseum",
    "tourism": "museum",
    "website": "http://www.rijtuigmuseum.be/"
  }
},
{
  "type": "way",
  "id": 320371721,
  "nodes": [
    3268806811,
    3268806805,
    3884699001,
    3884699002,
    3884699003,
    3884699004,
    3884699005,
    3884699006,
    3884699009,
    3884699011,
    3884699013,
    3884699012,
    3884699010,
    3268806826,
    3268806819,
    3268806820,
    3268806811
  ],
  "tags": {
    "building": "civic",
    "name": "Géologium du Broukay",
    "tourism": "museum",
    "website": "http://www.gmvloisirs.be/geologium.php"
  }
},
{
  "type": "way",
  "id": 384769716,
  "nodes": [
    3881235486,
    3881235482,
    3881235476,
    3881235478,
    3881235479,
    619435047,
    3881235488,
    3881235486
  ],
  "tags": {
    "building": "yes",
    "tourism": "museum"
  }
},
{
  "type": "way",
  "id": 385116820,
  "nodes": [
    3884700763,
    3884700770,
    3884700771,
    3884700772,
    3884700774,
    3884700777,
    3884700783,
    3884700786,
    3884700788,
    3884700790,
    3884700789,
    3884700787,
    3884700785,
    3884700780,
    3884700775,
    3884700778,
    3884700781,
    3884700784,
    3884700782,
    3884700779,
    3884700776,
    3884700773,
    3884700769,
    3884700768,
    3884700767,
    3884700765,
    3884700766,
    3884700759,
    3884700758,
    3884699055,
    3884699052,
    3884699045,
    3884699043,
    3884699041,
    3884699039,
    3884699037,
    3884699038,
    3884699040,
    3884699042,
    3884699044,
    3884699049,
    3884699056,
    3884699054,
    3884699051,
    3884699048,
    3884699046,
    3884699047,
    3884699050,
    3884699053,
    3884700757,
    3884700760,
    3884700761,
    3884700762,
    3884700764,
    3884700763
  ],
  "tags": {
    "addr:city": "Bassenge",
    "addr:country": "BE",
    "addr:postcode": "4690",
    "addr:street": "Haie de Wonck",
    "alt_name": "Musée du Silex",
    "building": "castle",
    "historic": "castle",
    "name": "Tour d'Eben-Ezer",
    "tourism": "museum",
    "website": "http://www.musee-du-silex.be",
    "wikidata": "Q3533248",
    "wikipedia": "fr:Tour d'Eben-Ezer"
  }
},
{
  "type": "way",
  "id": 395978467,
  "nodes": [
    3987828766,
    3987828775,
    3987828772,
    3987828782,
    3987828777,
    3987828769,
    3987828152,
    3987828764,
    3987828773,
    3987828156,
    3987828757,
    3987828766
  ],
  "tags": {
    "addr:city": "Herstal",
    "addr:housenumber": "25",
    "addr:postcode": "4040",
    "addr:street": "Place Licourt",
    "alt_name": "Maison de Lovinfosse",
    "building": "yes",
    "clt:inscription_date": "1934-09-14",
    "description": "Maison du 17e s., actuellement musée,",
    "heritage": "4",
    "heritage:operator": "clt",
    "heritage:website": "http://lampspw.wallonie.be/dgo4/site_thema/index.php/dossier/view/BC_PAT/62051-CLT-0002-01",
    "name": "Musée de la ville de Herstal",
    "ref:clt": "62051-CLT-0002-01",
    "start_date": "1664",
    "tourism": "museum",
    "wikipedia:nl": "Musée Communal (Herstal)"
  }
},
{
  "type": "way",
  "id": 402413631,
  "nodes": [
    3210547349,
    4048260618,
    4048260616,
    4048260622,
    4048231535,
    4048231536,
    3210547349
  ],
  "tags": {
    "addr:city": "Liège",
    "addr:country": "BE",
    "addr:housenumber": "56",
    "addr:postcode": "4020",
    "addr:street": "Rue Surlet",
    "building": "yes",
    "name": "Musée Tchantchès",
    "tourism": "museum",
    "wikidata": "Q2482757"
  }
},
{
  "type": "way",
  "id": 413961109,
  "nodes": [
    5447608379,
    4151643804,
    4151642461,
    5447608378,
    5447608377,
    4289471658,
    975362751,
    975362745,
    975362730,
    977480910,
    975362777,
    4151643794,
    5447608384,
    5447608382,
    5447608380,
    5447608379
  ],
  "tags": {
    "addr:city": "Aachen",
    "addr:housenumber": "13",
    "addr:postcode": "52062",
    "addr:street": "Pontstraße",
    "name": "Internationales Zeitungsmuseum",
    "name:de": "Internationales Zeitungsmuseum",
    "name:en": "International Newspaper Museum",
    "name:fr": "Musée International du Journal",
    "name:nl": "Internationaal Krantenmuseum",
    "opening_hours": "Tu-Su 10:00-18:00",
    "phone": "+49 241 4324910",
    "toilets:wheelchair": "yes",
    "tourism": "museum",
    "website": "http://www.izm.de/",
    "wheelchair": "yes",
    "wikidata": "Q16739201",
    "wikipedia": "de:Internationales Zeitungsmuseum"
  }
},
{
  "type": "way",
  "id": 439622035,
  "nodes": [
    4372871500,
    4372890491,
    4372805407,
    4372849199,
    4372805408,
    4372871502,
    4372849202,
    4372849203,
    4372871501,
    4372984597,
    4372805409,
    4372890301,
    4372984596,
    4372849201,
    4372871500
  ],
  "tags": {
    "building": "yes",
    "name": "Historial du Fort de Loncin",
    "tourism": "museum"
  }
},
{
  "type": "way",
  "id": 478137894,
  "nodes": [
    4713962012,
    4713962011,
    4713962014,
    4713962015,
    4713962010,
    2814511526,
    2814511522,
    2814511527,
    4713962006,
    4713962005,
    4713962004,
    4713962003,
    4713962002,
    4713962012
  ],
  "tags": {
    "building": "yes",
    "name": "Streekmuseum Stevensweert & Ohé en Laak",
    "ref:bag": "1641100001080870",
    "source": "BAG",
    "source:date": "2017-03-02",
    "start_date": "1858",
    "tourism": "museum"
  }
},
{
  "type": "way",
  "id": 478137895,
  "nodes": [
    4713962029,
    4713962028,
    4713962027,
    4713962026,
    4713962025,
    4713962024,
    4713962023,
    4713962022,
    4713962021,
    4713962020,
    4713962019,
    4713962018,
    4713962017,
    4713962016,
    4713962015,
    4713962014,
    4713962013,
    4713962029
  ],
  "tags": {
    "building": "yes",
    "name": "Streekmuseum Stevensweert & Ohé en Laak",
    "ref:bag": "1641100001080864",
    "source": "BAG",
    "source:date": "2017-03-02",
    "start_date": "1858",
    "tourism": "museum"
  }
},
{
  "type": "way",
  "id": 547761190,
  "nodes": [
    5292438049,
    5292438050,
    5292438051,
    5292438052,
    5292438053,
    5292438054,
    5292438055,
    5292438056,
    5292438049
  ],
  "tags": {
    "addr:city": "Verviers",
    "addr:postcode": "4800",
    "addr:street": "Rue de la Chapelle",
    "building": "yes",
    "name": "Centre touristique de la Laine et de la Mode",
    "tourism": "museum"
  }
},
{
  "type": "way",
  "id": 551301021,
  "nodes": [
    5324153038,
    5324153039,
    5324353335,
    5324153040,
    5324153041,
    5324353337,
    5324353338,
    5324353336,
    5324153038
  ],
  "tags": {
    "addr:housenumber": "5",
    "addr:street": "Rue de la Saunerie",
    "building": "yes",
    "name": "Ensival historical museum",
    "tourism": "museum"
  }
},
{
  "type": "way",
  "id": 614360589,
  "nodes": [
    5811541200,
    5811541198,
    5811541197,
    5811541196,
    5811541195,
    5811541194,
    5811541199,
    5811541193,
    5811541192,
    5811541191,
    5811541190,
    5811541189,
    5811541188,
    5811541187,
    5811541186,
    5811541201,
    5811541185,
    5811541184,
    5811541183,
    5811541182,
    5811541200
  ],
  "tags": {
    "building:part": "yes",
    "layer": "1",
    "name": "Columbus Earth Theater",
    "opening_hours": "Tu-Su,PH 10:00-17:00",
    "tourism": "museum",
    "website": "https://www.columbusearththeater.nl/",
    "wheelchair": "yes"
  }
},
{
  "type": "way",
  "id": 622138598,
  "nodes": [
    5876937789,
    5876937799,
    5876937785,
    5876937791,
    5876937794,
    5876937786,
    5876937800,
    5876937797,
    5876937788,
    5876937793,
    5876937792,
    5876937787,
    5876937798,
    5876937790,
    5876937795,
    5876937796,
    5876937789
  ],
  "tags": {
    "OnroerendErfgoed:criteria": "M",
    "addr:housenumber": "3",
    "addr:street": "Marie Joséestraat",
    "building": "house",
    "description": "dubbele mijnwerkerswoning uit 1925",
    "heritage": "4",
    "heritage:operator": "OnroerendErfgoed",
    "heritage:website": "https://inventaris.onroerenderfgoed.be/erfgoedobjecten/200396",
    "image": "File:Eisden Tuinwijk museum1.jpg",
    "name": "Museum van de Mijnwerkerswoning",
    "opening_hours": "Su 14:00-18:00; Apr-Sep Sa 14:00-18:00",
    "ref:OnroerendErfgoed": "3323",
    "start_date": "1925",
    "tourism": "museum",
    "wikipedia": "nl:Museum van de Mijnwerkerswoning"
  }
},
{
  "type": "way",
  "id": 688149167,
  "nodes": [
    6451965909,
    6451965908,
    6451965907,
    6451965906,
    6451965909
  ],
  "tags": {
    "building": "yes",
    "name": "Dynastiemuseum",
    "tourism": "museum"
  }
},
{
  "type": "way",
  "id": 738656405,
  "nodes": [
    6946304353,
    6946304349,
    6946304348,
    6946304347,
    6946304346,
    6946304345,
    6946304344,
    6946304352,
    6946304351,
    6946304343,
    6946304342,
    6946304341,
    6946304340,
    6946304350,
    6946304339,
    6946304338,
    6946304337,
    6946304336,
    6946304335,
    6946304334,
    6946304353
  ],
  "tags": {
    "addr:city": "Remicourt",
    "addr:housenumber": "68",
    "addr:postcode": "4350",
    "addr:street": "Avenue Maurice Delmotte",
    "building": "yes",
    "name": "Musée de la Hesbaye",
    "tourism": "museum"
  }
},
{
  "type": "relation",
  "id": 1422459,
  "members": [
    {
      "type": "way",
      "ref": 31813107,
      "role": "outer"
    },
    {
      "type": "way",
      "ref": 99337858,
      "role": "inner"
    }
  ],
  "tags": {
    "addr:city": "Liège",
    "addr:postcode": "4000",
    "addr:street": "Cour des Mineurs",
    "building": "yes",
    "name": "Musée de la Vie Wallonne",
    "opening_hours": "Tu-Su 09:15-18:00; May 01 off; Nov 01 off; Dec 25 off; Jan 01-Jan 08 off",
    "tourism": "museum",
    "type": "multipolygon",
    "website": "http://www.viewallonne.be/"
  }
},
{
  "type": "relation",
  "id": 7700783,
  "members": [
    {
      "type": "way",
      "ref": 145598106,
      "role": ""
    },
    {
      "type": "way",
      "ref": 145598108,
      "role": ""
    },
    {
      "type": "way",
      "ref": 167603497,
      "role": ""
    },
    {
      "type": "way",
      "ref": 167603468,
      "role": ""
    },
    {
      "type": "way",
      "ref": 167603457,
      "role": ""
    },
    {
      "type": "way",
      "ref": 145598107,
      "role": ""
    },
    {
      "type": "way",
      "ref": 145598105,
      "role": ""
    },
    {
      "type": "way",
      "ref": 31813154,
      "role": ""
    }
  ],
  "tags": {
    "name": "Grand Curtius",
    "tourism": "museum",
    "type": "multipolygon",
    "wikidata": "Q2304164",
    "wikipedia": "fr:Grand Curtius"
  }
},
{
  "type": "relation",
  "id": 7758830,
  "members": [
    {
      "type": "way",
      "ref": 99228210,
      "role": "outer"
    },
    {
      "type": "way",
      "ref": 99228214,
      "role": "outer"
    }
  ],
  "tags": {
    "addr:city": "Kelmis",
    "addr:city_1": "La Calamine",
    "addr:housenumber": "278 - 280",
    "addr:postcode": "4720",
    "addr:street": "Lütticher Straße",
    "addr:street_1": "Rue de Liège",
    "building": "yes",
    "building:levels": "2",
    "name": "Museum Vieille Montagne",
    "name:fr": "Musée Vielle Montagne",
    "note": "https://brf.be/regional/1194210/",
    "tourism": "museum",
    "type": "multipolygon",
    "website": "https://www.mvm-kelmis.be/",
    "wikidata": "Q60965271"
  }
},
{
  "type": "node",
  "id": 2558979008,
  "lat": 50.5829444,
  "lon": 5.4414913
},
{
  "type": "node",
  "id": 2558979019,
  "lat": 50.5829068,
  "lon": 5.4414747
},
{
  "type": "node",
  "id": 2558979045,
  "lat": 50.5828986,
  "lon": 5.4412598
},
{
  "type": "node",
  "id": 2558979047,
  "lat": 50.5829436,
  "lon": 5.4414713
},
{
  "type": "node",
  "id": 2558979048,
  "lat": 50.5830243,
  "lon": 5.4412480
},
{
  "type": "node",
  "id": 5017127188,
  "lat": 50.5830322,
  "lon": 5.4414558
},
{
  "type": "node",
  "id": 5017127189,
  "lat": 50.5830034,
  "lon": 5.4414857
},
{
  "type": "node",
  "id": 5017127190,
  "lat": 50.5830031,
  "lon": 5.4414913
},
{
  "type": "node",
  "id": 5017127191,
  "lat": 50.5830324,
  "lon": 5.4414558
},
{
  "type": "node",
  "id": 5017127192,
  "lat": 50.5830398,
  "lon": 5.4414632
},
{
  "type": "node",
  "id": 5017127193,
  "lat": 50.5830463,
  "lon": 5.4414861
},
{
  "type": "node",
  "id": 5017127194,
  "lat": 50.5830454,
  "lon": 5.4414977
},
{
  "type": "node",
  "id": 5017127195,
  "lat": 50.5830421,
  "lon": 5.4415081
},
{
  "type": "node",
  "id": 5017127196,
  "lat": 50.5830284,
  "lon": 5.4415214
},
{
  "type": "node",
  "id": 5017127197,
  "lat": 50.5830196,
  "lon": 5.4415210
},
{
  "type": "node",
  "id": 5017127198,
  "lat": 50.5830116,
  "lon": 5.4415150
},
{
  "type": "node",
  "id": 5017127199,
  "lat": 50.5830367,
  "lon": 5.4415162
},
{
  "type": "node",
  "id": 5017127200,
  "lat": 50.5830057,
  "lon": 5.4415045
},
{
  "type": "node",
  "id": 5017127201,
  "lat": 50.5830447,
  "lon": 5.4414747
},
{
  "type": "node",
  "id": 6946304334,
  "lat": 50.6817417,
  "lon": 5.3278606
},
{
  "type": "node",
  "id": 6946304335,
  "lat": 50.6817385,
  "lon": 5.3278670
},
{
  "type": "node",
  "id": 6946304336,
  "lat": 50.6817983,
  "lon": 5.3279416
},
{
  "type": "node",
  "id": 6946304337,
  "lat": 50.6817781,
  "lon": 5.3279819
},
{
  "type": "node",
  "id": 6946304338,
  "lat": 50.6817866,
  "lon": 5.3279925
},
{
  "type": "node",
  "id": 6946304339,
  "lat": 50.6817876,
  "lon": 5.3279905
},
{
  "type": "node",
  "id": 6946304340,
  "lat": 50.6817707,
  "lon": 5.3280552
},
{
  "type": "node",
  "id": 6946304341,
  "lat": 50.6817620,
  "lon": 5.3280460
},
{
  "type": "node",
  "id": 6946304344,
  "lat": 50.6816404,
  "lon": 5.3280168
},
{
  "type": "node",
  "id": 6946304345,
  "lat": 50.6816464,
  "lon": 5.3280242
},
{
  "type": "node",
  "id": 6946304346,
  "lat": 50.6816847,
  "lon": 5.3279476
},
{
  "type": "node",
  "id": 6946304347,
  "lat": 50.6816751,
  "lon": 5.3279357
},
{
  "type": "node",
  "id": 6946304348,
  "lat": 50.6817191,
  "lon": 5.3278479
},
{
  "type": "node",
  "id": 6946304349,
  "lat": 50.6817218,
  "lon": 5.3278514
},
{
  "type": "node",
  "id": 6946304350,
  "lat": 50.6817972,
  "lon": 5.3280024
},
{
  "type": "node",
  "id": 6946304353,
  "lat": 50.6817266,
  "lon": 5.3278417
},
{
  "type": "node",
  "id": 6946304342,
  "lat": 50.6817260,
  "lon": 5.3281235
},
{
  "type": "node",
  "id": 6946304343,
  "lat": 50.6817309,
  "lon": 5.3281296
},
{
  "type": "node",
  "id": 6946304351,
  "lat": 50.6816769,
  "lon": 5.3282373
},
{
  "type": "node",
  "id": 6946304352,
  "lat": 50.6815865,
  "lon": 5.3281245
},
{
  "type": "node",
  "id": 2497867981,
  "lat": 50.5794300,
  "lon": 5.5277972
},
{
  "type": "node",
  "id": 2497867984,
  "lat": 50.5793832,
  "lon": 5.5281219
},
{
  "type": "node",
  "id": 2497867986,
  "lat": 50.5793535,
  "lon": 5.5281497
},
{
  "type": "node",
  "id": 2497867988,
  "lat": 50.5791913,
  "lon": 5.5280368
},
{
  "type": "node",
  "id": 2497867990,
  "lat": 50.5792434,
  "lon": 5.5278225
},
{
  "type": "node",
  "id": 2497867992,
  "lat": 50.5793576,
  "lon": 5.5286299
},
{
  "type": "node",
  "id": 2497867994,
  "lat": 50.5794155,
  "lon": 5.5295133
},
{
  "type": "node",
  "id": 2497867996,
  "lat": 50.5795222,
  "lon": 5.5294461
},
{
  "type": "node",
  "id": 2497867998,
  "lat": 50.5794460,
  "lon": 5.5285003
},
{
  "type": "node",
  "id": 4922388531,
  "lat": 50.5792279,
  "lon": 5.5282486
},
{
  "type": "node",
  "id": 4922388532,
  "lat": 50.5792425,
  "lon": 5.5282184
},
{
  "type": "node",
  "id": 4922388533,
  "lat": 50.5792790,
  "lon": 5.5282556
},
{
  "type": "node",
  "id": 4922388534,
  "lat": 50.5791661,
  "lon": 5.5281338
},
{
  "type": "node",
  "id": 4922388535,
  "lat": 50.5791629,
  "lon": 5.5280117
},
{
  "type": "node",
  "id": 4922388536,
  "lat": 50.5791801,
  "lon": 5.5279647
},
{
  "type": "node",
  "id": 4922388537,
  "lat": 50.5792280,
  "lon": 5.5279913
},
{
  "type": "node",
  "id": 4922388538,
  "lat": 50.5793311,
  "lon": 5.5281424
},
{
  "type": "node",
  "id": 4922388539,
  "lat": 50.5794208,
  "lon": 5.5279959
},
{
  "type": "node",
  "id": 4922388540,
  "lat": 50.5794307,
  "lon": 5.5278831
},
{
  "type": "node",
  "id": 6912950247,
  "lat": 50.5793718,
  "lon": 5.5281428
},
{
  "type": "node",
  "id": 6912950248,
  "lat": 50.5793981,
  "lon": 5.5281332
},
{
  "type": "node",
  "id": 344289477,
  "lat": 50.6341787,
  "lon": 5.5680942
},
{
  "type": "node",
  "id": 344289479,
  "lat": 50.6338210,
  "lon": 5.5679020
},
{
  "type": "node",
  "id": 344289481,
  "lat": 50.6338940,
  "lon": 5.5683740
},
{
  "type": "node",
  "id": 344289483,
  "lat": 50.6341679,
  "lon": 5.5683982
},
{
  "type": "node",
  "id": 6518122671,
  "lat": 50.6339274,
  "lon": 5.5680720
},
{
  "type": "node",
  "id": 6518122672,
  "lat": 50.6339331,
  "lon": 5.5679119
},
{
  "type": "node",
  "id": 6518122673,
  "lat": 50.6339043,
  "lon": 5.5680835
},
{
  "type": "node",
  "id": 6518122674,
  "lat": 50.6338149,
  "lon": 5.5680756
},
{
  "type": "node",
  "id": 6325145006,
  "lat": 50.6277762,
  "lon": 5.5771103
},
{
  "type": "node",
  "id": 6325145007,
  "lat": 50.6277679,
  "lon": 5.5771124
},
{
  "type": "node",
  "id": 6325145008,
  "lat": 50.6277672,
  "lon": 5.5771079
},
{
  "type": "node",
  "id": 60841557,
  "lat": 50.6277814,
  "lon": 5.5771264
},
{
  "type": "node",
  "id": 60841558,
  "lat": 50.6278440,
  "lon": 5.5776845
},
{
  "type": "node",
  "id": 60841559,
  "lat": 50.6271464,
  "lon": 5.5778719
},
{
  "type": "node",
  "id": 60841560,
  "lat": 50.6270809,
  "lon": 5.5772976
},
{
  "type": "node",
  "id": 485231178,
  "lat": 50.6274902,
  "lon": 5.5771952
},
{
  "type": "node",
  "id": 485231182,
  "lat": 50.6273628,
  "lon": 5.5772282
},
{
  "type": "node",
  "id": 485231185,
  "lat": 50.6274471,
  "lon": 5.5771470
},
{
  "type": "node",
  "id": 485231188,
  "lat": 50.6273915,
  "lon": 5.5771745
},
{
  "type": "node",
  "id": 486646071,
  "lat": 50.6274146,
  "lon": 5.5771509
},
{
  "type": "node",
  "id": 595504100,
  "lat": 50.6285331,
  "lon": 5.5835407
},
{
  "type": "node",
  "id": 595504101,
  "lat": 50.6285719,
  "lon": 5.5834208
},
{
  "type": "node",
  "id": 595504102,
  "lat": 50.6284505,
  "lon": 5.5834849
},
{
  "type": "node",
  "id": 595504103,
  "lat": 50.6288216,
  "lon": 5.5835970
},
{
  "type": "node",
  "id": 1116364957,
  "lat": 50.6278622,
  "lon": 5.5774871
},
{
  "type": "node",
  "id": 1116364991,
  "lat": 50.6272337,
  "lon": 5.5777976
},
{
  "type": "node",
  "id": 1116365003,
  "lat": 50.6275551,
  "lon": 5.5777061
},
{
  "type": "node",
  "id": 1116365023,
  "lat": 50.6276903,
  "lon": 5.5771936
},
{
  "type": "node",
  "id": 1116365038,
  "lat": 50.6271047,
  "lon": 5.5774918
},
{
  "type": "node",
  "id": 1116365053,
  "lat": 50.6277503,
  "lon": 5.5777152
},
{
  "type": "node",
  "id": 1116365071,
  "lat": 50.6278393,
  "lon": 5.5772801
},
{
  "type": "node",
  "id": 1116365106,
  "lat": 50.6271286,
  "lon": 5.5776778
},
{
  "type": "node",
  "id": 1116365116,
  "lat": 50.6275616,
  "lon": 5.5777575
},
{
  "type": "node",
  "id": 1116365144,
  "lat": 50.6271728,
  "lon": 5.5772730
},
{
  "type": "node",
  "id": 1116365157,
  "lat": 50.6277441,
  "lon": 5.5776528
},
{
  "type": "node",
  "id": 1116365204,
  "lat": 50.6271011,
  "lon": 5.5776902
},
{
  "type": "node",
  "id": 1116365218,
  "lat": 50.6274166,
  "lon": 5.5777445
},
{
  "type": "node",
  "id": 1116365223,
  "lat": 50.6276897,
  "lon": 5.5771346
},
{
  "type": "node",
  "id": 1116365251,
  "lat": 50.6271798,
  "lon": 5.5773257
},
{
  "type": "node",
  "id": 1116365263,
  "lat": 50.6272372,
  "lon": 5.5778499
},
{
  "type": "node",
  "id": 1116365304,
  "lat": 50.6270765,
  "lon": 5.5774936
},
{
  "type": "node",
  "id": 1116365322,
  "lat": 50.6278228,
  "lon": 5.5774956
},
{
  "type": "node",
  "id": 1116365349,
  "lat": 50.6273683,
  "lon": 5.5772792
},
{
  "type": "node",
  "id": 1116365359,
  "lat": 50.6277966,
  "lon": 5.5772974
},
{
  "type": "node",
  "id": 1116365372,
  "lat": 50.6275041,
  "lon": 5.5771933
},
{
  "type": "node",
  "id": 1116365393,
  "lat": 50.6274227,
  "lon": 5.5777959
},
{
  "type": "node",
  "id": 6325144675,
  "lat": 50.6271302,
  "lon": 5.5777260
},
{
  "type": "node",
  "id": 6325144676,
  "lat": 50.6271328,
  "lon": 5.5777253
},
{
  "type": "node",
  "id": 6325144677,
  "lat": 50.6271180,
  "lon": 5.5776806
},
{
  "type": "node",
  "id": 6325144678,
  "lat": 50.6271185,
  "lon": 5.5776863
},
{
  "type": "node",
  "id": 6325144679,
  "lat": 50.6270977,
  "lon": 5.5776618
},
{
  "type": "node",
  "id": 6325144680,
  "lat": 50.6271013,
  "lon": 5.5776608
},
{
  "type": "node",
  "id": 6325144681,
  "lat": 50.6270956,
  "lon": 5.5776123
},
{
  "type": "node",
  "id": 6325144682,
  "lat": 50.6270924,
  "lon": 5.5776132
},
{
  "type": "node",
  "id": 6325144683,
  "lat": 50.6270827,
  "lon": 5.5775196
},
{
  "type": "node",
  "id": 6325144684,
  "lat": 50.6270802,
  "lon": 5.5775205
},
{
  "type": "node",
  "id": 6325144985,
  "lat": 50.6270942,
  "lon": 5.5774890
},
{
  "type": "node",
  "id": 6325144986,
  "lat": 50.6270946,
  "lon": 5.5774936
},
{
  "type": "node",
  "id": 6325144987,
  "lat": 50.6272543,
  "lon": 5.5773047
},
{
  "type": "node",
  "id": 6325144988,
  "lat": 50.6272550,
  "lon": 5.5773084
},
{
  "type": "node",
  "id": 6325144989,
  "lat": 50.6273816,
  "lon": 5.5771988
},
{
  "type": "node",
  "id": 6325144990,
  "lat": 50.6274016,
  "lon": 5.5771607
},
{
  "type": "node",
  "id": 6325144991,
  "lat": 50.6274309,
  "lon": 5.5771468
},
{
  "type": "node",
  "id": 6325144992,
  "lat": 50.6274604,
  "lon": 5.5771525
},
{
  "type": "node",
  "id": 6325144993,
  "lat": 50.6276924,
  "lon": 5.5771877
},
{
  "type": "node",
  "id": 6325144994,
  "lat": 50.6276901,
  "lon": 5.5771884
},
{
  "type": "node",
  "id": 6325144995,
  "lat": 50.6278341,
  "lon": 5.5776911
},
{
  "type": "node",
  "id": 6325144996,
  "lat": 50.6278338,
  "lon": 5.5776873
},
{
  "type": "node",
  "id": 6325144997,
  "lat": 50.6278416,
  "lon": 5.5776665
},
{
  "type": "node",
  "id": 6325144998,
  "lat": 50.6278438,
  "lon": 5.5776655
},
{
  "type": "node",
  "id": 6325144999,
  "lat": 50.6278282,
  "lon": 5.5775332
},
{
  "type": "node",
  "id": 6325145000,
  "lat": 50.6278256,
  "lon": 5.5775339
},
{
  "type": "node",
  "id": 6325145001,
  "lat": 50.6277938,
  "lon": 5.5772365
},
{
  "type": "node",
  "id": 6325145002,
  "lat": 50.6277954,
  "lon": 5.5772358
},
{
  "type": "node",
  "id": 6325145003,
  "lat": 50.6277924,
  "lon": 5.5772608
},
{
  "type": "node",
  "id": 6325145004,
  "lat": 50.6277963,
  "lon": 5.5772593
},
{
  "type": "node",
  "id": 6325145005,
  "lat": 50.6277787,
  "lon": 5.5771274
},
{
  "type": "node",
  "id": 6325145009,
  "lat": 50.6276931,
  "lon": 5.5771270
},
{
  "type": "node",
  "id": 6325145010,
  "lat": 50.6276931,
  "lon": 5.5771344
},
{
  "type": "node",
  "id": 6325145011,
  "lat": 50.6275085,
  "lon": 5.5772420
},
{
  "type": "node",
  "id": 6325145012,
  "lat": 50.6274723,
  "lon": 5.5771626
},
{
  "type": "node",
  "id": 6325145013,
  "lat": 50.6273758,
  "lon": 5.5772256
},
{
  "type": "node",
  "id": 6325145014,
  "lat": 50.6278477,
  "lon": 5.5773842
},
{
  "type": "node",
  "id": 6325145015,
  "lat": 50.6278594,
  "lon": 5.5774479
},
{
  "type": "node",
  "id": 6325145016,
  "lat": 50.6278558,
  "lon": 5.5774499
},
{
  "type": "node",
  "id": 6325145017,
  "lat": 50.6278405,
  "lon": 5.5773191
},
{
  "type": "node",
  "id": 6325145018,
  "lat": 50.6278443,
  "lon": 5.5773185
},
{
  "type": "node",
  "id": 6325145019,
  "lat": 50.6278132,
  "lon": 5.5772933
},
{
  "type": "node",
  "id": 6325145020,
  "lat": 50.6278128,
  "lon": 5.5772876
},
{
  "type": "node",
  "id": 356664002,
  "lat": 50.6309682,
  "lon": 5.5792939
},
{
  "type": "node",
  "id": 356664004,
  "lat": 50.6310107,
  "lon": 5.5793990
},
{
  "type": "node",
  "id": 356664005,
  "lat": 50.6309532,
  "lon": 5.5795962
},
{
  "type": "node",
  "id": 356664007,
  "lat": 50.6309757,
  "lon": 5.5800460
},
{
  "type": "node",
  "id": 356664014,
  "lat": 50.6307139,
  "lon": 5.5796587
},
{
  "type": "node",
  "id": 4560286895,
  "lat": 50.6308397,
  "lon": 5.5798448
},
{
  "type": "node",
  "id": 4560286896,
  "lat": 50.6311653,
  "lon": 5.5799250
},
{
  "type": "node",
  "id": 4560286897,
  "lat": 50.6311595,
  "lon": 5.5798907
},
{
  "type": "node",
  "id": 4560286898,
  "lat": 50.6311842,
  "lon": 5.5798769
},
{
  "type": "node",
  "id": 4560286899,
  "lat": 50.6311522,
  "lon": 5.5797417
},
{
  "type": "node",
  "id": 4560286900,
  "lat": 50.6311217,
  "lon": 5.5797658
},
{
  "type": "node",
  "id": 4560286901,
  "lat": 50.6310497,
  "lon": 5.5796111
},
{
  "type": "node",
  "id": 4560286902,
  "lat": 50.6309887,
  "lon": 5.5796730
},
{
  "type": "node",
  "id": 4560286903,
  "lat": 50.6309705,
  "lon": 5.5796386
},
{
  "type": "node",
  "id": 4560286904,
  "lat": 50.6310381,
  "lon": 5.5794965
},
{
  "type": "node",
  "id": 4560286905,
  "lat": 50.6310047,
  "lon": 5.5794095
},
{
  "type": "node",
  "id": 4560286907,
  "lat": 50.6308695,
  "lon": 5.5794152
},
{
  "type": "node",
  "id": 595504104,
  "lat": 50.6281183,
  "lon": 5.5847050
},
{
  "type": "node",
  "id": 595504105,
  "lat": 50.6284238,
  "lon": 5.5850066
},
{
  "type": "node",
  "id": 1116365125,
  "lat": 50.6281786,
  "lon": 5.5848333
},
{
  "type": "node",
  "id": 2203145886,
  "lat": 50.6287035,
  "lon": 5.5840529
},
{
  "type": "node",
  "id": 354673663,
  "lat": 50.6392929,
  "lon": 5.5786432
},
{
  "type": "node",
  "id": 354673665,
  "lat": 50.6383965,
  "lon": 5.5784516
},
{
  "type": "node",
  "id": 354673666,
  "lat": 50.6383729,
  "lon": 5.5787280
},
{
  "type": "node",
  "id": 354673668,
  "lat": 50.6386623,
  "lon": 5.5787755
},
{
  "type": "node",
  "id": 354673669,
  "lat": 50.6386472,
  "lon": 5.5792644
},
{
  "type": "node",
  "id": 354673671,
  "lat": 50.6389114,
  "lon": 5.5793204
},
{
  "type": "node",
  "id": 354673672,
  "lat": 50.6389525,
  "lon": 5.5788388
},
{
  "type": "node",
  "id": 354673673,
  "lat": 50.6392694,
  "lon": 5.5789196
},
{
  "type": "node",
  "id": 1103963894,
  "lat": 50.6389477,
  "lon": 5.5786195
},
{
  "type": "node",
  "id": 1103964001,
  "lat": 50.6385098,
  "lon": 5.5784756
},
{
  "type": "node",
  "id": 1103964040,
  "lat": 50.6389439,
  "lon": 5.5786638
},
{
  "type": "node",
  "id": 1103964059,
  "lat": 50.6392218,
  "lon": 5.5788936
},
{
  "type": "node",
  "id": 1103964083,
  "lat": 50.6389098,
  "lon": 5.5786114
},
{
  "type": "node",
  "id": 1103964099,
  "lat": 50.6391664,
  "lon": 5.5788841
},
{
  "type": "node",
  "id": 1103964133,
  "lat": 50.6387325,
  "lon": 5.5785719
},
{
  "type": "node",
  "id": 1103964210,
  "lat": 50.6387285,
  "lon": 5.5786190
},
{
  "type": "node",
  "id": 1103964250,
  "lat": 50.6391784,
  "lon": 5.5786189
},
{
  "type": "node",
  "id": 1103964290,
  "lat": 50.6389124,
  "lon": 5.5785808
},
{
  "type": "node",
  "id": 1103964309,
  "lat": 50.6391606,
  "lon": 5.5789518
},
{
  "type": "node",
  "id": 1103964343,
  "lat": 50.6387717,
  "lon": 5.5785802
},
{
  "type": "node",
  "id": 1103964460,
  "lat": 50.6385017,
  "lon": 5.5785709
},
{
  "type": "node",
  "id": 1103964492,
  "lat": 50.6391705,
  "lon": 5.5787118
},
{
  "type": "node",
  "id": 1103964546,
  "lat": 50.6387741,
  "lon": 5.5785515
},
{
  "type": "node",
  "id": 1103964581,
  "lat": 50.6392443,
  "lon": 5.5789142
},
{
  "type": "node",
  "id": 3210547349,
  "lat": 50.6391930,
  "lon": 5.5815931
},
{
  "type": "node",
  "id": 4048231535,
  "lat": 50.6392782,
  "lon": 5.5814866
},
{
  "type": "node",
  "id": 4048231536,
  "lat": 50.6392816,
  "lon": 5.5816085
},
{
  "type": "node",
  "id": 4048260616,
  "lat": 50.6391832,
  "lon": 5.5814742
},
{
  "type": "node",
  "id": 4048260618,
  "lat": 50.6391880,
  "lon": 5.5815185
},
{
  "type": "node",
  "id": 4048260622,
  "lat": 50.6392786,
  "lon": 5.5814708
},
{
  "type": "node",
  "id": 4049966837,
  "lat": 50.6383963,
  "lon": 5.5787329
},
{
  "type": "node",
  "id": 4049966838,
  "lat": 50.6383975,
  "lon": 5.5787193
},
{
  "type": "node",
  "id": 4049966839,
  "lat": 50.6386593,
  "lon": 5.5788103
},
{
  "type": "node",
  "id": 4049966840,
  "lat": 50.6386748,
  "lon": 5.5792927
},
{
  "type": "node",
  "id": 4049966841,
  "lat": 50.6386855,
  "lon": 5.5788158
},
{
  "type": "node",
  "id": 4049966842,
  "lat": 50.6387064,
  "lon": 5.5793137
},
{
  "type": "node",
  "id": 4049966844,
  "lat": 50.6387455,
  "lon": 5.5793360
},
{
  "type": "node",
  "id": 4049966845,
  "lat": 50.6387772,
  "lon": 5.5793413
},
{
  "type": "node",
  "id": 4049966847,
  "lat": 50.6388071,
  "lon": 5.5793465
},
{
  "type": "node",
  "id": 4049966848,
  "lat": 50.6388471,
  "lon": 5.5793452
},
{
  "type": "node",
  "id": 4049966849,
  "lat": 50.6388846,
  "lon": 5.5793334
},
{
  "type": "node",
  "id": 4049966850,
  "lat": 50.6389393,
  "lon": 5.5789930
},
{
  "type": "node",
  "id": 4049966851,
  "lat": 50.6389397,
  "lon": 5.5789884
},
{
  "type": "node",
  "id": 4049966852,
  "lat": 50.6392158,
  "lon": 5.5789635
},
{
  "type": "node",
  "id": 4049966853,
  "lat": 50.6392456,
  "lon": 5.5788986
},
{
  "type": "node",
  "id": 4050042700,
  "lat": 50.6386493,
  "lon": 5.5792401
},
{
  "type": "node",
  "id": 4050042706,
  "lat": 50.6389199,
  "lon": 5.5792205
},
{
  "type": "node",
  "id": 4050074336,
  "lat": 50.6386018,
  "lon": 5.5787627
},
{
  "type": "node",
  "id": 4050074337,
  "lat": 50.6386544,
  "lon": 5.5791808
},
{
  "type": "node",
  "id": 4050074338,
  "lat": 50.6386710,
  "lon": 5.5789859
},
{
  "type": "node",
  "id": 356191843,
  "lat": 50.6470545,
  "lon": 5.5758767
},
{
  "type": "node",
  "id": 356191844,
  "lat": 50.6472255,
  "lon": 5.5764174
},
{
  "type": "node",
  "id": 356191845,
  "lat": 50.6469245,
  "lon": 5.5766043
},
{
  "type": "node",
  "id": 356191846,
  "lat": 50.6467316,
  "lon": 5.5759958
},
{
  "type": "node",
  "id": 912144538,
  "lat": 50.6470844,
  "lon": 5.5759169
},
{
  "type": "node",
  "id": 912144541,
  "lat": 50.6470066,
  "lon": 5.5758333
},
{
  "type": "node",
  "id": 1149050879,
  "lat": 50.6468978,
  "lon": 5.5764102
},
{
  "type": "node",
  "id": 1149050909,
  "lat": 50.6470850,
  "lon": 5.5762959
},
{
  "type": "node",
  "id": 1149050960,
  "lat": 50.6468224,
  "lon": 5.5761274
},
{
  "type": "node",
  "id": 1149051043,
  "lat": 50.6470113,
  "lon": 5.5760113
},
{
  "type": "node",
  "id": 1289569677,
  "lat": 50.6467568,
  "lon": 5.5761338
},
{
  "type": "node",
  "id": 1289569718,
  "lat": 50.6468229,
  "lon": 5.5769414
},
{
  "type": "node",
  "id": 1289569951,
  "lat": 50.6470205,
  "lon": 5.5758950
},
{
  "type": "node",
  "id": 1289570002,
  "lat": 50.6465877,
  "lon": 5.5762453
},
{
  "type": "node",
  "id": 1796146934,
  "lat": 50.6467428,
  "lon": 5.5768392
},
{
  "type": "node",
  "id": 1796146950,
  "lat": 50.6467640,
  "lon": 5.5768673
},
{
  "type": "node",
  "id": 1796146953,
  "lat": 50.6469373,
  "lon": 5.5766694
},
{
  "type": "node",
  "id": 1796146984,
  "lat": 50.6467847,
  "lon": 5.5768629
},
{
  "type": "node",
  "id": 1796146997,
  "lat": 50.6468005,
  "lon": 5.5768547
},
{
  "type": "node",
  "id": 1796147001,
  "lat": 50.6468931,
  "lon": 5.5766963
},
{
  "type": "node",
  "id": 2340305837,
  "lat": 50.6469190,
  "lon": 5.5768020
},
{
  "type": "node",
  "id": 6165757210,
  "lat": 50.6469367,
  "lon": 5.5768665
},
{
  "type": "node",
  "id": 6790718120,
  "lat": 50.6470522,
  "lon": 5.5761693
},
{
  "type": "node",
  "id": 6790718121,
  "lat": 50.6471404,
  "lon": 5.5761157
},
{
  "type": "node",
  "id": 356193135,
  "lat": 50.6473379,
  "lon": 5.5834072
},
{
  "type": "node",
  "id": 356193138,
  "lat": 50.6470639,
  "lon": 5.5835789
},
{
  "type": "node",
  "id": 1589843032,
  "lat": 50.6471383,
  "lon": 5.5836011
},
{
  "type": "node",
  "id": 1589843038,
  "lat": 50.6468584,
  "lon": 5.5836309
},
{
  "type": "node",
  "id": 1589843040,
  "lat": 50.6471584,
  "lon": 5.5831076
},
{
  "type": "node",
  "id": 1589843041,
  "lat": 50.6469511,
  "lon": 5.5829765
},
{
  "type": "node",
  "id": 1589843043,
  "lat": 50.6471680,
  "lon": 5.5827431
},
{
  "type": "node",
  "id": 1589843044,
  "lat": 50.6472378,
  "lon": 5.5834937
},
{
  "type": "node",
  "id": 1589843051,
  "lat": 50.6472949,
  "lon": 5.5835339
},
{
  "type": "node",
  "id": 1589843058,
  "lat": 50.6469868,
  "lon": 5.5827820
},
{
  "type": "node",
  "id": 1589843059,
  "lat": 50.6472521,
  "lon": 5.5830610
},
{
  "type": "node",
  "id": 1589843060,
  "lat": 50.6469188,
  "lon": 5.5836175
},
{
  "type": "node",
  "id": 1589843062,
  "lat": 50.6470035,
  "lon": 5.5828220
},
{
  "type": "node",
  "id": 1589843063,
  "lat": 50.6471063,
  "lon": 5.5829427
},
{
  "type": "node",
  "id": 1589843065,
  "lat": 50.6471228,
  "lon": 5.5831213
},
{
  "type": "node",
  "id": 1589843066,
  "lat": 50.6469400,
  "lon": 5.5830100
},
{
  "type": "node",
  "id": 1789908665,
  "lat": 50.6468456,
  "lon": 5.5835102
},
{
  "type": "node",
  "id": 1789908725,
  "lat": 50.6469400,
  "lon": 5.5834820
},
{
  "type": "node",
  "id": 1789908777,
  "lat": 50.6469247,
  "lon": 5.5833694
},
{
  "type": "node",
  "id": 1789908832,
  "lat": 50.6469511,
  "lon": 5.5835974
},
{
  "type": "node",
  "id": 1789908853,
  "lat": 50.6468312,
  "lon": 5.5833962
},
{
  "type": "node",
  "id": 1789908868,
  "lat": 50.6469426,
  "lon": 5.5833600
},
{
  "type": "node",
  "id": 1789908869,
  "lat": 50.6473818,
  "lon": 5.5836587
},
{
  "type": "node",
  "id": 1802608929,
  "lat": 50.6470702,
  "lon": 5.5827935
},
{
  "type": "node",
  "id": 5204046550,
  "lat": 50.6472886,
  "lon": 5.5832603
},
{
  "type": "node",
  "id": 5696031812,
  "lat": 50.6470621,
  "lon": 5.5828032
},
{
  "type": "node",
  "id": 5696031813,
  "lat": 50.6469404,
  "lon": 5.5832008
},
{
  "type": "node",
  "id": 5696031814,
  "lat": 50.6468662,
  "lon": 5.5832376
},
{
  "type": "node",
  "id": 5696031815,
  "lat": 50.6469242,
  "lon": 5.5828271
},
{
  "type": "node",
  "id": 5696031818,
  "lat": 50.6468570,
  "lon": 5.5832794
},
{
  "type": "node",
  "id": 7129389230,
  "lat": 50.6472538,
  "lon": 5.5830543
},
{
  "type": "node",
  "id": 356193136,
  "lat": 50.6475203,
  "lon": 5.5841415
},
{
  "type": "node",
  "id": 356193137,
  "lat": 50.6470406,
  "lon": 5.5843583
},
{
  "type": "node",
  "id": 1589843034,
  "lat": 50.6470987,
  "lon": 5.5843435
},
{
  "type": "node",
  "id": 1589843037,
  "lat": 50.6470402,
  "lon": 5.5843580
},
{
  "type": "node",
  "id": 1589843039,
  "lat": 50.6470850,
  "lon": 5.5837095
},
{
  "type": "node",
  "id": 1589843045,
  "lat": 50.6470293,
  "lon": 5.5839964
},
{
  "type": "node",
  "id": 1589843046,
  "lat": 50.6471034,
  "lon": 5.5838239
},
{
  "type": "node",
  "id": 1589843047,
  "lat": 50.6469409,
  "lon": 5.5837543
},
{
  "type": "node",
  "id": 1589843048,
  "lat": 50.6468911,
  "lon": 5.5843691
},
{
  "type": "node",
  "id": 1589843050,
  "lat": 50.6471785,
  "lon": 5.5838230
},
{
  "type": "node",
  "id": 1589843052,
  "lat": 50.6474258,
  "lon": 5.5840476
},
{
  "type": "node",
  "id": 1589843053,
  "lat": 50.6471081,
  "lon": 5.5838534
},
{
  "type": "node",
  "id": 1589843054,
  "lat": 50.6469422,
  "lon": 5.5840029
},
{
  "type": "node",
  "id": 1589843056,
  "lat": 50.6470372,
  "lon": 5.5842438
},
{
  "type": "node",
  "id": 1589843057,
  "lat": 50.6468703,
  "lon": 5.5838281
},
{
  "type": "node",
  "id": 1589843061,
  "lat": 50.6469315,
  "lon": 5.5838830
},
{
  "type": "node",
  "id": 1589843064,
  "lat": 50.6468803,
  "lon": 5.5840075
},
{
  "type": "node",
  "id": 1789908872,
  "lat": 50.6474432,
  "lon": 5.5841773
},
{
  "type": "node",
  "id": 5651511895,
  "lat": 50.6473267,
  "lon": 5.5836781
},
{
  "type": "node",
  "id": 4372805407,
  "lat": 50.6738025,
  "lon": 5.4933326
},
{
  "type": "node",
  "id": 4372805408,
  "lat": 50.6738535,
  "lon": 5.4930179
},
{
  "type": "node",
  "id": 4372805409,
  "lat": 50.6739032,
  "lon": 5.4933524
},
{
  "type": "node",
  "id": 4372849199,
  "lat": 50.6737302,
  "lon": 5.4932258
},
{
  "type": "node",
  "id": 4372849201,
  "lat": 50.6738064,
  "lon": 5.4933829
},
{
  "type": "node",
  "id": 4372849202,
  "lat": 50.6738569,
  "lon": 5.4932389
},
{
  "type": "node",
  "id": 4372849203,
  "lat": 50.6738778,
  "lon": 5.4932697
},
{
  "type": "node",
  "id": 4372871500,
  "lat": 50.6738272,
  "lon": 5.4933478
},
{
  "type": "node",
  "id": 4372871501,
  "lat": 50.6738860,
  "lon": 5.4932558
},
{
  "type": "node",
  "id": 4372871502,
  "lat": 50.6739252,
  "lon": 5.4931238
},
{
  "type": "node",
  "id": 4372890301,
  "lat": 50.6739394,
  "lon": 5.4934058
},
{
  "type": "node",
  "id": 4372890491,
  "lat": 50.6738092,
  "lon": 5.4933212
},
{
  "type": "node",
  "id": 4372984596,
  "lat": 50.6738845,
  "lon": 5.4934982
},
{
  "type": "node",
  "id": 4372984597,
  "lat": 50.6739257,
  "lon": 5.4933144
},
{
  "type": "node",
  "id": 3987828152,
  "lat": 50.6707143,
  "lon": 5.6388935
},
{
  "type": "node",
  "id": 3987828156,
  "lat": 50.6706644,
  "lon": 5.6390192
},
{
  "type": "node",
  "id": 3987828757,
  "lat": 50.6706031,
  "lon": 5.6389881
},
{
  "type": "node",
  "id": 3987828764,
  "lat": 50.6707575,
  "lon": 5.6389197
},
{
  "type": "node",
  "id": 3987828766,
  "lat": 50.6706377,
  "lon": 5.6388269
},
{
  "type": "node",
  "id": 3987828769,
  "lat": 50.6707177,
  "lon": 5.6388837
},
{
  "type": "node",
  "id": 3987828772,
  "lat": 50.6706821,
  "lon": 5.6388087
},
{
  "type": "node",
  "id": 3987828773,
  "lat": 50.6707236,
  "lon": 5.6390470
},
{
  "type": "node",
  "id": 3987828775,
  "lat": 50.6706717,
  "lon": 5.6388431
},
{
  "type": "node",
  "id": 3987828777,
  "lat": 50.6706960,
  "lon": 5.6388737
},
{
  "type": "node",
  "id": 3987828782,
  "lat": 50.6707054,
  "lon": 5.6388268
},
{
  "type": "node",
  "id": 5324153038,
  "lat": 50.5800669,
  "lon": 5.8415645
},
{
  "type": "node",
  "id": 5324153039,
  "lat": 50.5800119,
  "lon": 5.8416304
},
{
  "type": "node",
  "id": 5324153040,
  "lat": 50.5801278,
  "lon": 5.8419206
},
{
  "type": "node",
  "id": 5324153041,
  "lat": 50.5801678,
  "lon": 5.8418743
},
{
  "type": "node",
  "id": 5324353335,
  "lat": 50.5800734,
  "lon": 5.8418055
},
{
  "type": "node",
  "id": 5324353336,
  "lat": 50.5801019,
  "lon": 5.8416206
},
{
  "type": "node",
  "id": 5324353337,
  "lat": 50.5801538,
  "lon": 5.8418145
},
{
  "type": "node",
  "id": 5324353338,
  "lat": 50.5801490,
  "lon": 5.8417418
},
{
  "type": "node",
  "id": 5292438049,
  "lat": 50.5956042,
  "lon": 5.8510920
},
{
  "type": "node",
  "id": 5292438050,
  "lat": 50.5956705,
  "lon": 5.8510780
},
{
  "type": "node",
  "id": 5292438051,
  "lat": 50.5956952,
  "lon": 5.8512588
},
{
  "type": "node",
  "id": 5292438052,
  "lat": 50.5958515,
  "lon": 5.8512276
},
{
  "type": "node",
  "id": 5292438053,
  "lat": 50.5958278,
  "lon": 5.8507553
},
{
  "type": "node",
  "id": 5292438054,
  "lat": 50.5959129,
  "lon": 5.8507366
},
{
  "type": "node",
  "id": 5292438055,
  "lat": 50.5959307,
  "lon": 5.8513133
},
{
  "type": "node",
  "id": 5292438056,
  "lat": 50.5956309,
  "lon": 5.8513819
},
{
  "type": "node",
  "id": 1756331504,
  "lat": 50.5953405,
  "lon": 5.8671039
},
{
  "type": "node",
  "id": 1756331510,
  "lat": 50.5953439,
  "lon": 5.8669493
},
{
  "type": "node",
  "id": 1756331512,
  "lat": 50.5953510,
  "lon": 5.8666257
},
{
  "type": "node",
  "id": 1756331524,
  "lat": 50.5954767,
  "lon": 5.8670950
},
{
  "type": "node",
  "id": 1756331525,
  "lat": 50.5954847,
  "lon": 5.8669618
},
{
  "type": "node",
  "id": 1756331527,
  "lat": 50.5954888,
  "lon": 5.8666277
},
{
  "type": "node",
  "id": 1757225827,
  "lat": 50.5946257,
  "lon": 5.8684603
},
{
  "type": "node",
  "id": 4758463325,
  "lat": 50.5947713,
  "lon": 5.8685696
},
{
  "type": "node",
  "id": 4758463326,
  "lat": 50.5946506,
  "lon": 5.8686145
},
{
  "type": "node",
  "id": 4758463328,
  "lat": 50.5947506,
  "lon": 5.8684154
},
{
  "type": "node",
  "id": 5995922028,
  "lat": 50.5947781,
  "lon": 5.8685641
},
{
  "type": "node",
  "id": 1853014725,
  "lat": 50.6863593,
  "lon": 5.7188567
},
{
  "type": "node",
  "id": 1853014726,
  "lat": 50.6864724,
  "lon": 5.7194470
},
{
  "type": "node",
  "id": 1853014727,
  "lat": 50.6866752,
  "lon": 5.7186840
},
{
  "type": "node",
  "id": 1853014728,
  "lat": 50.6866902,
  "lon": 5.7190938
},
{
  "type": "node",
  "id": 1853014729,
  "lat": 50.6867324,
  "lon": 5.7194350
},
{
  "type": "node",
  "id": 1853014730,
  "lat": 50.6867464,
  "lon": 5.7190607
},
{
  "type": "node",
  "id": 5043813891,
  "lat": 50.6866990,
  "lon": 5.7191362
},
{
  "type": "node",
  "id": 5043813892,
  "lat": 50.6866808,
  "lon": 5.7191489
},
{
  "type": "node",
  "id": 5043813893,
  "lat": 50.6865750,
  "lon": 5.7194674
},
{
  "type": "node",
  "id": 5043813894,
  "lat": 50.6865556,
  "lon": 5.7194414
},
{
  "type": "node",
  "id": 6695967263,
  "lat": 50.6866243,
  "lon": 5.7194565
},
{
  "type": "node",
  "id": 6695967264,
  "lat": 50.6866538,
  "lon": 5.7194511
},
{
  "type": "node",
  "id": 1445338596,
  "lat": 50.7433476,
  "lon": 5.6938457
},
{
  "type": "node",
  "id": 1445338597,
  "lat": 50.7433593,
  "lon": 5.6937245
},
{
  "type": "node",
  "id": 1445338598,
  "lat": 50.7438757,
  "lon": 5.6939737
},
{
  "type": "node",
  "id": 1445338599,
  "lat": 50.7438874,
  "lon": 5.6938526
},
{
  "type": "node",
  "id": 1679501063,
  "lat": 50.6124715,
  "lon": 5.9401755
},
{
  "type": "node",
  "id": 1679501064,
  "lat": 50.6124885,
  "lon": 5.9400059
},
{
  "type": "node",
  "id": 1679501065,
  "lat": 50.6125436,
  "lon": 5.9402061
},
{
  "type": "node",
  "id": 1679501067,
  "lat": 50.6125642,
  "lon": 5.9400601
},
{
  "type": "node",
  "id": 1679501069,
  "lat": 50.6125654,
  "lon": 5.9400206
},
{
  "type": "node",
  "id": 5863186417,
  "lat": 50.6125361,
  "lon": 5.9402033
},
{
  "type": "node",
  "id": 1195492988,
  "lat": 50.6322895,
  "lon": 6.0353016
},
{
  "type": "node",
  "id": 1195493016,
  "lat": 50.6323237,
  "lon": 6.0354080
},
{
  "type": "node",
  "id": 1195493049,
  "lat": 50.6322038,
  "lon": 6.0355134
},
{
  "type": "node",
  "id": 1195493050,
  "lat": 50.6321721,
  "lon": 6.0354157
},
{
  "type": "node",
  "id": 1213673508,
  "lat": 50.6322957,
  "lon": 6.0354337
},
{
  "type": "node",
  "id": 1213673589,
  "lat": 50.6322318,
  "lon": 6.0355960
},
{
  "type": "node",
  "id": 5520141177,
  "lat": 50.6323238,
  "lon": 6.0355177
},
{
  "type": "node",
  "id": 5881569776,
  "lat": 50.6323108,
  "lon": 6.0353679
},
{
  "type": "node",
  "id": 5881569784,
  "lat": 50.6323151,
  "lon": 6.0354142
},
{
  "type": "node",
  "id": 5881569893,
  "lat": 50.6322941,
  "lon": 6.0354292
},
{
  "type": "node",
  "id": 5881569894,
  "lat": 50.6323091,
  "lon": 6.0354746
},
{
  "type": "node",
  "id": 5881569899,
  "lat": 50.6323210,
  "lon": 6.0355105
},
{
  "type": "node",
  "id": 1147860261,
  "lat": 50.7114960,
  "lon": 6.0086636
},
{
  "type": "node",
  "id": 1147860288,
  "lat": 50.7114471,
  "lon": 6.0083432
},
{
  "type": "node",
  "id": 1147860292,
  "lat": 50.7114283,
  "lon": 6.0083062
},
{
  "type": "node",
  "id": 1147860317,
  "lat": 50.7115627,
  "lon": 6.0087866
},
{
  "type": "node",
  "id": 1147860318,
  "lat": 50.7116232,
  "lon": 6.0087022
},
{
  "type": "node",
  "id": 1147860319,
  "lat": 50.7115582,
  "lon": 6.0085766
},
{
  "type": "node",
  "id": 1147860327,
  "lat": 50.7113539,
  "lon": 6.0084281
},
{
  "type": "node",
  "id": 2352210349,
  "lat": 50.7114080,
  "lon": 6.0083357
},
{
  "type": "node",
  "id": 2352210353,
  "lat": 50.7116047,
  "lon": 6.0087272
},
{
  "type": "node",
  "id": 576340796,
  "lat": 50.8702220,
  "lon": 5.3229056
},
{
  "type": "node",
  "id": 576340800,
  "lat": 50.8700947,
  "lon": 5.3226514
},
{
  "type": "node",
  "id": 576340802,
  "lat": 50.8700118,
  "lon": 5.3227556
},
{
  "type": "node",
  "id": 576340805,
  "lat": 50.8701390,
  "lon": 5.3230098
},
{
  "type": "node",
  "id": 2069249277,
  "lat": 50.9304999,
  "lon": 5.3301638
},
{
  "type": "node",
  "id": 2069249279,
  "lat": 50.9305320,
  "lon": 5.3300248
},
{
  "type": "node",
  "id": 2069249280,
  "lat": 50.9305974,
  "lon": 5.3302252
},
{
  "type": "node",
  "id": 2069249282,
  "lat": 50.9305966,
  "lon": 5.3300951
},
{
  "type": "node",
  "id": 5156863999,
  "lat": 50.9305918,
  "lon": 5.3301197
},
{
  "type": "node",
  "id": 5156864000,
  "lat": 50.9306258,
  "lon": 5.3301800
},
{
  "type": "node",
  "id": 2386613334,
  "lat": 50.9339993,
  "lon": 5.3381414
},