{
  "version": 0.6,
  "generator": "Overpass API 0.7.55.1011 6c2efc30",
  "osm3s": {
    "timestamp_osm_base": "2020-02-14T12:00:02Z",
    "copyright": "The data included in this document is from www.openstreetmap.org. The data is made available under ODbL."
  },
  "elements": [

{
  "type": "node",
  "id": 249060732,
  "lat": 49.9701868,
  "lon": 20.4314375,
  "tags": {
    "created_by": "JOSM",
    "name": "Kopalnia Soli \"Bochnia\"",
    "tourism": "museum"
  }
},
{
  "type": "node",
  "id": 471557535,
  "lat": 50.0632264,
  "lon": 19.9403302,
  "tags": {
    "addr:city": "Kraków",
    "addr:country": "PL",
    "addr:housenumber": "25",
    "addr:street": "Floriańska",
    "email": "mf1@mp.pl",
    "name": "Muzeum Farmacji UJ",
    "name:en": "Museum of Pharmacy",
    "name:hu": "Patikamúzeum",
    "name:pl": "Muzeum Farmacji UJ",
    "name:ru": "Музей фармацевтики",
    "opening_hours": "We-Sa 09:30-15:00; Tu 12:00-18:30",
    "phone": "+48 12 421 92 79",
    "tourism": "museum",
    "website": "http://muzeum.farmacja.uj.edu.pl"
  }
},
{
  "type": "node",
  "id": 471557583,
  "lat": 50.0615617,
  "lon": 19.9337367,
  "tags": {
    "name": "Muzeum Uniwersytetu Jagiellońskiego",
    "name:de": "Museum des Jagiellonen-Universitäts",
    "name:en": "University Museum",
    "name:hu": "Jagelló Egyetem Múzeuma",
    "tourism": "museum",
    "wikidata": "Q11787234",
    "wikipedia": "pl:Muzeum Uniwersytetu Jagiellońskiego"
  }
},
{
  "type": "node",
  "id": 471557722,
  "lat": 50.0575043,
  "lon": 19.9366963,
  "tags": {
    "addr:city": "Kraków",
    "addr:country": "PL",
    "addr:housenumber": "2",
    "addr:street": "Senacka",
    "name": "Muzeum Geologiczne PAN",
    "name:de": "Geologisches Museum",
    "name:en": "Geological Museum",
    "name:hu": "Lengyel Tudományos Akadémia Földtani Múzeuma",
    "name:pl": "Muzeum Geologiczne PAN",
    "tourism": "museum"
  }
},
{
  "type": "node",
  "id": 471557771,
  "lat": 50.0556310,
  "lon": 19.9367935,
  "tags": {
    "addr:city": "Kraków",
    "addr:country": "PL",
    "addr:housenumber": "25",
    "addr:street": "Kanonicza",
    "description:hu": "Jan Długosz (1415–1480) lengyel pap, történetíró, diplomata, katona és püspöki titkár, a lengyel történetírás atyja",
    "name": "Dom Długosza",
    "name:de": "Jan-Długosz-Haus",
    "name:hu": "Jan Długosz ház",
    "name:pl": "Dom Długosza",
    "tourism": "museum"
  }
},
{
  "type": "node",
  "id": 471557814,
  "lat": 50.0633123,
  "lon": 19.9417875,
  "tags": {
    "addr:city": "Kraków",
    "addr:country": "PL",
    "addr:housenumber": "21",
    "addr:street": "Szpitalna",
    "name": "Dom Pod Krzyżem",
    "name:hu": "Ház a Kereszt Alatt",
    "tourism": "museum"
  }
},
{
  "type": "node",
  "id": 471557838,
  "lat": 50.0627747,
  "lon": 19.9364960,
  "tags": {
    "name": "Muzeum Historyczne Miasta Krakowa",
    "name:en": "Historical Museum of the City of Kraków",
    "name:hu": "Krakkói Várostörténeti Múzeum",
    "opening_hours": "We-Su 10:00-17:30",
    "tourism": "museum",
    "wikidata": "Q5101500",
    "wikipedia": "pl:Muzeum Historyczne Miasta Krakowa"
  }
},
{
  "type": "node",
  "id": 471635664,
  "lat": 50.0633496,
  "lon": 19.9359640,
  "tags": {
    "addr:housenumber": "9",
    "addr:street": "Plac Szczepański",
    "description:hu": "Stanisław Wyspiański (1869–1907) lengyel drámaíró, festő, költő, belsőépítész és bútortervező…",
    "name": "Muzeum Stanisława Wyspiańskiego",
    "name:de": "Stanisław-Wyspiański-Museum",
    "name:hu": "Stanisław Wyspiański Múzeum",
    "opening_hours": "Tu-Sa 10:00-18:00; Su 10:00-16:00",
    "phone": "+48 12 433 54 50",
    "tourism": "museum",
    "website": "https://mnk.pl/oddzial/kamienica-szolayskich",
    "wikidata": "Q1321083",
    "wikipedia": "pl:Muzeum Stanisława Wyspiańskiego"
  }
},
{
  "type": "node",
  "id": 471984985,
  "lat": 50.0643704,
  "lon": 19.9337317,
  "tags": {
    "addr:city": "Kraków",
    "addr:country": "PL",
    "addr:housenumber": "3",
    "addr:street": "Juliana Dunajewskiego",
    "name": "Muzeum Ubezpieczeń",
    "name:en": "Insurance Museum",
    "name:hu": "Biztosítási Múzeum",
    "note": "one of its kind",
    "tourism": "museum",
    "wikidata": "Q6940904",
    "wikipedia": "pl:Muzeum Ubezpieczeń w Krakowie"
  }
},
{
  "type": "node",
  "id": 472032760,
  "lat": 50.0554747,
  "lon": 19.9415137,
  "tags": {
    "addr:city": "Kraków",
    "addr:housenumber": "9",
    "addr:postcode": "31-049",
    "addr:street": "Świętego Sebastiana",
    "museum": "nature",
    "name": "Muzeum Przyrodnicze PAN",
    "name:hu": "Lengyel Tudományos Akadémia Természettudományi Múzeuma",
    "opening_hours": "Tu-Fr 09:00-15:00; Sa, Su 10:00-18:00",
    "operator": "PAN",
    "tourism": "museum",
    "website": "http://www.isez.pan.krakow.pl/muzeum.html"
  }
},
{
  "type": "node",
  "id": 472125058,
  "lat": 50.0513931,
  "lon": 19.9485742,
  "tags": {
    "fee": "yes",
    "fee:conditional": "no @ Monday",
    "name": "Muzeum Historii i Kultury Żydów Krakowa",
    "name:be": "Музей гісторыі і культуры жыдоў Кракава",
    "name:es": "Museo de Historia y Cultura Judía",
    "name:hu": "Krakkói Zsidó Történeti és Kulturális Múzeum",
    "tourism": "museum",
    "visiting_time": "30 min"
  }
},
{
  "type": "node",
  "id": 472147189,
  "lat": 50.0508571,
  "lon": 19.9496775,
  "tags": {
    "addr:city": "Kraków",
    "addr:country": "PL",
    "addr:housenumber": "18",
    "addr:street": "Dajwór",
    "name": "Żydowskie Muzeum Galicja",
    "name:en": "Galicia Jewish Museum",
    "name:he": "מוזיאון יהודי",
    "name:hu": "Galíciai Zsidó Múzeum",
    "opening_hours": "Mo-Su 10:00-18:00",
    "phone": "+48 12 421 68 42",
    "source:name:en": "http://www.galiciajewishmuseum.org/en",
    "tourism": "museum",
    "website": "http://www.galiciajewishmuseum.org/",
    "wikidata": "Q326670",
    "wikipedia": "pl:Żydowskie Muzeum Galicja w Krakowie"
  }
},
{
  "type": "node",
  "id": 472147202,
  "lat": 50.0486624,
  "lon": 19.9434852,
  "tags": {
    "addr:housenumber": "1",
    "addr:street": "Plac Wolnica",
    "name": "Muzeum Etnograficzne",
    "name:hu": "Néprajzi Múzeum",
    "opening_hours": "Tu-Su 10:00-19:00",
    "tourism": "museum",
    "website": "http://etnomuzeum.eu/",
    "wikidata": "Q194616",
    "wikipedia": "en:Ethnographic Museum of Kraków"
  }
},
{
  "type": "node",
  "id": 472147280,
  "lat": 50.0478189,
  "lon": 19.9438128,
  "tags": {
    "name": "Muzeum Etnograficzne (Dom Esterki)",
    "name:hu": "Néprajzi Múzeum (Esterka-ház)",
    "tourism": "museum"
  }
},
{
  "type": "node",
  "id": 475387282,
  "lat": 50.0635805,
  "lon": 19.9344469,
  "tags": {
    "addr:city": "Kraków",
    "addr:housenumber": "3a",
    "addr:postcode": "31-011",
    "addr:street": "Plac Szczepański",
    "name": "Bunkier Sztuki",
    "name:hu": "Művészetek Bunkere",
    "opening_hours": "Tu-Su 11:00-19:00",
    "tourism": "museum",
    "website": "http://bunkier.art.pl/",
    "wikidata": "Q11699302",
    "wikipedia": "pl:Galeria Sztuki Współczesnej „Bunkier Sztuki”"
  }
},
{
  "type": "node",
  "id": 748842563,
  "lat": 50.0341198,
  "lon": 20.2175728,
  "tags": {
    "name": "Muzeum Sukiennice",
    "tourism": "museum"
  }
},
{
  "type": "node",
  "id": 968360655,
  "lat": 50.0814425,
  "lon": 20.0362814,
  "tags": {
    "addr:city": "Kraków",
    "addr:country": "PL",
    "addr:housenumber": "23",
    "addr:street": "Osiedle Górali",
    "name": "Muzeum Czynu Zbrojnego",
    "name:en": "Museum of Armed Deed",
    "name:hu": "Hadtörténetni Múzeum",
    "tourism": "museum",
    "wikidata": "Q11786944",
    "wikipedia": "pl:Muzeum Czynu Zbrojnego w Krakowie"
  }
},
{
  "type": "node",
  "id": 979972831,
  "lat": 50.0462364,
  "lon": 19.9541481,
  "tags": {
    "addr:housenumber": "18",
    "addr:street": "Plac Bohaterów Getta",
    "description:hu": "Az egykori varsói gettóban működő egyetlen gyógyszertár",
    "email": "apteka@mhk.pl",
    "name": "Apteka Pod Orłem",
    "name:en": "Under the Eagle Pharmacy",
    "name:hu": "Patika a Sas Alatt",
    "opening_hours": "Mo 10:00-14:00; Tu-Su 09:00-17:00",
    "phone": "+48 12 656 56 25",
    "tourism": "museum",
    "website": "https://www.mhk.pl/oddzialy/apteka-pod-orlem",
    "wikidata": "Q5101454",
    "wikipedia": "pl:Apteka Pod Orłem w Krakowie"
  }
},
{
  "type": "node",
  "id": 1243361620,
  "lat": 50.3551520,
  "lon": 20.0375990,
  "tags": {
    "name": "Dworek Zacisze",
    "tourism": "museum"
  }
},
{
  "type": "node",
  "id": 1332080339,
  "lat": 50.0619960,
  "lon": 19.9377745,
  "tags": {
    "addr:city": "Kraków",
    "addr:country": "PL",
    "addr:housenumber": "1",
    "addr:postcode": "31-042",
    "addr:street": "Rynek Główny",
    "fee": "yes",
    "name": "Podziemia Rynku",
    "name:en": "Rynek Underground",
    "name:hu": "Föld alatti Piac tér",
    "name:pl": "Podziemia Rynku",
    "name:ru": "Подземелье рынка",
    "opening_hours": "Mo-Su 10:00-20:00; Tu 10:00-16:00",
    "operator": "Muzeum Historyczne Miasta Krakowa",
    "tourism": "museum",
    "website": "http://www.podziemiarynku.com/",
    "wikidata": "Q5420576",
    "wikipedia": "pl:Podziemia Rynku w Krakowie"
  }
},
{
  "type": "node",
  "id": 1416965542,
  "lat": 50.0700576,
  "lon": 20.0413202,
  "tags": {
    "addr:city": "Kraków",
    "addr:country": "PL",
    "addr:housenumber": "1",
    "addr:street": "Osiedle Centrum E",
    "description:hu": "A kommunista Lengyen Népköztársaság (1952–1990) története",
    "fee": "yes",
    "fee:conditional": "no @ Tuesday",
    "name": "Muzeum PRL-u",
    "name:en": "Museum of Poland under the Communist Regime",
    "name:hu": "Lengyel Népköztársaság Múzeuma",
    "official_name": "Muzeum PRL-u (w organizacji)",
    "old_name": "Kino Światowid",
    "opening_hours": "Tu-Su 11:00-19:00",
    "source:name:en": "http://www.mprl.pl/omuzeum/57/museum-of-poland-under-the-communist-regime-pl:-muzeum-prlu-in-the-former-swiatowid-cinema.html",
    "source:wheelchair": "http://www.mprl.pl/kontakt.html \"Uwaga! Budynek nie jest dostosowany do potrzeb osób niepełnosprawnych.\"",
    "tourism": "museum",
    "website": "http://www.muzprl.pl/",
    "wheelchair": "no",
    "wikidata": "Q6940983",
    "wikipedia": "pl:Muzeum PRL-u"
  }
},
{
  "type": "node",
  "id": 1499159102,
  "lat": 50.0545616,
  "lon": 19.8943551,
  "tags": {
    "name:de": "Kościuszko-Museum",
    "tourism": "museum"
  }
},
{
  "type": "node",
  "id": 1516798709,
  "lat": 50.0560885,
  "lon": 19.9371042,
  "tags": {
    "addr:city": "Kraków",
    "addr:country": "PL",
    "addr:housenumber": "19",
    "addr:street": "Kanonicza",
    "name": "Muzeum Archidiecezjalne",
    "name:de": "Erzdiözese-Museum",
    "name:hu": "Főegyházmegyei Múzeum",
    "name:pl": "Muzeum Archidiecezjalne",
    "tourism": "museum"
  }
},
{
  "type": "node",
  "id": 1516840253,
  "lat": 50.0563019,
  "lon": 19.9372228,
  "tags": {
    "addr:city": "Kraków",
    "addr:country": "PL",
    "addr:housenumber": "17",
    "addr:street": "Kanonicza",
    "description": "Oddział Muzeum Narodowego",
    "description:de": "Filiale des Nationalmuseums",
    "fee": "yes",
    "fee:conditional": "no @ Sunday",
    "name": "Pałac Biskupa Erazma Ciołka",
    "name:hu": "Erazm Ciołek (1492–1546) püspök palotája",
    "opening_hours": "Mo-Sa 10:00-18:00, Su 10:00-16:00",
    "tourism": "museum",
    "wheelchair": "yes",
    "wheelchair:description": "niemal nieograniczony, część jednej sali w galerii sztuki cerkiewnej ma stopień bez podjazdu"
  }
},
{
  "type": "node",
  "id": 1590572347,
  "lat": 50.3579123,
  "lon": 20.0272146,
  "tags": {
    "name": "Muzeum Ziemi Miechowskiej",
    "tourism": "museum"
  }
},
{
  "type": "node",
  "id": 1804452815,
  "lat": 50.2209609,
  "lon": 19.9793641,
  "tags": {
    "name": "Muzeum Regionalne PTTK w Iwanowicach",
    "tourism": "museum"
  }
},
{
  "type": "node",
  "id": 2311921622,
  "lat": 49.9835208,
  "lon": 20.0612614,
  "tags": {
    "name": "Kopalnia soli Wieliczka (trasa górnicza)",
    "tourism": "museum"
  }
},
{
  "type": "node",
  "id": 2311921623,
  "lat": 49.9830472,
  "lon": 20.0556960,
  "tags": {
    "alt_name": "Szyb Mikołaja Daniłowicza",
    "description": "trasa turystyczna",
    "headframe": "yes",
    "historic": "mineshaft",
    "man_made": "mineshaft",
    "mineshaft_type": "winding",
    "name": "Szyb Daniłowicza",
    "operator": "Kopalnia soli Wieliczka",
    "resource": "salt",
    "start_date": "1635",
    "tourism": "museum"
  }
},
{
  "type": "node",
  "id": 2319751946,
  "lat": 50.0636006,
  "lon": 19.9559687,
  "tags": {
    "entrance": "yes",
    "name": "Muzeum Ogrodu Botanicznego UJ",
    "name:hu": "Jagelló Egyetem Botanikus Kertjének Múzeuma",
    "official_name": "Muzeum Ogrodu Botanicznego i Pracownia Historii Botaniki im. J. Dyakowskiej",
    "opening_hours": "Th,Fr 10:00-14:00; Su 11:00-15:00; Oct 15-Apr 15 off",
    "start_date": "1994",
    "tourism": "museum",
    "website": "https://ogrod.uj.edu.pl/ogrod/ekspozycja-muzealna"
  }
},
{
  "type": "node",
  "id": 2359965247,
  "lat": 49.9693516,
  "lon": 20.4178240,
  "tags": {
    "heritage": "1",
    "heritage:operator": "whc",
    "historic": "yes",
    "name": "Kopalnia Soli",
    "ref:whc": "32ter",
    "tourism": "museum",
    "whc:criteria": "(iv)",
    "whc:inscription_date": "2013",
    "wikidata": "Q4936252",
    "wikipedia": "pl:Kopalnia soli Bochnia"
  }
},
{
  "type": "node",
  "id": 2511586195,
  "lat": 50.0356273,
  "lon": 20.2180603,
  "tags": {
    "name": "Muzeum Fonografii",
    "tourism": "museum",
    "website": "http://muzeumfonografii.pl/"
  }
},
{
  "type": "node",
  "id": 2616212673,
  "lat": 50.0614346,
  "lon": 19.9291440,
  "tags": {
    "description:hu": "Europeum Európai Kulturális Központ (képzőművészeti múzeum)",
    "name": "Europeum",
    "note": "W niedziele wstęp wolny.",
    "official_name": "Ośrodek Kultury Europejskiej \"Europeum\"",
    "opening_hours": "Tu-Sa 10:00-18:00; Su 10:00-16:00",
    "tourism": "museum",
    "wikidata": "Q11801618",
    "wikipedia": "pl:Ośrodek Kultury Europejskiej „Europeum”"
  }
},
{
  "type": "node",
  "id": 2768525812,
  "lat": 49.8770902,
  "lon": 20.0848388,
  "tags": {
    "addr:city": "Dobczyce",
    "addr:housenumber": "1",
    "addr:postcode": "32-410",
    "addr:street": "Podgórska",
    "name": "Muzeum Regionalne PTTK im.W.Kowalskiego",
    "operator": "PTTK",
    "tourism": "museum",
    "website": "http://www.pttk.pl/kznw/muzea/index.php?co=muz01"
  }
},
{
  "type": "node",
  "id": 3159131815,
  "lat": 50.0160064,
  "lon": 19.5877639,
  "tags": {
    "addr:housenumber": "1",
    "addr:place": "Kamień",
    "addr:postcode": "32-071",
    "name": "Izba Regionalna w Kamieniu",
    "tourism": "museum"
  }
},
{
  "type": "node",
  "id": 3333682428,
  "lat": 50.0693436,
  "lon": 19.5361329,
  "tags": {
    "addr:city": "Alwernia",
    "addr:housenumber": "10",
    "addr:postcode": "32-566",
    "addr:street": "Krzysztofa Korycińskiego",
    "name": "Małopolskie Muzeum Pożarnictwa w Alwerni",
    "opening_hours": "Mo-Sa 09:00-15:00",
    "operator": "OSP Alwernia",
    "tourism": "museum"
  }
},
{
  "type": "node",
  "id": 3470132737,
  "lat": 50.1688393,
  "lon": 19.6338544,
  "tags": {
    "addr:housenumber": "79",
    "addr:place": "Czerna",
    "name": "Muzeum Karmelitańskie w Czernej",
    "opening_hours": "Mo-Su 09:00-17:00",
    "phone": "+48 505 898 580",
    "tourism": "museum",
    "website": "http://dompielgrzyma.karmelczerna.pl/muzeum-karmelitanskie/"
  }
},
{
  "type": "node",
  "id": 3545259938,
  "lat": 50.0644028,
  "lon": 19.9573898,
  "tags": {
    "description:hu": "Paleobotanikai Múzeum",
    "name": "Muzeum Paleobotaniczne UJ",
    "name:hu": "Jagelló Egyetem Ősnövénytani Múzeuma",
    "official_name": "Muzeum Paleobotaniczne Instytutu Botaniki Uniwersytetu Jagiellońskiego",
    "start_date": "2003",
    "tourism": "museum",
    "website": "http://www.ib.uj.edu.pl/instytut/muzeum",
    "wikidata": "Q11787114",
    "wikipedia": "pl:Muzeum Paleobotaniczne Instytutu Botaniki UJ w Krakowie"
  }
},
{
  "type": "node",
  "id": 3545259939,
  "lat": 50.0642399,
  "lon": 19.9577676,
  "tags": {
    "description:hu": "Herbárium",
    "name": "Zielnik Uniwersytetu Jagiellońskiego",
    "name:hu": "Jagelló Egyetem Növénytára",
    "official_name": "Herbarium Universitatis Iagellonicae Cracoviensis (KRA)",
    "start_date": "1780",
    "tourism": "museum",
    "website": "http://www.ib.uj.edu.pl/instytut/zielnik"
  }
},
{
  "type": "node",
  "id": 3572269293,
  "lat": 50.2099627,
  "lon": 19.8293623,
  "tags": {
    "name": "Ekspozycja Przyrodnicza",
    "opening_hours": "Mo-Fr 09:00-16:00; Sa 10:00-16:00",
    "operator": "OPN",
    "tourism": "museum",
    "website": "http://www.ojcowskiparknarodowy.pl/main/muzeum.html",
    "wheelchair": "yes"
  }
},
{
  "type": "node",
  "id": 3572269295,
  "lat": 50.2084574,
  "lon": 19.8292402,
  "tags": {
    "addr:city": "Ojców",
    "addr:housenumber": "15",
    "addr:place": "Ojców",
    "addr:postcode": "32-047",
    "name": "Muzeum Regionalne \"Bazar Warszawski\"",
    "operator": "PTTK",
    "tourism": "museum"
  }
},
{
  "type": "node",
  "id": 3577574278,
  "lat": 49.9692765,
  "lon": 20.4179574,
  "tags": {
    "addr:city": "Bochnia",
    "addr:housenumber": "15",
    "addr:street": "Campi",
    "name": "Kopalnia Soli w Bochni",
    "tourism": "museum",
    "website": "http://www.kopalnia-bochnia.pl/"
  }
},
{
  "type": "node",
  "id": 3924520546,
  "lat": 50.0548363,
  "lon": 19.8927871,
  "tags": {
    "tourism": "museum"
  }
},
{
  "type": "node",
  "id": 3924702079,
  "lat": 50.0542558,
  "lon": 19.8943237,
  "tags": {
    "tourism": "museum"
  }
},
{
  "type": "node",
  "id": 3988103830,
  "lat": 50.0546591,
  "lon": 19.9344961,
  "tags": {
    "addr:city": "Kraków",
    "addr:housenumber": "2",
    "addr:place": "Wawel",
    "addr:postcode": "31-001",
    "name": "Muzeum Katedralne im. Jana Pawła II",
    "name:be": "Кафедральны музей Яна Паўла ІІ",
    "name:de": "Johann-Paul-II-Domsmuseum",
    "name:en": "John Paul II Cathedral Museum",
    "name:hu": "II. János Pál Székesegyházi Múzeum",
    "name:pl": "Muzeum Katedralne im. Jana Pawła II",
    "name:ru": "Кафедральный музей имени Иоанна Павла 2",
    "opening_hours": "Nov-Mar Mo-Sa 09:00-16:00; Apr-Oct Mo-Sa 09:00-17:00; PH off",
    "phone": "+48 12 4293321",
    "start_date": "1978-09-28",
    "tourism": "museum",
    "website": "http://www.katedra-wawelska.pl/historia,42.html",
    "wikidata": "Q6944418",
    "wikipedia": "pl:Muzeum Katedralne im. Jana Pawła II na Wawelu"
  }
},
{
  "type": "node",
  "id": 3992709827,
  "lat": 50.0527084,
  "lon": 19.9398623,
  "tags": {
    "addr:city": "Kraków",
    "addr:housenumber": "15",
    "addr:postcode": "31-068",
    "addr:street": "Stradomska",
    "description": "Pierwsze w Polsce muzeum fliperów",
    "description:hu": "Lengyelország első flippermúzeuma",
    "fee": "yes",
    "leisure": "amusement_arcade",
    "name": "Muzeum Flipperów",
    "name:en": "Krakow Pinball Museum",
    "name:hu": "Flippermúzeum",
    "opening_hours": "Fr,Sa 12:00-23:00; Su-Th 12:00-22:00",
    "phone": "+48 608 041 000",
    "tourism": "museum",
    "website": "http://www.krakowpinballmuseum.com/"
  }
},
{
  "type": "node",
  "id": 4002989037,
  "lat": 50.0641425,
  "lon": 19.9231397,
  "tags": {
    "addr:city": "Kraków",
    "addr:housenumber": "30",
    "addr:postcode": "30-059",
    "addr:street": "Aleja Adama Mickiewicza",
    "name": "Muzeum Geologiczne WGGiOŚ AGH",
    "name:hu": "Földtani Múzeum (Műszaki Egyetem, Geológiai Kar)",
    "operator": "Akademia Górniczo-Hutnicza w Krakowie",
    "phone": "+48 606 510 084",
    "tourism": "museum",
    "website": "http://www.geol.agh.edu.pl/~muzeum/index.php"
  }
},
{
  "type": "node",
  "id": 4031826801,
  "lat": 50.0617330,
  "lon": 19.9375856,
  "tags": {
    "addr:city": "Kraków",
    "addr:housenumber": "3",
    "addr:postcode": "31-042",
    "addr:street": "Rynek Główny",
    "fee": "yes",
    "fee:conditional": "no @ Sunday for unchanging expositions",
    "name": "Galeria Sztuki Polskiej XIX wieku",
    "name:en": "National Museum The Nineteenth Century Polish Art Gallery at the Sukiennice",
    "name:hu": "XIX. századi lengyel művészeti galéria",
    "name:ja": "織物会館",
    "opening_hours": "Su 10:00-16:00; Th 10:00-20:00; Tu, We, Fr, Sa 10:00-18:00",
    "operator": "Muzeum Narodowe w Krakowie",
    "phone": "+48 12 433 54 00",
    "tourism": "museum",
    "website": "https://mnk.pl/oddzial/galeria-sztuki-polskiej/o-oddziale",
    "wheelchair": "yes",
    "wikidata": "Q7635861",
    "wikipedia": "pl:Galeria Sztuki Polskiej XIX wieku w Sukiennicach"
  }
},
{
  "type": "node",
  "id": 4281228578,
  "lat": 50.0613744,
  "lon": 19.9417126,
  "tags": {
    "addr:city": "Kraków",
    "addr:country": "PL",
    "addr:housenumber": "18",
    "addr:postcode": "31-027",
    "addr:street": "Mikołajska",
    "description:hu": "Maria Angela Truszkowska (1825–99) lengyel rendalapító szerzetesnő",
    "email": "muzeum-mat@cssf.opoka.org.pl",
    "fax": "+48 12 4264740",
    "name": "Muzeum i Archiwum Marii Angeli Truszkowskiej",
    "name:hu": "Maria Angela Truszkowska Múzeum és Levéltár",
    "opening_hours": "Mo-Fr 10:00-14:00",
    "operator": "Zgromadzenie Sióstr Felicjanek",
    "phone": "+48 12 4264740",
    "start_date": "1999-10-11",
    "tourism": "museum",
    "website": "http://www.muzeum-mat.cssf.opoka.org.pl/",
    "wikidata": "Q11787298",
    "wikipedia": "pl:Muzeum i Archiwum bł. Marii Angeli Truszkowskiej w Krakowie"
  }
},
{
  "type": "node",
  "id": 4285260191,
  "lat": 50.0133713,
  "lon": 19.9367801,
  "tags": {
    "description": "Oddział Muzeum Archidiecezjalnego Kardynała Karola Wojtyły",
    "name": "Muzeum Jana Pawła II",
    "name:hu": "II. János Pál Pápa Múzeum",
    "note": "docelowo w budynku obok",
    "tourism": "museum"
  }
},
{
  "type": "node",
  "id": 4286631532,
  "lat": 50.1262320,
  "lon": 19.6538027,
  "tags": {
    "addr:city": "Nawojowa Góra",
    "addr:housenumber": "35",
    "addr:street": "Gwoździec",
    "name": "Galeria Kamienny kwiatek",
    "operator": "Dagmara Kwiatek",
    "phone": "+48 608 373 807,+48 601 475 628",
    "tourism": "museum",
    "website": "https://kamiennykwiatek.weebly.com/"
  }
},
{
  "type": "node",
  "id": 4290338097,
  "lat": 50.0625139,
  "lon": 19.9361345,
  "tags": {
    "addr:city": "Kraków",
    "addr:housenumber": "34",
    "addr:postcode": "31-010",
    "addr:street": "Rynek Główny",
    "description": "Muzeum figur woskowych",
    "description:hu": "Panoptikum: viaszfigurák múzeuma",
    "name": "Polonia Wax",
    "phone": "+48 502 799 445",
    "tourism": "museum",
    "website": "http://poloniawaxmuseum.com/"
  }
},
{
  "type": "node",
  "id": 4319513769,
  "lat": 49.9837496,
  "lon": 20.0595928,
  "tags": {
    "description": "Najstarszy (poł. XIII w.) szyb górniczy w Wieliczce odkryty w czasie wykopalisk archeologicznych w 1967 r.",
    "name": "Szyb poszukiwawczy",
    "source:description": "plate nearby",
    "tourism": "museum"
  }
},
{
  "type": "node",
  "id": 4357426638,
  "lat": 50.0550023,
  "lon": 19.9088530,
  "tags": {
    "addr:city": "Kraków",
    "addr:housenumber": "41",
    "addr:postcode": "30-209",
    "addr:street": "Królowej Jadwigi",
    "description": "Dom Zwierzyniecki - Oddział Muzeum Historycznego Miasta Krakowa",
    "description:hu": "A Krakkói Várostörténeti Múzeum kiállítóhelye: helytörténeti, mikrotörténeti kiállítások",
    "name": "Dom Zwierzyniecki",
    "name:hu": "Zwierzyniec Ház",
    "opening_hours": "Mo-Su 09:30-17:00",
    "tourism": "museum"
  }
},
{
  "type": "node",
  "id": 4443337491,
  "lat": 50.0707757,
  "lon": 19.9248071,
  "tags": {
    "addr:postcode": "30-039",
    "name": "Muzeum Historyczne Miasta Krakowa Ulica Pomorska",
    "name:en": "Historical Museum of Krakow, Pomorska Street",
    "name:hu": "Krakkói Várostörténeti Múzeum, Pomorska utca",
    "name:pl": "Muzeum Historyczne Miasta Krakowa Ulica Pomorska",
    "opening_hours": "Apr-Oct: Mo-Su 10:00-17:30",
    "todo": "Create relation of all 14 museum divisions. See wikipedia reference for further information https://en.wikipedia.org/wiki/Historical_Museum_of_Krak%C3%B3w",
    "tourism": "museum",
    "website": "https://mhk.pl/",
    "wikidata": "Q5101500",
    "wikipedia": "pl:Muzeum Historyczne Miasta Krakowa"
  }
},
{
  "type": "node",
  "id": 4817320821,
  "lat": 50.0590085,
  "lon": 19.9257049,
  "tags": {
    "addr:postcode": "31-111",
    "email": "info@stainedglass.pl",
    "name": "Muzeum Witrażu w Krakowie",
    "name:en": "Krakow Workshop and Stained Glass Museum",
    "name:hu": "Krakkói Ólomüvegablak-múzeum és -műhely",
    "name:pl": "Muzeum Witrażu w Krakowie",
    "opening_hours": "Tu-Sa 12:00-17:00",
    "phone": "+48 512 937 979",
    "tourism": "museum",
    "website": "http://muzeumwitrazu.pl",
    "wikidata": "Q6944430",
    "wikipedia": "pl:Muzeum Witrażu w Krakowie"
  }
},
{
  "type": "node",
  "id": 5199949834,
  "lat": 50.0666305,
  "lon": 19.9408143,
  "tags": {
    "addr:city": "Kraków",
    "addr:housenumber": "4",
    "addr:postcode": "31-157",
    "addr:street": "Ignacego Jana Paderewskiego",
    "description:hu": "A krakkói perec („Obwarzanek krakowski”) múzeuma",
    "fee": "yes",
    "name": "Żywe Muzeum Obwarzanka",
    "name:hu": "Élő Perecmúzeum",
    "opening_hours": "Mo-Th 10:00-16:00; Fr-Su 09:30-17:30",
    "phone": "+48 12 357 73 22,+48 662 101 909",
    "tourism": "museum",
    "website": "https://www.muzeumobwarzanka.com/",
    "wheelchair": "no"
  }
},
{
  "type": "node",
  "id": 5577948813,
  "lat": 50.0425139,
  "lon": 19.9609937,
  "tags": {
    "contact:facebook": "https://www.facebook.com/muzeumpodgorza/",
    "description:hu": "Podgórze Krakkó Visztulától délre eső városrésze",
    "name": "Muzeum Podgórza",
    "name:hu": "Podgórzei Múzeum",
    "opening_hours": "Tu-Su 09:30-17:00",
    "tourism": "museum"
  }
},
{
  "type": "node",
  "id": 5751039807,
  "lat": 50.0617966,
  "lon": 19.9459505,
  "tags": {
    "charge": "7 zł",
    "email": "mburbani@cyf-kr.edu.pl",
    "fee": "yes",
    "name": "Muzeum Anatomii",
    "name:en": "Museum of Anatomy",
    "name:hu": "Orvoslástörténeti Múzeum",
    "official_name": "Muzeum Katedry Anatomii Uniwersytetu Jagiellońskiego Collegium Medicum",
    "tourism": "museum",
    "website": "http://katedra-anatomii.cm-uj.krakow.pl/o-katedrze/muzeum-katedry/",
    "wikidata": "Q11787260",
    "wikipedia": "pl:Muzeum Wydziału Lekarskiego UJ"
  }
},
{
  "type": "node",
  "id": 5832155481,
  "lat": 50.0603006,
  "lon": 19.9206554,
  "tags": {
    "name": "Muzeum Czynu Niepodległościowego",
    "opening_hours": "\"by appointment\"",
    "phone": "012-633-47-15",
    "tourism": "museum"
  }
},
{
  "type": "node",
  "id": 5853439712,
  "lat": 50.0771546,
  "lon": 20.0393941,
  "tags": {
    "addr:city": "Kraków",
    "addr:housenumber": "16",
    "addr:postcode": "31-958",
    "addr:street": "Osiedle Słoneczne",
    "facebook": "https://www.facebook.com/NowaHutaMuzeum?fref=pb&hc_location=profile_browser",
    "name:en": "Historical Museum of Krakow, Department of History of Nowa Huta",
    "phone": "+48 12 425 97 75",
    "tourism": "museum",
    "website": "https://www.mhk.pl/branches/history-nowa-huta-quarter"
  }
},
{
  "type": "node",
  "id": 6064243286,
  "lat": 49.9066264,
  "lon": 19.7853916,
  "tags": {
    "addr:housenumber": "590",
    "addr:place": "Wola Radziszowska",
    "addr:postcode": "32-053",
    "name": "Izba Regionalna",
    "tourism": "museum",
    "website": "http://skarby.bliskokrakowa.pl/34-sbk-izba-regionalna-w-woli-radziszowskiej"
  }
},
{
  "type": "node",
  "id": 6220687323,
  "lat": 50.0646542,
  "lon": 19.9399553,
  "tags": {
    "name": "Muzeum XX. Czartoryskich w Krakowie",
    "opening_hours": "Mo-Su 10:00-15:30",
    "phone": "+48 12 370 54 60",
    "tourism": "museum",
    "website": "http://www.muzeum-czartoryskich.krakow.pl/"
  }
},
{
  "type": "node",
  "id": 6361414404,
  "lat": 50.0682178,
  "lon": 20.0152564,
  "tags": {
    "addr:city": "Kraków",
    "addr:housenumber": "41A",
    "addr:postcode": "31-586",
    "addr:street": "Centralna",
    "name": "Arcade Muzeum-Gry Wideo",
    "phone": "+48 509 031 898",
    "start_date": "2019-03-24",
    "tourism": "museum"
  }
},
{
  "type": "node",
  "id": 6732338597,
  "lat": 50.0472907,
  "lon": 19.9513049,
  "tags": {
    "name": "Centre for Documentation of the Art of Tadeusz Kantor CRICOTEKA",
    "name:pl": "Ośrodek Dokumentacji Sztuki Tadeusza Kantora CRICOTEKA",
    "tourism": "museum"
  }
},
{
  "type": "node",
  "id": 6853230186,
  "lat": 50.0655378,
  "lon": 19.9469933,
  "tags": {
    "name": "History Land",
    "opening_hours": "Mo-Fr 09:00-17:00; Sa-Su 10:00-18:00",
    "tourism": "museum"
  }
},
{
  "type": "node",
  "id": 6893874285,
  "lat": 50.0700553,
  "lon": 19.9236248,
  "tags": {
    "name:ru": "Музей истории фотографии",
    "tourism": "museum"
  }
},
{
  "type": "node",
  "id": 6958500807,
  "lat": 50.0660335,
  "lon": 19.9222029,
  "tags": {
    "addr:city": "Kraków",
    "addr:housenumber": "30",
    "addr:postcode": "30-059",
    "addr:street": "Aleja Adama Mickiewicza",
    "name": "Muzeum AGH",
    "operator": "Akademia Górniczo-Hutnicza w Krakowie",
    "tourism": "museum"
  }
},
{
  "type": "node",
  "id": 7056586723,
  "lat": 50.0750320,
  "lon": 19.9330798,
  "tags": {
    "addr:city": "Kraków",
    "addr:housenumber": "8",
    "addr:postcode": "30-006",
    "addr:street": "Wrocławska",
    "name": "Muzeum Elektroniki",
    "opening_hours:signed": "no",
    "phone": "+48 12 532 798 799",
    "tourism": "museum",
    "website": "http://www.muzeumelektroniki.pl"
  }
},
{
  "type": "way",
  "id": 30807865,
  "nodes": [
    3486988114,
    3486988098,
    3486987459,
    341393253,
    3486987509,
    6077795785,
    6077795788,
    3486987858,
    3486988097,
    3486987474,
    3486988112,
    3486988118,
    3486987475,
    3486987863,
    3486988123,
    3486988124,
    3486987718,
    3486988114
  ],
  "tags": {
    "addr:city": "Kraków",
    "addr:housenumber": "16",
    "addr:postcode": "31-504",
    "addr:street": "Lubicz",
    "building": "museum",
    "building:levels": "2",
    "description:hu": "A várostörténeti múzeum kiállítóhelye",
    "name": "Muzeum Celestat",
    "tourism": "museum",
    "wikidata": "Q9185653",
    "wikipedia": "pl:Celestat"
  }
},
{
  "type": "way",
  "id": 39357526,
  "nodes": [
    3080536035,
    3080535992,
    3080535993,
    3080535810,
    3080535614,
    3080535595,
    3080535577,
    3080535398,
    3080535592,
    3080535807,
    3080535809,
    3080535824,
    3080535622,
    3080535262,
    3080535830,
    3080530184,
    3080536035
  ],
  "tags": {
    "addr:city": "Kraków",
    "addr:country": "PL",
    "addr:housenumber": "4",
    "addr:postcode": "31-011",
    "addr:street": "Plac Szczepański",
    "building": "yes",
    "building:levels": "3",
    "name": "Pałac Sztuki",
    "name:de": "Palast der Kunst",
    "name:en": "Palace of Art",
    "name:hu": "Művészetek Palotája",
    "name:pl": "Pałac Sztuki",
    "name:uk": "Палац мистецтв",
    "opening_hours": "Mo-Fr 08:15-18:00; Sa-Su 10:00-18:00",
    "tourism": "museum",
    "wikidata": "Q11814864",
    "wikipedia": "pl:Pałac Sztuki w Krakowie"
  }
},
{
  "type": "way",
  "id": 39393947,
  "nodes": [
    3037326260,
    3037326635,
    3037295906,
    3037295905,
    3037295904,
    471984939,
    1391259505,
    3037326454,
    3037326241,
    3037322431,
    3037322432,
    3037326415,
    3037325375,
    3037326475,
    3037326472,
    3037326523,
    3037326432,
    3037326530,
    3037326458,
    3037326457,
    3037326452,
    3037326453,
    3037326455,
    3037326464,
    3037326459,
    3037326460,
    3037326255,
    3037326263,
    3037326260
  ],
  "tags": {
    "addr:city": "Kraków",
    "addr:country": "PL",
    "addr:housenumber": "26",
    "addr:postcode": "31-123",
    "addr:street": "Krupnicza",
    "building": "residential",
    "building:levels": "2",
    "description:hu": "Józef Mehoffer (1869–1946) lengyel festő és üvegművész",
    "name": "Dom Józefa Mehoffera",
    "name:en": "The Józef Mehoffer House",
    "name:hu": "Józef Mehoffer háza",
    "opening_hours": "Tu-Fr 09:00-16:00; Sa 10:00-18:00; Su 10:00-16:00; Mo off",
    "phone": "+48 12 433 58 80",
    "tourism": "museum",
    "website": "https://mnk.pl/oddzial/dom-jozefa-mehoffera",
    "wikidata": "Q1715072",
    "wikipedia": "pl:Dom Józefa Mehoffera"
  }
},
{
  "type": "way",
  "id": 87527975,
  "nodes": [
    4291849885,
    4291849894,
    4291849893,
    4291849896,
    4291849899,
    4291849898,
    4291849914,
    4291849915,
    4291849916,
    4291849913,
    4291849912,
    4291849891,
    4291849892,
    4291849889,
    4291849888,
    4291849875,
    4291849876,
    4291849870,
    4291849869,
    4291849848,
    4291849849,
    4291849846,
    4291849844,
    4291849845,
    4291849820,
    4291849818,
    4291849815,
    4291849823,
    4291849824,
    4291849833,
    4291849764,
    4291849754,
    4291849755,
    4291849750,
    4291849748,
    4291849749,
    4291849726,
    4291849724,
    4291849722,
    4291849727,
    4291849729,
    4291849743,
    4291849742,
    4291849746,
    4291849747,
    4291849784,
    4291849783,
    4291849788,
    4291849789,
    4291849794,
    4291849793,
    4291849799,
    4291849805,
    4291849801,
    4291849825,
    4291849826,
    4291849827,
    4291849822,
    4291849821,
    4291849812,
    4291849885
  ],
  "tags": {
    "building": "university",
    "building:levels": "1",
    "name": "Muzeum Politechniki Krakowskiej",
    "name:hu": "Krakkói Műszaki Egyetemi Múzeuma",
    "operator": "Politechnika Krakowska",
    "tourism": "museum",
    "wheelchair": "no",
    "wikidata": "Q16580041",
    "wikipedia": "pl:Muzeum Politechniki Krakowskiej"
  }
},
{
  "type": "way",
  "id": 128616563,
  "nodes": [
    3450775051,
    3450772834,
    3450774267,
    3450774262,
    3450774818,
    3450774829,
    3450775056,
    3450775060,
    3450775051
  ],
  "tags": {
    "addr:city": "Kraków",
    "addr:country": "PL",
    "addr:housenumber": "25",
    "addr:postcode": "31-752",
    "addr:street": "Melchiora Wańkowicza",
    "building": "museum",
    "description:hu": "Jan Matejko (1838–1893) lengyel festő",
    "heritage": "2",
    "heritage:operator": "nid",
    "name": "Dworek Jana Matejki",
    "name:hu": "Jan Matejko háza",
    "ref:nid": "A-638",
    "tourism": "museum",
    "wikidata": "Q5318318",
    "wikipedia": "pl:Dworek Jana Matejki w Krzesławicach (Kraków)"
  }
},
{
  "type": "way",
  "id": 136648568,
  "nodes": [
    1499189374,
    1658892299,
    1499189344,
    1499189335,
    1499189378,
    1499189330,
    1499189366,
    1499189360,
    6514751638,
    1499189375,
    1658892310,
    1499189374
  ],
  "tags": {
    "addr:city": "Kraków",
    "addr:housenumber": "4",
    "addr:postcode": "30-702",
    "addr:street": "Lipowa",
    "building": "yes",
    "building:levels": "3",
    "email": "fabrykaschindlera@mhk.pl",
    "name": "Fabryka Emalia Oskara Schindlera",
    "name:de": "Emaillewarenfabrik Oskar Schindler",
    "name:en": "Schindler's Factory",
    "name:hu": "Oskar Schindler zománcárugyára",
    "name:ko": "오스카 쉰들러 공장",
    "name:pl": "Fabryka Emalia Oskara Schindlera",
    "opening_hours": "Mo-Su 09:00-16:00",
    "operator": "Muzeum Historyczne Miasta Krakowa",
    "roof:shape": "flat",
    "short_name": "Fabryka Schindlera",
    "tourism": "museum",
    "website": "https://mhk.pl/oddzialy/fabryka_schindlera",
    "wikidata": "Q286522",
    "wikipedia": "pl:Fabryka Emalia Oskara Schindlera"
  }
},
{
  "type": "way",
  "id": 138515644,
  "nodes": [
    1518864584,
    6717888654,
    6717888610,
    6717888608,
    6717888609,
    1518864572,
    6717888607,
    6717888604,
    6717888603,
    6717888602,
    6717888605,
    6717888606,
    6717888601,
    6717888599,
    6717888600,
    2500393633,
    6717888598,
    6717888597,
    2500393635,
    2500393639,
    6717888596,
    6717888595,
    2500393637,
    6717888839,
    6717888555,
    1518864586,
    2500393648,
    1518864597,
    6717888756,
    6717888755,
    6717888660,
    1518864584
  ],
  "tags": {
    "building:colour": "#ffd700",
    "building:material": "stone",
    "building:use": "museum",
    "description:hu": "Polgári élet Krakkóban a 17–19. században",
    "height": "20",
    "name": "Kamienica Hipolitów",
    "name:hu": "Hipolit-ház",
    "roof:colour": "grey",
    "roof:height": "4",
    "roof:material": "tiles",
    "roof:orientation": "across",
    "roof:shape": "gabled",
    "tourism": "museum",
    "wikidata": "Q11734077",
    "wikipedia": "pl:Kamienica Hipolitów w Krakowie"
  }
},
{
  "type": "way",
  "id": 148464900,
  "nodes": [
    3435179690,
    3435192511,
    4319513775,
    3435192512,
    3435192445,
    3435192434,
    1298812205,
    3435192436,
    3435192442,
    3435193597,
    3435193598,
    3435193599,
    3435192771,
    3435192767,
    4319513786,
    3435192508,
    4319513776,
    3435180938,
    3435192497,
    3435192751,
    3435189056,
    3435192495,
    3435180933,
    3435180929,
    3435189052,
    3435192429,
    3435180924,
    3435180927,
    3435180925,
    3435192427,
    3435189046,
    3435189049,
    3435189055,
    3435180931,
    3435189057,
    3435192750,
    3435192509,
    3435179690
  ],
  "tags": {
    "addr:city": "Wieliczka",
    "addr:city:simc": "0952232",
    "addr:housenumber": "6",
    "addr:postcode": "32-020",
    "addr:street": "Zamkowa",
    "addr:street:sym_ul": "25547",
    "building": "yes",
    "description:eo": "Historia administrejo de salminejo de fino de 13-a jarcento ĝis 1945 jaro.",
    "description:payment:eo": "ĉiusabate - eniro senpaga",
    "description:payment:pl": "soboty - wstęp wolny",
    "description:pl": "Historyczna siedziba administracji kopali soli od końca XIII w. do 1945 r.",
    "historic": "castle",
    "name": "Zamek Żupny",
    "name:eo": "Kastelo Żupny",
    "opening_hours": "May-Sep: Tu-Su 09:00-20:00; Oct-Apr: Tu-Su 08:30-15:30; Jan 01,easter -1 day,easter,easter +60 days,Nov 01,Dec 24,Dec 25,Dec 26,Dec 31 off",
    "source": "Bing",
    "source:addr": "wieliczka.e-mapa.net",
    "source:description": "plate nearby",
    "tourism": "museum",
    "website": "http://muzeum.wieliczka.pl",
    "wikidata": "Q9386781",
    "wikipedia": "pl:Zamek Żupny"
  }
},
{
  "type": "way",
  "id": 153050736,
  "nodes": [
    1658020962,
    1658020955,
    2457223961,
    2457167139,
    2457223957,
    1658020940,
    1658020944,
    1658020962
  ],
  "tags": {
    "addr:city": "Krzeszowice",
    "addr:housenumber": "30",
    "addr:postcode": "32-065",
    "addr:street": "Krakowska",
    "building": "house",
    "name": "Muzeum Ziemi Krzeszowickiej",
    "source": "geoportal.gov.pl:ortofoto",
    "source:addr": "UM w Krzeszowicach",
    "tourism": "museum",
    "wheelchair": "no"
  }
},
{
  "type": "way",
  "id": 153158172,
  "nodes": [
    1658773392,
    1658773397,
    1658773403,
    1658773406,
    3279106652,
    1658773393,
    1658773398,
    3279112178,
    1658773410,
    1658773432,
    1658773424,
    3279112474,
    1658773394,
    3279111806,
    2000518588,
    2000518586,
    3279111802,
    3279112467,
    3279112469,
    3279111803,
    3279112471,
    3279111804,
    3279111805,
    3279112077,
    3279112473,
    3279112036,
    3279111808,
    1658773392
  ],
  "tags": {
    "building": "museum",
    "building:levels": "4",
    "description:hu": "Jan Matejko (1838–93) lengyel festő",
    "historic": "house",
    "name": "Dom Jana Matejki",
    "name:de": "Jan-Matejko-Haus",
    "name:en": "Matejko House",
    "name:hu": "Jan Matejko-ház",
    "name:pl": "Dom Jana Matejki",
    "tourism": "museum",
    "wikidata": "Q998674",
    "wikipedia": "pl:Dom Jana Matejki w Krakowie"
  }
},
{
  "type": "way",
  "id": 153173384,
  "nodes": [
    1658892542,
    1658892625,
    6680055026,
    6514751646,
    6514751647,
    1658892603,
    1658892315,
    1658892324,
    1658892313,
    1658892329,
    1658892271,
    1658892278,
    1658892288,
    1658892284,
    1658892294,
    6514751650,
    1658892595,
    6514751649,
    6514751648,
    1658892575,
    1658892602,
    1658892597,
    1658892604,
    1658892577,
    1658892552,
    1658892542
  ],
  "tags": {
    "addr:city": "Kraków",
    "addr:housenumber": "4h",
    "addr:postcode": "30-702",
    "addr:street": "Lipowa",
    "building": "yes",
    "name": "Muzeum Sztuki Współczesnej w Krakowie MOCAK",
    "name:de": "Museum für Gegenwartskunst in Krakau MOCAK",
    "name:en": "MOCAK Museum of Contemporary Art in Krakow",
    "name:hu": "Krakkói Kortárs Művészeti Múzeum (MOCAK)",
    "name:pl": "Muzeum Sztuki Współczesnej w Krakowie MOCAK",
    "short_name": "MOCAK",
    "tourism": "museum",
    "website": "https://www.mocak.pl/",
    "wheelchair": "yes",
    "wikidata": "Q11787222",
    "wikipedia": "pl:Muzeum Sztuki Współczesnej w Krakowie"
  }
},
{
  "type": "way",
  "id": 218654159,
  "nodes": [
    3620819913,
    3620821407,
    3620821409,
    3620802774,
    3620802773,
    3620819630,
    3620821408,
    3620821412,
    3620819913
  ],
  "tags": {
    "addr:city:simc": "0320526",
    "addr:housenumber": "76A",
    "addr:place": "Iwanowice Dworskie",
    "addr:postcode": "32-095",
    "building": "yes",
    "source:addr": "emuia.gugik.gov.pl",
    "tourism": "museum"
  }
},
{
  "type": "way",
  "id": 231815729,
  "nodes": [
    2401454365,
    2401454369,
    2401454373,
    2401454380,
    2401454454,
    2401454448,
    2401454451,
    2401454453,
    2401454452,
    2401454450,
    2401454441,
    2401454442,
    2401454437,
    2401454436,
    2401454434,
    2401454435,
    2401454433,
    2401454432,
    2401454409,
    2401454413,
    2401454404,
    2401454402,
    2401454384,
    2401454386,
    2401454379,
    2401454378,
    2401454364,
    2401454366,
    2401454361,
    2401454359,
    2401454341,
    2401454345,
    2401454336,
    2401454333,
    2401454306,
    2401454314,
    2401454305,
    2401454304,
    2401454294,
    2401454297,
    2401454291,
    2401454290,
    2401454263,
    2401454265,
    2401454257,
    2401454256,
    2401454250,
    2401454251,
    2401454249,
    2401454248,
    2401454242,
    2401454243,
    2401454240,
    2401454239,
    2401454227,
    2401454230,
    2401454223,
    2401454221,
    2401454157,
    2401454159,
    2401454144,
    2401454142,
    2401454122,
    2401454123,
    2401454121,
    2401454119,
    2401454117,
    2401454115,
    2401454094,
    2401454100,
    2401454091,
    2401454090,
    2401454070,
    2401454072,
    2401454066,
    2401454065,
    2401454053,
    2401454054,
    2401454051,
    2401454050,
    2401454027,
    2401454024,
    2401454018,
    2401454016,
    2401454013,
    2401454010,
    2401454009,
    2401454012,
    2401454011,
    2401454017,
    2401454008,
    2401454005,
    2401454004,
    2401454002,
    2401454001,
    2401453999,
    2401454003,
    2401454000,
    2401454007,
    2401454006,
    2401454365
  ],
  "tags": {
    "addr:city": "Kraków",
    "addr:country": "PL",
    "addr:housenumber": "1",
    "addr:postcode": "30-062",
    "addr:street": "Aleja 3 Maja",
    "building": "hall",
    "name": "Muzeum Narodowe w Krakowie",
    "name:de": "Nationalmuseum in Krakau",
    "name:en": "National Museum in Kraków",
    "name:hu": "Krakkói Nemzeti Múzeum",
    "name:pl": "Muzeum Narodowe w Krakowie",
    "tourism": "museum",
    "wheelchair": "yes",
    "wikidata": "Q195311",
    "wikipedia": "pl:Muzeum Narodowe w Krakowie"
  }
},
{
  "type": "way",
  "id": 233092298,
  "nodes": [
    2414350354,
    2414350445,
    2414350440,
    2414350619,
    2414350626,
    2414350670,
    2414350721,
    2414350716,
    1574123934,
    2414350738,
    2414350723,
    2414350736,
    2414350719,
    2414350605,
    2414350426,
    2414350430,
    2414350419,
    2414350416,
    2414350381,
    6500997624,
    2414350323,
    2414350315,
    2414350361,
    2414350354
  ],
  "tags": {
    "addr:city": "Kraków",
    "addr:country": "PL",
    "addr:housenumber": "1",
    "addr:postcode": "30-111",
    "addr:street": "Aleja Marszałka Ferdynanda Focha",
    "building": "yes",
    "name": "Dawny Hotel \"Cracovia\"",
    "operator": "Muzeum Narodowe w Krakowie",
    "tourism": "museum",
    "wikidata": "Q11710137",
    "wikipedia": "pl:Hotel „Cracovia”"
  }
},
{
  "type": "way",
  "id": 233371578,
  "nodes": [
    3071746356,
    3071745592,
    3071747073,
    3071746354,
    3071745590,
    3071747071,
    3071746353,
    3071745589,
    3071747070,
    3071746352,
    3071745588,
    3071747069,
    3071746351,
    3071745587,
    3071747068,
    3071746350,
    3071745586,
    3071746349,
    3071747067,
    3074942105,
    3071745591,
    3071746355,
    3071746357,
    3071746356
  ],
  "tags": {
    "addr:city": "Kraków",
    "addr:housenumber": "26",
    "addr:postcode": "30-302",
    "addr:street": "Marii Konopnickiej",
    "building": "yes",
    "name": "Muzeum Sztuki i Techniki Japońskiej Manggha",
    "name:hu": "Manggha Japán Művészeti és Technológiai Múzeum",
    "tourism": "museum",
    "website": "http://manggha.pl/",
    "wikidata": "Q572206",
    "wikipedia": "pl:Muzeum Sztuki i Techniki Japońskiej „Manggha”"
  }
},
{
  "type": "way",
  "id": 307773166,
  "nodes": [
    3129788193,
    1679460250,
    2905885404,
    4277346780,
    2905885401,
    4277346772,
    1679460196,
    1679460170,
    2409354640,
    3129551719,
    2409354637,
    2409354636,
    2409354635,
    1692479830,
    1692479826,
    4273750786,
    1692479816,
    1692479812,
    4273750770,
    1169654843,
    1692479796,
    1692479808,
    1692479814,
    3623200008,
    1262680449,
    1262680463,
    1770404410,
    1770404416,
    1262680459,
    1262680451,
    1692479881,
    2360485610,
    3623985953,
    3623985951,
    1692479880,
    1692479879,
    1692479878,
    1692479877,
    1692479875,
    2360485372,
    3129788195,
    1692479866,
    1692479864,
    1692479862,
    1692479861,
    1692479860,
    1692479859,
    1692479857,
    2959413255,
    1692479856,
    1692479855,
    1692479841,
    1692479839,
    3129788194,
    3129788193
  ],
  "tags": {
    "addr:city": "Kraków",
    "addr:postcode": "31-864",
    "addr:street": "Jana Pawła II",
    "email": "info@muzeumlotnictwa.pl",
    "fee": "We-Su 09:00-17:00",
    "name": "Muzeum Lotnictwa Polskiego",
    "name:be": "Музей польскай авіяцыі",
    "name:cs": "Muzeum polského letectví v Krakově",
    "name:de": "Polnisches Luftfahrtmuseum",
    "name:en": "Polish Aviation Museum",
    "name:eo": "Muzeo de la Pola Aviado en Krakovo",
    "name:es": "Museo Polaco de Aviación",
    "name:fi": "Puolan ilmailumuseo",
    "name:fr": "Musée de l'Aviation polonaise",
    "name:hu": "Lengyel Repülési Múzeum",
    "name:it": "Museo dell'aviazione polacca",
    "name:nl": "Pools Luchtvaartmuseum",
    "name:pl": "Muzeum Lotnictwa Polskiego",
    "name:ro": "Muzeul Polonez de Aviație",
    "name:ru": "Музей польской авиации",
    "name:uk": "Музей польської авіації",
    "name:zh": "波兰航空博物馆",
    "opening_hours": "Tu-Su 09:00-17:00",
    "phone": "+48 12 6409960",
    "tourism": "museum",
    "website": "http://muzeumlotnictwa.pl/",
    "wikidata": "Q377904",
    "wikipedia": "pl:Muzeum Lotnictwa Polskiego w Krakowie"
  }
},
{
  "type": "way",
  "id": 310879108,
  "nodes": [
    3163815805,
    3163815586,
    3163815587,
    3163806510,
    3163815805
  ],
  "tags": {
    "building": "yes",
    "name": "Małopolskie Muzeum Pożarnictwa w Alwerni",
    "operator": "OSP Alwernia",
    "tourism": "museum"
  }
},
{
  "type": "way",
  "id": 351463408,
  "nodes": [
    3572448196,
    3572448195,
    3572448193,
    3572448194,
    3572448198,
    5944721846,
    5944721843,
    5944721844,
    5944721845,
    3572448197,
    3572448196
  ],
  "tags": {
    "building": "yes",
    "name": "Muzeum im. Stanisława Fischera w Bochni",
    "tourism": "museum",
    "website": "http://www.muzeum.bochnia.pl/",
    "wikidata": "Q815903",
    "wikipedia": "pl:Bochnia"
  }
},
{
  "type": "way",
  "id": 352824784,
  "nodes": [
    3585916917,
    3585916918,
    3585916919,
    3585916920,
    3585916923,
    3585916922,
    3585916921,
    3585916917
  ],
  "tags": {
    "addr:city": "Dobczyce",
    "addr:housenumber": "1",
    "addr:street": "Podgórska",
    "name": "Skansen Drewnianego Budownictwa Ludowego",
    "tourism": "museum"
  }
},
{
  "type": "way",
  "id": 356668702,
  "nodes": [
    3620825071,
    3620825069,
    3620826194,
    3620825065,
    3620825064,
    3620825068,
    3620826030,
    3620825070,
    3620825071
  ],
  "tags": {
    "addr:city:simc": "0339520",
    "addr:housenumber": "141",
    "addr:place": "Imbramowice",
    "addr:postcode": "32-353",
    "building": "yes",
    "name": "Izba regionalna w Imbramowicach, Biały domek",
    "source:addr": "emuia.gugik.gov.pl",
    "tourism": "museum",
    "website": "http://www.imbramowice.pl;http://www.imbramowice.pl/index.php/galeria/bialy-domek"
  }
},
{
  "type": "way",
  "id": 413347054,
  "nodes": [
    4146767534,
    4146820325,
    4146802833,
    6514826234,
    6514826233,
    6514826232,
    4146768176,
    4146768175,
    4146768333,
    4146768336,
    4146843724,
    4146802838,
    4146843722,
    4146802836,
    4146802835,
    4146768172,
    4146768168,
    4146768159,
    4146848249,
    4146768151,
    4146767985,
    4146767974,
    4146767528,
    4146767269,
    4146767272,
    4146767271,
    4146767276,
    4146767534
  ],
  "tags": {
    "addr:city": "Kraków",
    "addr:street": "Marszałka Józefa Piłsudskiego",
    "email": "czapscy@mnk.pl",
    "fee": "yes",
    "fee:conditional": "no @ Sunday",
    "landuse": "commercial",
    "name": "Muzeum im. Emeryka Hutten-Czapskiego",
    "name:hu": "Emeryk Hutten-Czapski Múzeum",
    "opening_hours": "Tu-Sa 10:00-18:00; Su 10:00-16:00",
    "operator": "Muzeum Narodowe w Krakowie",
    "phone": "+48 12 433 58 40",
    "tourism": "museum",
    "website": "https://mnk.pl/oddzial/muzeum-im-emeryka-hutten-czapskiego",
    "wikidata": "Q1338606",
    "wikipedia": "pl:Muzeum im. Emeryka Hutten-Czapskiego"
  }
},
{
  "type": "way",
  "id": 417001313,
  "nodes": [
    2489574869,
    2489574782,
    2489574963,
    2489575242,
    2489574869
  ],
  "tags": {
    "addr:city": "Bochnia",
    "addr:housenumber": "9",
    "addr:postcode": "32-700",
    "addr:street": "Tadeusza Czackiego",
    "building": "yes",
    "level": "1",
    "name": "Muzeum Motyli Arthropoda",
    "opening_hours": "Mo-Fr 10:00-16:00; Sa-Su 10:00-15:00",
    "operator": "Filip Kobiela",
    "tourism": "museum",
    "website": "https://muzeummotyli.com/"
  }
},
{
  "type": "way",
  "id": 422834685,
  "nodes": [
    4225612449,
    4225612450,
    6241948276,
    4225612458,
    277365673,
    4225612473,
    277365676,
    7148387505,
    4704611739,
    4225612471,
    4882187347,
    5816133753,
    4225612449
  ],
  "tags": {
    "addr:city": "Grodzisko",
    "description": "stara osada młynarska - młyn i tartak",
    "email": "osada@boroniowka.pl",
    "fee": "yes",
    "landuse": "farmyard",
    "name": "Boroniówka",
    "opening_hours": "Sa,Su 10:00-17:00",
    "phone": "+48 12 3801109",
    "tourism": "museum",
    "website": "http://www.boroniowka.pl",
    "wheelchair": "limited"
  }
},
{
  "type": "way",
  "id": 638347163,
  "nodes": [
    6016404631,
    6016408620,
    4630471332,
    4630471331,
    4630471330,
    4630471329,
    4630471328,
    4546111145,
    4546111163,
    4546111164,
    6016404632,
    6016404633,
    6016404634,
    6016404631
  ],
  "tags": {
    "addr:city": "Kraków",
    "addr:housenumber": "26a",
    "addr:street": "Osiedle 2. Pułku Lotniczego",
    "name": "Hangar Czyżyny",
    "tourism": "museum"
  }
},
{
  "type": "way",
  "id": 638349014,
  "nodes": [
    2978715421,
    2978720917,
    2978720905,
    6016422954,
    6016422955,
    2978721047,
    2979062646,
    1649730843,
    1649730701,
    2979079781,
    2979062497,
    2979055698,
    2979057560,
    2978720810,
    6649526774,
    2978721150,
    2979079854,
    2979078698,
    2978721452,
    2144930431,
    470205533,
    2978715421
  ],
  "tags": {
    "addr:city": "Kraków",
    "addr:housenumber": "15",
    "addr:street": "Świętego Wawrzyńca",
    "name": "Muzeum Inżynierii Miejskiej",
    "tourism": "museum"
  }
},
{
  "type": "way",
  "id": 764582801,
  "nodes": [
    7142815527,
    7142815528,
    7142815529,
    7142815530,
    7142815531,
    7142815532,
    7142815533,
    7142815534,
    7142815535,
    7142815536,
    7142815527
  ],
  "tags": {
    "building": "yes",
    "museum": "history",
    "name": "Osada Podegrodzie",
    "tourism": "museum"
  }
},
{
  "type": "relation",
  "id": 1765210,
  "members": [
    {
      "type": "way",
      "ref": 131342427,
      "role": "outer"
    },
    {
      "type": "way",
      "ref": 341533598,
      "role": "inner"
    }
  ],
  "tags": {
    "addr:city": "Kraków",
    "addr:country": "PL",
    "addr:district": "Stare Miasto",
    "addr:housenumber": "12",
    "addr:postcode": "31-141",
    "addr:street": "Wita Stwosza",
    "addr:subdistrict": "Warszawskie",
    "building": "yes",
    "description:hu": "II. világháborús ellenállási múzeum",
    "name": "Muzeum Armii Krajowej",
    "name:hu": "Lengyel Honi Hadsereg Múzeuma",
    "official_name": "Muzeum Armii Krajowej im. Gen. Emila Fieldorfa \"Nila\"",
    "opening_hours": "Tu-Su 11:00-18:00",
    "phone": "+48 12 4100770",
    "tourism": "museum",
    "type": "multipolygon",
    "website": "http://www.muzeum-ak.pl/"
  }
},
{
  "type": "relation",
  "id": 1863002,
  "members": [
    {
      "type": "way",
      "ref": 138355832,
      "role": "outer"
    },
    {
      "type": "way",
      "ref": 138355838,
      "role": "inner"
    },
    {
      "type": "way",
      "ref": 138355813,
      "role": "inner"
    }
  ],
  "tags": {
    "building": "yes",
    "building:levels": "4",
    "fee": "yes",
    "fee:conditional": "no @ Sunday",
    "fee:conditional:note": "Zdarzają się wystawy w salach wynajmowane od muzeum, nie organizowane przez muzeum które nie są objęte darmowym wstępem",
    "name": "Muzeum Archeologiczne",
    "name:de": "Archäologisches Museum",
    "name:en": "Archeological Museum",
    "name:es": "Museo Arqueológico",
    "name:hu": "Régészeti Múzeum",
    "name:pl": "Muzeum Archeologiczne",
    "opening_hours": "Mo-Su 10:00-16:00",
    "tourism": "museum",
    "type": "multipolygon",
    "visiting_time": "1h",
    "website": "http://www.ma.krakow.pl/",
    "wheelchair": "no",
    "wikidata": "Q3329434",
    "wikipedia": "pl:Muzeum Archeologiczne w Krakowie"
  }
},
{
  "type": "relation",
  "id": 3953614,
  "members": [
    {
      "type": "way",
      "ref": 297220653,
      "role": "outer"
    },
    {
      "type": "way",
      "ref": 138025107,
      "role": "inner"
    }
  ],
  "tags": {
    "building": "yes",
    "building:material": "brick",
    "castle_type": "fortress",
    "height": "10",
    "heritage": "2",
    "heritage:operator": "nid",
    "historic": "castle",
    "name": "Barbakan",
    "name:de": "Barbican",
    "name:en": "Barbican",
    "name:es": "Barbacana",
    "name:hu": "Barbakán",
    "name:pl": "Barbakan",
    "opening_hours": "Mo-Su 10:30-18:00",
    "ref:nid": "A-8",
    "tourism": "museum",
    "type": "multipolygon",
    "wheelchair": "limited",
    "wikidata": "Q807309",
    "wikipedia": "pl:Barbakan w Krakowie"
  }
},
{
  "type": "relation",
  "id": 5245185,
  "members": [
    {
      "type": "way",
      "ref": 148464900,
      "role": ""
    },
    {
      "type": "way",
      "ref": 351463408,
      "role": ""
    },
    {
      "type": "way",
      "ref": 241271391,
      "role": ""
    },
    {
      "type": "relation",
      "ref": 2119457,
      "role": ""
    }
  ],
  "tags": {
    "building": "public",
    "name": "Muzea Szlak Solny",
    "route": "hiking",
    "tourism": "museum",
    "type": "route"
  }
},
{
  "type": "relation",
  "id": 10692372,
  "members": [
    {
      "type": "way",
      "ref": 307773166,
      "role": ""
    },
    {
      "type": "way",
      "ref": 155555106,
      "role": ""
    },
    {
      "type": "way",
      "ref": 101318622,
      "role": ""
    },
    {
      "type": "way",
      "ref": 101318649,
      "role": ""
    },
    {
      "type": "way",
      "ref": 60681466,
      "role": ""
    },
    {
      "type": "way",
      "ref": 60681305,
      "role": ""
    },
    {
      "type": "way",
      "ref": 60681344,
      "role": ""
    },
    {
      "type": "way",
      "ref": 157019237,
      "role": ""
    },
    {
      "type": "way",
      "ref": 101318630,
      "role": ""
    },
    {
      "type": "way",
      "ref": 101318631,
      "role": ""
    },
    {
      "type": "way",
      "ref": 770851415,
      "role": ""
    },
    {
      "type": "way",
      "ref": 286909392,
      "role": ""
    },
    {
      "type": "way",
      "ref": 286909389,
      "role": ""
    },
    {
      "type": "node",
      "ref": 3129698493,
      "role": ""
    },
    {
      "type": "node",
      "ref": 3129551719,
      "role": ""
    },
    {
      "type": "node",
      "ref": 5819273747,
      "role": ""
    },
    {
      "type": "node",
      "ref": 5819276657,
      "role": ""
    },
    {
      "type": "node",
      "ref": 5819276653,
      "role": ""
    },
    {
      "type": "node",
      "ref": 5819273737,
      "role": ""
    },
    {
      "type": "node",
      "ref": 5819273736,
      "role": ""
    },
    {
      "type": "node",
      "ref": 5819273748,
      "role": ""
    },
    {
      "type": "node",
      "ref": 5819273740,
      "role": ""
    },
    {
      "type": "node",
      "ref": 5819273750,
      "role": ""
    },
    {
      "type": "node",
      "ref": 4277506756,
      "role": ""
    },
    {
      "type": "node",
      "ref": 4277506749,
      "role": ""
    },
    {
      "type": "way",
      "ref": 356923393,
      "role": ""
    },
    {
      "type": "node",
      "ref": 3129649001,
      "role": ""
    },
    {
      "type": "node",
      "ref": 5819276668,
      "role": ""
    },
    {
      "type": "node",
      "ref": 5819273735,
      "role": ""
    },
    {
      "type": "node",
      "ref": 3129649011,
      "role": ""
    },
    {
      "type": "node",
      "ref": 3129649017,
      "role": ""
    },
    {
      "type": "node",
      "ref": 3129649015,
      "role": ""
    },
    {
      "type": "node",
      "ref": 5819273738,
      "role": ""
    },
    {
      "type": "node",
      "ref": 3129649018,
      "role": ""
    },
    {
      "type": "node",
      "ref": 5819276654,
      "role": ""
    },
    {
      "type": "node",
      "ref": 5819276656,
      "role": ""
    },
    {
      "type": "node",
      "ref": 5819276662,
      "role": ""
    },
    {
      "type": "node",
      "ref": 3129649022,
      "role": ""
    },
    {
      "type": "node",
      "ref": 5819276660,
      "role": ""
    },
    {
      "type": "node",
      "ref": 5819276663,
      "role": ""
    },
    {
      "type": "node",
      "ref": 3129649028,
      "role": ""
    },
    {
      "type": "node",
      "ref": 5819276669,
      "role": ""
    },
    {
      "type": "node",
      "ref": 5819273739,
      "role": ""
    },
    {
      "type": "node",
      "ref": 3129649021,
      "role": ""
    },
    {
      "type": "node",
      "ref": 5819273745,
      "role": ""
    },
    {
      "type": "node",
      "ref": 3129649026,
      "role": ""
    },
    {
      "type": "node",
      "ref": 3129649135,
      "role": ""
    },
    {
      "type": "node",
      "ref": 3129649137,
      "role": ""
    },
    {
      "type": "node",
      "ref": 3129649130,
      "role": ""
    },
    {
      "type": "node",
      "ref": 5819273751,
      "role": ""
    },
    {
      "type": "node",
      "ref": 3129649140,
      "role": ""
    },
    {
      "type": "node",
      "ref": 3129649144,
      "role": ""
    },
    {
      "type": "node",
      "ref": 3129649141,
      "role": ""
    },
    {
      "type": "node",
      "ref": 3129649143,
      "role": ""
    },
    {
      "type": "node",
      "ref": 3129649131,
      "role": ""
    },
    {
      "type": "node",
      "ref": 5819276661,
      "role": ""
    },
    {
      "type": "node",
      "ref": 3129649134,
      "role": ""
    },
    {
      "type": "node",
      "ref": 3129649136,
      "role": ""
    },
    {
      "type": "node",
      "ref": 5819276665,
      "role": ""
    },
    {
      "type": "node",
      "ref": 3129649023,
      "role": ""
    },
    {
      "type": "node",
      "ref": 3129649129,
      "role": ""
    },
    {
      "type": "node",
      "ref": 3129649024,
      "role": ""
    },
    {
      "type": "node",
      "ref": 3129649133,
      "role": ""
    },
    {
      "type": "node",
      "ref": 5819276667,
      "role": ""
    },
    {
      "type": "node",
      "ref": 3129649020,
      "role": ""
    },
    {
      "type": "node",
      "ref": 5819276671,
      "role": ""
    },
    {
      "type": "node",
      "ref": 3623317597,
      "role": ""
    },
    {
      "type": "node",
      "ref": 3129649014,
      "role": ""
    },
    {
      "type": "node",
      "ref": 5819276655,
      "role": ""
    },
    {
      "type": "node",
      "ref": 3623241170,
      "role": ""
    },
    {
      "type": "node",
      "ref": 3623241169,
      "role": ""
    },
    {
      "type": "node",
      "ref": 3129649016,
      "role": ""
    },
    {
      "type": "node",
      "ref": 3138384505,
      "role": ""
    },
    {
      "type": "node",
      "ref": 3129649002,
      "role": ""
    },
    {
      "type": "node",
      "ref": 3138384504,
      "role": ""
    },
    {
      "type": "node",
      "ref": 3138384507,
      "role": ""
    },
    {
      "type": "node",
      "ref": 5819273752,
      "role": ""
    },
    {
      "type": "node",
      "ref": 3138384506,
      "role": ""
    },
    {
      "type": "node",
      "ref": 3138384508,
      "role": ""
    },
    {
      "type": "node",
      "ref": 3138384509,
      "role": ""
    },
    {
      "type": "node",
      "ref": 3138384511,
      "role": ""
    },
    {
      "type": "node",
      "ref": 3138384513,
      "role": ""
    },
    {
      "type": "node",
      "ref": 3138384512,
      "role": ""
    },
    {
      "type": "node",
      "ref": 3138384510,
      "role": ""
    },
    {
      "type": "node",
      "ref": 3129649149,
      "role": ""
    },
    {
      "type": "node",
      "ref": 3129649147,
      "role": ""
    },
    {
      "type": "node",
      "ref": 3129649132,
      "role": ""
    },
    {
      "type": "node",
      "ref": 3129649142,
      "role": ""
    },
    {
      "type": "node",
      "ref": 3129649148,
      "role": ""
    },
    {
      "type": "node",
      "ref": 3129649025,
      "role": ""
    },
    {
      "type": "node",
      "ref": 3129649158,
      "role": ""
    },
    {
      "type": "node",
      "ref": 3129649146,
      "role": ""
    },
    {
      "type": "node",
      "ref": 3129649153,
      "role": ""
    },
    {
      "type": "node",
      "ref": 3129649139,
      "role": ""
    },
    {
      "type": "node",
      "ref": 3129649145,
      "role": ""
    },
    {
      "type": "node",
      "ref": 5819273743,
      "role": ""
    },
    {
      "type": "node",
      "ref": 5819276672,
      "role": ""
    },
    {
      "type": "node",
      "ref": 3129649167,
      "role": ""
    },
    {
      "type": "node",
      "ref": 3623958957,
      "role": ""
    },
    {
      "type": "node",
      "ref": 3129649164,
      "role": ""
    },
    {
      "type": "node",
      "ref": 3129649162,
      "role": ""
    },
    {
      "type": "node",
      "ref": 3129649166,
      "role": ""
    },
    {
      "type": "node",
      "ref": 3129649161,
      "role": ""
    },
    {
      "type": "node",
      "ref": 3129649156,
      "role": ""
    },
    {
      "type": "node",
      "ref": 3129649159,
      "role": ""
    },
    {
      "type": "node",
      "ref": 3129649154,
      "role": ""
    },
    {
      "type": "node",
      "ref": 3129649152,
      "role": ""
    },
    {
      "type": "node",
      "ref": 3129649177,
      "role": ""
    },
    {
      "type": "node",
      "ref": 3129649181,
      "role": ""
    },
    {
      "type": "node",
      "ref": 3129649176,
      "role": ""
    },
    {
      "type": "node",
      "ref": 3129649179,
      "role": ""
    },
    {
      "type": "node",
      "ref": 3129649180,
      "role": ""
    },
    {
      "type": "node",
      "ref": 3129649178,
      "role": ""
    },
    {
      "type": "node",
      "ref": 3129649171,
      "role": ""
    },
    {
      "type": "node",
      "ref": 3129649172,
      "role": ""
    },
    {
      "type": "node",
      "ref": 3129649170,
      "role": ""
    },
    {
      "type": "node",
      "ref": 3129649173,
      "role": ""
    },
    {
      "type": "node",
      "ref": 3129649168,
      "role": ""
    },
    {
      "type": "node",
      "ref": 3129649157,
      "role": ""
    },
    {
      "type": "node",
      "ref": 3129649187,
      "role": ""
    },
    {
      "type": "node",
      "ref": 3623241182,
      "role": ""
    },
    {
      "type": "node",
      "ref": 3623241181,
      "role": ""
    },
    {
      "type": "node",
      "ref": 3129649185,
      "role": ""
    },
    {
      "type": "node",
      "ref": 3129649186,
      "role": ""
    },
    {
      "type": "node",
      "ref": 3129649188,
      "role": ""
    },
    {
      "type": "node",
      "ref": 3623241179,
      "role": ""
    },
    {
      "type": "node",
      "ref": 3129649184,
      "role": ""
    },
    {
      "type": "node",
      "ref": 3623241177,
      "role": ""
    },
    {
      "type": "node",
      "ref": 5819276670,
      "role": ""
    },
    {
      "type": "node",
      "ref": 3129649174,
      "role": ""
    },
    {
      "type": "node",
      "ref": 3129649163,
      "role": ""
    },
    {
      "type": "node",
      "ref": 3623241174,
      "role": ""
    },
    {
      "type": "node",
      "ref": 3129649155,
      "role": ""
    },
    {
      "type": "node",
      "ref": 3129649151,
      "role": ""
    },
    {
      "type": "node",
      "ref": 5819276664,
      "role": ""
    },
    {
      "type": "way",
      "ref": 307839433,
      "role": ""
    },
    {
      "type": "node",
      "ref": 5819273742,
      "role": ""
    },
    {
      "type": "node",
      "ref": 3129649183,
      "role": ""
    },
    {
      "type": "node",
      "ref": 3623241178,
      "role": ""
    },
    {
      "type": "node",
      "ref": 3129649175,
      "role": ""
    },
    {
      "type": "node",
      "ref": 3129649169,
      "role": ""
    },
    {
      "type": "node",
      "ref": 3129649165,
      "role": ""
    },
    {
      "type": "node",
      "ref": 3129649160,
      "role": ""
    },
    {
      "type": "node",
      "ref": 3129649013,
      "role": ""
    },
    {
      "type": "way",
      "ref": 427486040,
      "role": ""
    },
    {
      "type": "node",
      "ref": 3623958903,
      "role": ""
    },
    {
      "type": "node",
      "ref": 1692479814,
      "role": ""
    },
    {
      "type": "way",
      "ref": 286909395,
      "role": ""
    },
    {
      "type": "node",
      "ref": 2905885405,
      "role": ""
    },
    {
      "type": "node",
      "ref": 3129649012,
      "role": ""
    },
    {
      "type": "node",
      "ref": 3129649010,
      "role": ""
    },
    {
      "type": "node",
      "ref": 3129649009,
      "role": ""
    },
    {
      "type": "node",
      "ref": 3129649008,
      "role": ""
    },
    {
      "type": "node",
      "ref": 3129649005,
      "role": ""
    },
    {
      "type": "node",
      "ref": 2409354635,
      "role": ""
    },
    {
      "type": "node",
      "ref": 4277346784,
      "role": ""
    },
    {
      "type": "node",
      "ref": 5819276666,
      "role": ""
    },
    {
      "type": "node",
      "ref": 5819273741,
      "role": ""
    },
    {
      "type": "node",
      "ref": 3623220495,
      "role": ""
    },
    {
      "type": "way",
      "ref": 357002039,
      "role": ""
    },
    {
      "type": "node",
      "ref": 5819276659,
      "role": ""
    },
    {
      "type": "way",
      "ref": 428663034,
      "role": ""
    },
    {
      "type": "node",
      "ref": 4277508445,
      "role": ""
    },
    {
      "type": "node",
      "ref": 2360485610,
      "role": ""
    },
    {
      "type": "node",
      "ref": 1692479879,
      "role": ""
    },
    {
      "type": "way",
      "ref": 351534282,
      "role": ""
    },
    {
      "type": "node",
      "ref": 4277508435,
      "role": ""
    },
    {
      "type": "way",
      "ref": 356922304,
      "role": ""
    },
    {
      "type": "node",
      "ref": 3129649003,
      "role": ""
    },
    {
      "type": "node",
      "ref": 3623241168,
      "role": ""
    },
    {
      "type": "way",
      "ref": 308575723,
      "role": ""
    },
    {
      "type": "node",
      "ref": 3623241171,
      "role": ""
    },
    {
      "type": "way",
      "ref": 356937487,
      "role": ""
    },
    {
      "type": "node",
      "ref": 2360485372,
      "role": ""
    },
    {
      "type": "node",
      "ref": 2959413255,
      "role": ""
    },
    {
      "type": "node",
      "ref": 1692479816,
      "role": ""
    },
    {
      "type": "way",
      "ref": 157019233,
      "role": ""
    },
    {
      "type": "way",
      "ref": 356922303,
      "role": ""
    },
    {
      "type": "way",
      "ref": 428662787,
      "role": ""
    },
    {
      "type": "way",
      "ref": 428662785,
      "role": ""
    },
    {
      "type": "way",
      "ref": 428662786,
      "role": ""
    }
  ],
  "tags": {
    "name": "Muzeum Lotnictwa Polskiego",
    "name:be": "Музей польскай авіяцыі",
    "name:cs": "Muzeum polského letectví v Krakově",
    "name:de": "Polnisches Luftfahrtmuseum",
    "name:en": "Polish Aviation Museum",
    "name:eo": "Muzeo de la Pola Aviado en Krakovo",
    "name:es": "Museo Polaco de Aviación",
    "name:fi": "Puolan ilmailumuseo",
    "name:fr": "Musée de l'Aviation polonaise",
    "name:hu": "Lengyel Repülési Múzeum",
    "name:it": "Museo dell'aviazione polacca",
    "name:nl": "Pools Luchtvaartmuseum",
    "name:pl": "Muzeum Lotnictwa Polskiego",
    "name:ro": "Muzeul Polonez de Aviație",
    "name:ru": "Музей польской авиации",
    "name:uk": "Музей польської авіації",
    "name:zh": "波兰航空博物馆",
    "tourism": "museum",
    "type": "site"
  }
},
{
  "type": "node",
  "id": 3585916917,
  "lat": 49.8777361,
  "lon": 20.0862022
},
{
  "type": "node",
  "id": 3585916918,
  "lat": 49.8773696,
  "lon": 20.0856791
},
{
  "type": "node",
  "id": 3585916919,
  "lat": 49.8773109,
  "lon": 20.0854753
},
{
  "type": "node",
  "id": 3585916920,
  "lat": 49.8771588,
  "lon": 20.0856496
},
{
  "type": "node",
  "id": 3585916921,
  "lat": 49.8775010,
  "lon": 20.0866957
},
{
  "type": "node",
  "id": 3585916922,
  "lat": 49.8772711,
  "lon": 20.0861995
},
{
  "type": "node",
  "id": 3585916923,
  "lat": 49.8771743,
  "lon": 20.0859098
},
{
  "type": "node",
  "id": 3163806510,
  "lat": 50.0697974,
  "lon": 19.5372381
},
{
  "type": "node",
  "id": 3163815586,
  "lat": 50.0695170,
  "lon": 19.5370912
},
{
  "type": "node",
  "id": 3163815587,
  "lat": 50.0695230,
  "lon": 19.5372639
},
{
  "type": "node",
  "id": 3163815805,
  "lat": 50.0697915,
  "lon": 19.5370683
},
{
  "type": "node",
  "id": 1658020940,
  "lat": 50.1347106,
  "lon": 19.6380829
},
{
  "type": "node",
  "id": 1658020944,
  "lat": 50.1348136,
  "lon": 19.6381691
},
{
  "type": "node",
  "id": 1658020955,
  "lat": 50.1348036,
  "lon": 19.6378126
},
{
  "type": "node",
  "id": 1658020962,
  "lat": 50.1349066,
  "lon": 19.6378988
},
{
  "type": "node",
  "id": 2457167139,
  "lat": 50.1347487,
  "lon": 19.6379721
},
{
  "type": "node",
  "id": 2457223957,
  "lat": 50.1347403,
  "lon": 19.6379966
},
{
  "type": "node",
  "id": 2457223961,
  "lat": 50.1347611,
  "lon": 19.6379361
},
{
  "type": "node",
  "id": 2414350619,
  "lat": 50.0585281,
  "lon": 19.9229209
},
{
  "type": "node",
  "id": 1298812205,
  "lat": 49.9839411,
  "lon": 20.0600580
},
{
  "type": "node",
  "id": 3435179690,
  "lat": 49.9839425,
  "lon": 20.0595125
},
{
  "type": "node",
  "id": 3435180924,
  "lat": 49.9837634,
  "lon": 20.0596973
},
{
  "type": "node",
  "id": 3435180925,
  "lat": 49.9837690,
  "lon": 20.0597888
},
{
  "type": "node",
  "id": 3435180927,
  "lat": 49.9837749,
  "lon": 20.0596991
},
{
  "type": "node",
  "id": 3435180929,
  "lat": 49.9837878,
  "lon": 20.0596812
},
{
  "type": "node",
  "id": 3435180931,
  "lat": 49.9837984,
  "lon": 20.0598346
},
{
  "type": "node",
  "id": 3435180933,
  "lat": 49.9838087,
  "lon": 20.0596841
},
{
  "type": "node",
  "id": 3435180938,
  "lat": 49.9839001,
  "lon": 20.0595061
},
{
  "type": "node",
  "id": 3435189046,
  "lat": 49.9837588,
  "lon": 20.0598265
},
{
  "type": "node",
  "id": 3435189049,
  "lat": 49.9837742,
  "lon": 20.0598071
},
{
  "type": "node",
  "id": 3435189052,
  "lat": 49.9837887,
  "lon": 20.0596642
},
{
  "type": "node",
  "id": 3435189055,
  "lat": 49.9837998,
  "lon": 20.0598103
},
{
  "type": "node",
  "id": 3435189056,
  "lat": 49.9838067,
  "lon": 20.0594926
},
{
  "type": "node",
  "id": 3435189057,
  "lat": 49.9838140,
  "lon": 20.0598367
},
{
  "type": "node",
  "id": 3435192427,
  "lat": 49.9837515,
  "lon": 20.0598099
},
{
  "type": "node",
  "id": 3435192429,
  "lat": 49.9837656,
  "lon": 20.0596607
},
{
  "type": "node",
  "id": 3435192434,
  "lat": 49.9839818,
  "lon": 20.0598281
},
{
  "type": "node",
  "id": 3435192436,
  "lat": 49.9839908,
  "lon": 20.0600736
},
{
  "type": "node",
  "id": 3435192442,
  "lat": 49.9840068,
  "lon": 20.0600649
},
{
  "type": "node",
  "id": 3435192445,
  "lat": 49.9840138,
  "lon": 20.0594485
},
{
  "type": "node",
  "id": 3435192495,
  "lat": 49.9838185,
  "lon": 20.0595165
},
{
  "type": "node",
  "id": 3435192497,
  "lat": 49.9838349,
  "lon": 20.0594961
},
{
  "type": "node",
  "id": 3435192508,
  "lat": 49.9839059,
  "lon": 20.0593285
},
{
  "type": "node",
  "id": 3435192509,
  "lat": 49.9839141,
  "lon": 20.0598308
},
{
  "type": "node",
  "id": 3435192511,
  "lat": 49.9839242,
  "lon": 20.0595099
},
{
  "type": "node",
  "id": 3435192512,
  "lat": 49.9839282,
  "lon": 20.0594363
},
{
  "type": "node",
  "id": 3435192750,
  "lat": 49.9838154,
  "lon": 20.0598129
},
{
  "type": "node",
  "id": 3435192751,
  "lat": 49.9838213,
  "lon": 20.0594712
},
{
  "type": "node",
  "id": 3435192767,
  "lat": 49.9840653,
  "lon": 20.0593422
},
{
  "type": "node",
  "id": 3435192771,
  "lat": 49.9841202,
  "lon": 20.0596062
},
{
  "type": "node",
  "id": 3435193597,
  "lat": 49.9841039,
  "lon": 20.0598077
},
{
  "type": "node",
  "id": 3435193598,
  "lat": 49.9841196,
  "lon": 20.0597120
},
{
  "type": "node",
  "id": 3435193599,
  "lat": 49.9841207,
  "lon": 20.0596871
},
{
  "type": "node",
  "id": 4319513775,
  "lat": 49.9839262,
  "lon": 20.0594733
},
{
  "type": "node",
  "id": 4319513776,
  "lat": 49.9839013,
  "lon": 20.0594679
},
{
  "type": "node",
  "id": 4319513786,
  "lat": 49.9839168,
  "lon": 20.0593294
},
{
  "type": "node",
  "id": 3071745586,
  "lat": 50.0506410,
  "lon": 19.9314717
},
{
  "type": "node",
  "id": 3071745587,
  "lat": 50.0506953,
  "lon": 19.9314518
},
{
  "type": "node",
  "id": 3071745588,
  "lat": 50.0507491,
  "lon": 19.9314513
},
{
  "type": "node",
  "id": 3071745589,
  "lat": 50.0508600,
  "lon": 19.9314984
},
{
  "type": "node",
  "id": 3071745590,
  "lat": 50.0509135,
  "lon": 19.9315279
},
{
  "type": "node",
  "id": 3071745591,
  "lat": 50.0509758,
  "lon": 19.9318650
},
{
  "type": "node",
  "id": 3071745592,
  "lat": 50.0510332,
  "lon": 19.9315080
},
{
  "type": "node",
  "id": 3071746349,
  "lat": 50.0504807,
  "lon": 19.9315733
},
{
  "type": "node",
  "id": 3071746350,
  "lat": 50.0506599,
  "lon": 19.9314624
},
{
  "type": "node",
  "id": 3071746351,
  "lat": 50.0507130,
  "lon": 19.9314496
},
{
  "type": "node",
  "id": 3071746352,
  "lat": 50.0507668,
  "lon": 19.9314549
},
{
  "type": "node",
  "id": 3071746353,
  "lat": 50.0508667,
  "lon": 19.9315234
},
{
  "type": "node",
  "id": 3071746354,
  "lat": 50.0509636,
  "lon": 19.9315275
},
{
  "type": "node",
  "id": 3071746355,
  "lat": 50.0509866,
  "lon": 19.9319034
},
{
  "type": "node",
  "id": 3071746356,
  "lat": 50.0511884,
  "lon": 19.9314127
},
{
  "type": "node",
  "id": 3071746357,
  "lat": 50.0512689,
  "lon": 19.9317316
},
{
  "type": "node",
  "id": 3071747067,
  "lat": 50.0505250,
  "lon": 19.9316862
},
{
  "type": "node",
  "id": 3071747068,
  "lat": 50.0506775,
  "lon": 19.9314561
},
{
  "type": "node",
  "id": 3071747069,
  "lat": 50.0507309,
  "lon": 19.9314493
},
{
  "type": "node",
  "id": 3071747070,
  "lat": 50.0507779,
  "lon": 19.9314586
},
{
  "type": "node",
  "id": 3071747071,
  "lat": 50.0509057,
  "lon": 19.9314994
},
{
  "type": "node",
  "id": 3071747073,
  "lat": 50.0509972,
  "lon": 19.9315202
},
{
  "type": "node",
  "id": 3074942105,
  "lat": 50.0505277,
  "lon": 19.9316873
},
{
  "type": "node",
  "id": 1574123934,
  "lat": 50.0588505,
  "lon": 19.9247973
},
{
  "type": "node",
  "id": 2414350315,
  "lat": 50.0581132,
  "lon": 19.9232546
},
{
  "type": "node",
  "id": 2414350323,
  "lat": 50.0581281,
  "lon": 19.9233560
},
{
  "type": "node",
  "id": 2414350354,
  "lat": 50.0581618,
  "lon": 19.9231627
},
{
  "type": "node",
  "id": 2414350361,
  "lat": 50.0581725,
  "lon": 19.9232347
},
{
  "type": "node",
  "id": 2414350381,
  "lat": 50.0582032,
  "lon": 19.9238697
},
{
  "type": "node",
  "id": 2414350416,
  "lat": 50.0583653,
  "lon": 19.9238142
},
{
  "type": "node",
  "id": 2414350419,
  "lat": 50.0583685,
  "lon": 19.9238390
},
{
  "type": "node",
  "id": 2414350426,
  "lat": 50.0583811,
  "lon": 19.9238088
},
{
  "type": "node",
  "id": 2414350430,
  "lat": 50.0583848,
  "lon": 19.9238343
},
{
  "type": "node",
  "id": 2414350440,
  "lat": 50.0584004,
  "lon": 19.9229661
},
{
  "type": "node",
  "id": 2414350445,
  "lat": 50.0584091,
  "lon": 19.9230340
},
{
  "type": "node",
  "id": 2414350605,
  "lat": 50.0585085,
  "lon": 19.9237654
},
{
  "type": "node",
  "id": 2414350626,
  "lat": 50.0585402,
  "lon": 19.9230139
},
{
  "type": "node",
  "id": 2414350670,
  "lat": 50.0586036,
  "lon": 19.9229860
},
{
  "type": "node",
  "id": 2414350716,
  "lat": 50.0586899,
  "lon": 19.9236950
},
{
  "type": "node",
  "id": 2414350719,
  "lat": 50.0586837,
  "lon": 19.9249869
},
{
  "type": "node",
  "id": 2414350721,
  "lat": 50.0587076,
  "lon": 19.9236905
},
{
  "type": "node",
  "id": 2414350723,
  "lat": 50.0588195,
  "lon": 19.9248620
},
{
  "type": "node",
  "id": 2414350736,
  "lat": 50.0588307,
  "lon": 19.9249346
},
{
  "type": "node",
  "id": 2414350738,
  "lat": 50.0588583,
  "lon": 19.9248507
},
{
  "type": "node",
  "id": 6500997624,
  "lat": 50.0581934,
  "lon": 19.9238027
},
{
  "type": "node",
  "id": 2998637681,
  "lat": 50.0577274,
  "lon": 19.9357953
},
{
  "type": "node",
  "id": 2998640028,
  "lat": 50.0573955,
  "lon": 19.9358503
},
{
  "type": "node",
  "id": 2998640030,
  "lat": 50.0573966,
  "lon": 19.9358550
},
{
  "type": "node",
  "id": 2998640172,
  "lat": 50.0575998,
  "lon": 19.9360350
},
{
  "type": "node",
  "id": 2998640186,
  "lat": 50.0577593,
  "lon": 19.9358369
},
{
  "type": "node",
  "id": 2998640189,
  "lat": 50.0577662,
  "lon": 19.9359146
},
{
  "type": "node",
  "id": 2998640190,
  "lat": 50.0578562,
  "lon": 19.9358965
},
{
  "type": "node",
  "id": 2998640191,
  "lat": 50.0578837,
  "lon": 19.9359185
},
{
  "type": "node",
  "id": 2998640192,
  "lat": 50.0578896,
  "lon": 19.9360065
},
{
  "type": "node",
  "id": 2998640193,
  "lat": 50.0578925,
  "lon": 19.9360062
},
{
  "type": "node",
  "id": 2998640370,
  "lat": 50.0573652,
  "lon": 19.9358552
},
{
  "type": "node",
  "id": 2998640371,
  "lat": 50.0573693,
  "lon": 19.9359040
},
{
  "type": "node",
  "id": 2998640373,
  "lat": 50.0573719,
  "lon": 19.9359047
},
{
  "type": "node",
  "id": 2998640962,
  "lat": 50.0576740,
  "lon": 19.9360227
},
{
  "type": "node",
  "id": 2998640963,
  "lat": 50.0576742,
  "lon": 19.9360252
},
{
  "type": "node",
  "id": 2998640966,
  "lat": 50.0576778,
  "lon": 19.9360223
},
{
  "type": "node",
  "id": 2998640967,
  "lat": 50.0576779,
  "lon": 19.9360245
},
{
  "type": "node",
  "id": 2998640971,
  "lat": 50.0576856,
  "lon": 19.9360210
},
{
  "type": "node",
  "id": 2998640972,
  "lat": 50.0577271,
  "lon": 19.9357999
},
{
  "type": "node",
  "id": 2998640975,
  "lat": 50.0577584,
  "lon": 19.9357875
},
{
  "type": "node",
  "id": 2998640976,
  "lat": 50.0577626,
  "lon": 19.9358363
},
{
  "type": "node",
  "id": 2998641054,
  "lat": 50.0578568,
  "lon": 19.9358993
},
{
  "type": "node",
  "id": 2998641057,
  "lat": 50.0578847,
  "lon": 19.9358919
},
{
  "type": "node",
  "id": 2998641058,
  "lat": 50.0578867,
  "lon": 19.9359181
},
{
  "type": "node",
  "id": 2998641061,
  "lat": 50.0578914,
  "lon": 19.9360330
},
{
  "type": "node",
  "id": 2998641064,
  "lat": 50.0578943,
  "lon": 19.9360326
},
{
  "type": "node",
  "id": 3086298995,
  "lat": 50.0576744,
  "lon": 19.9358087
},
{
  "type": "node",
  "id": 3086298996,
  "lat": 50.0576792,
  "lon": 19.9358079
},
{
  "type": "node",
  "id": 3086300544,
  "lat": 50.0578487,
  "lon": 19.9359007
},
{
  "type": "node",
  "id": 4146767269,
  "lat": 50.0592522,
  "lon": 19.9297924
},
{
  "type": "node",
  "id": 4146767271,
  "lat": 50.0592632,
  "lon": 19.9298658
},
{
  "type": "node",
  "id": 4146767272,
  "lat": 50.0592660,
  "lon": 19.9298645
},
{
  "type": "node",
  "id": 4146767276,
  "lat": 50.0592734,
  "lon": 19.9299340
},
{
  "type": "node",
  "id": 4146767528,
  "lat": 50.0593984,
  "lon": 19.9297311
},
{
  "type": "node",
  "id": 4146767534,
  "lat": 50.0594283,
  "lon": 19.9298982
},
{
  "type": "node",
  "id": 4146802833,
  "lat": 50.0596833,
  "lon": 19.9305934
},
{
  "type": "node",
  "id": 4146820325,
  "lat": 50.0596653,
  "lon": 19.9299602
},
{
  "type": "node",
  "id": 470205533,
  "lat": 50.0498201,
  "lon": 19.9470909
},
{
  "type": "node",
  "id": 1649730701,
  "lat": 50.0491303,
  "lon": 19.9466415
},
{
  "type": "node",
  "id": 1649730843,
  "lat": 50.0494146,
  "lon": 19.9464654
},
{
  "type": "node",
  "id": 2144930431,
  "lat": 50.0499791,
  "lon": 19.9478021
},
{
  "type": "node",
  "id": 2978715421,
  "lat": 50.0497235,
  "lon": 19.9466241
},
{
  "type": "node",
  "id": 2978720810,
  "lat": 50.0492493,
  "lon": 19.9481788
},
{
  "type": "node",
  "id": 2978720905,
  "lat": 50.0495928,
  "lon": 19.9465200
},
{
  "type": "node",
  "id": 2978720917,
  "lat": 50.0496270,
  "lon": 19.9466772
},
{
  "type": "node",
  "id": 2978721047,
  "lat": 50.0494960,
  "lon": 19.9464634
},
{
  "type": "node",
  "id": 2978721150,
  "lat": 50.0495875,
  "lon": 19.9480347
},
{
  "type": "node",
  "id": 2978721452,
  "lat": 50.0497826,
  "lon": 19.9478990
},
{
  "type": "node",
  "id": 2979055698,
  "lat": 50.0491232,
  "lon": 19.9471824
},
{
  "type": "node",
  "id": 2979057560,
  "lat": 50.0491421,
  "lon": 19.9473427
},
{
  "type": "node",
  "id": 2979062497,
  "lat": 50.0490773,
  "lon": 19.9468727
},
{
  "type": "node",
  "id": 2979062646,
  "lat": 50.0494864,
  "lon": 19.9464191
},
{
  "type": "node",
  "id": 2979078698,
  "lat": 50.0496416,
  "lon": 19.9479868
},
{
  "type": "node",
  "id": 2979079781,
  "lat": 50.0490466,
  "lon": 19.9466951
},
{
  "type": "node",
  "id": 2979079854,
  "lat": 50.0495894,
  "lon": 19.9480193
},
{
  "type": "node",
  "id": 6016422954,
  "lat": 50.0495689,
  "lon": 19.9465164
},
{
  "type": "node",
  "id": 6016422955,
  "lat": 50.0495167,
  "lon": 19.9465551
},
{
  "type": "node",
  "id": 6649526774,
  "lat": 50.0494005,
  "lon": 19.9481347
},
{
  "type": "node",
  "id": 1516929437,
  "lat": 50.0577217,
  "lon": 19.9365293
},
{
  "type": "node",
  "id": 1516929440,
  "lat": 50.0572428,
  "lon": 19.9367199
},
{
  "type": "node",
  "id": 1516929485,
  "lat": 50.0577781,
  "lon": 19.9362086
},
{
  "type": "node",
  "id": 1516929660,
  "lat": 50.0578560,
  "lon": 19.9361952
},
{
  "type": "node",
  "id": 1516929666,
  "lat": 50.0576900,
  "lon": 19.9365346
},
{
  "type": "node",
  "id": 1516929684,
  "lat": 50.0577682,
  "lon": 19.9360689
},
{
  "type": "node",
  "id": 1516929718,
  "lat": 50.0578463,
  "lon": 19.9360558
},
{
  "type": "node",
  "id": 1516929727,
  "lat": 50.0577140,
  "lon": 19.9364197
},
{
  "type": "node",
  "id": 1516929733,
  "lat": 50.0573009,
  "lon": 19.9367042
},
{
  "type": "node",
  "id": 1516929770,
  "lat": 50.0576825,
  "lon": 19.9364248
},
{
  "type": "node",
  "id": 2998637662,
  "lat": 50.0572136,
  "lon": 19.9365168
},
{
  "type": "node",
  "id": 2998637664,
  "lat": 50.0572789,
  "lon": 19.9364726
},
{
  "type": "node",
  "id": 2998637676,
  "lat": 50.0575906,
  "lon": 19.9365492
},
{
  "type": "node",
  "id": 2998637683,
  "lat": 50.0577377,
  "lon": 19.9366806
},
{
  "type": "node",
  "id": 2998640011,
  "lat": 50.0571733,
  "lon": 19.9362864
},
{
  "type": "node",
  "id": 2998640012,
  "lat": 50.0571777,
  "lon": 19.9363247
},
{
  "type": "node",
  "id": 2998640013,
  "lat": 50.0571808,
  "lon": 19.9363239
},
{
  "type": "node",
  "id": 2998640032,
  "lat": 50.0574030,
  "lon": 19.9362441
},
{
  "type": "node",
  "id": 2998640163,
  "lat": 50.0571919,
  "lon": 19.9362820
},
{
  "type": "node",
  "id": 2998640164,
  "lat": 50.0572342,
  "lon": 19.9367220
},
{
  "type": "node",
  "id": 2998640168,
  "lat": 50.0575249,
  "lon": 19.9366394
},
{
  "type": "node",
  "id": 2998640178,
  "lat": 50.0576100,
  "lon": 19.9366999
},
{
  "type": "node",
  "id": 2998640180,
  "lat": 50.0576100,
  "lon": 19.9367022
},
{
  "type": "node",
  "id": 2998640188,
  "lat": 50.0577658,
  "lon": 19.9366729
},
{
  "type": "node",
  "id": 2998640194,
  "lat": 50.0578997,
  "lon": 19.9366481
},
{
  "type": "node",
  "id": 2998640195,
  "lat": 50.0579284,
  "lon": 19.9366434
},
{
  "type": "node",
  "id": 2998640196,
  "lat": 50.0579334,
  "lon": 19.9366307
},
{
  "type": "node",
  "id": 2998640197,
  "lat": 50.0579382,
  "lon": 19.9366450
},
{
  "type": "node",
  "id": 2998640352,
  "lat": 50.0571924,
  "lon": 19.9362885
},
{
  "type": "node",
  "id": 2998640354,
  "lat": 50.0571942,
  "lon": 19.9364408
},
{
  "type": "node",
  "id": 2998640355,
  "lat": 50.0571959,
  "lon": 19.9364404
},
{
  "type": "node",
  "id": 2998640357,
  "lat": 50.0571976,
  "lon": 19.9364713
},
{
  "type": "node",
  "id": 2998640358,
  "lat": 50.0572003,
  "lon": 19.9365198
},
{
  "type": "node",
  "id": 2998640360,
  "lat": 50.0572750,
  "lon": 19.9364941
},
{
  "type": "node",
  "id": 2998640363,
  "lat": 50.0572828,
  "lon": 19.9364514
},
{
  "type": "node",
  "id": 2998640365,
  "lat": 50.0573377,
  "lon": 19.9364385
},
{
  "type": "node",
  "id": 2998640377,
  "lat": 50.0574683,
  "lon": 19.9364130
},
{
  "type": "node",
  "id": 2998640378,
  "lat": 50.0574804,
  "lon": 19.9364105
},
{
  "type": "node",
  "id": 2998640379,
  "lat": 50.0574898,
  "lon": 19.9360521
},
{
  "type": "node",
  "id": 2998640382,
  "lat": 50.0575091,
  "lon": 19.9364059
},
{
  "type": "node",
  "id": 2998640385,
  "lat": 50.0575332,
  "lon": 19.9367140
},
{
  "type": "node",
  "id": 2998640389,
  "lat": 50.0575640,
  "lon": 19.9367112
},
{
  "type": "node",
  "id": 2998640391,
  "lat": 50.0575761,
  "lon": 19.9363244
},
{
  "type": "node",
  "id": 2998640396,
  "lat": 50.0576654,
  "lon": 19.9360661
},
{
  "type": "node",
  "id": 2998640404,
  "lat": 50.0576883,
  "lon": 19.9360623
},
{
  "type": "node",
  "id": 2998640406,
  "lat": 50.0577292,
  "lon": 19.9366822
},
{
  "type": "node",
  "id": 2998640844,
  "lat": 50.0573000,
  "lon": 19.9366959
},
{
  "type": "node",
  "id": 2998640850,
  "lat": 50.0574685,
  "lon": 19.9364148
},
{
  "type": "node",
  "id": 2998640853,
  "lat": 50.0574804,
  "lon": 19.9364123
},
{
  "type": "node",
  "id": 2998640945,
  "lat": 50.0575089,
  "lon": 19.9364045
},
{
  "type": "node",
  "id": 2998640951,
  "lat": 50.0575159,
  "lon": 19.9363837
},
{
  "type": "node",
  "id": 2998640953,
  "lat": 50.0575188,
  "lon": 19.9363832
},
{
  "type": "node",
  "id": 2998640955,
  "lat": 50.0575204,
  "lon": 19.9364042
},
{
  "type": "node",
  "id": 2998640964,
  "lat": 50.0576763,
  "lon": 19.9360607
},
{
  "type": "node",
  "id": 2998640965,
  "lat": 50.0576766,
  "lon": 19.9360642
},
{
  "type": "node",
  "id": 2998640968,
  "lat": 50.0576801,
  "lon": 19.9360601
},
{
  "type": "node",
  "id": 2998640969,
  "lat": 50.0576803,
  "lon": 19.9360636
},
{
  "type": "node",
  "id": 2998640970,
  "lat": 50.0576838,
  "lon": 19.9363016
},
{
  "type": "node",
  "id": 2998640973,
  "lat": 50.0577290,
  "lon": 19.9366797
},
{
  "type": "node",
  "id": 2998640974,
  "lat": 50.0577375,
  "lon": 19.9366783
},
{
  "type": "node",
  "id": 2998640979,
  "lat": 50.0577661,
  "lon": 19.9366757
},
{
  "type": "node",
  "id": 2998640984,
  "lat": 50.0578999,
  "lon": 19.9366509
},
{
  "type": "node",
  "id": 2998641045,
  "lat": 50.0575694,
  "lon": 19.9365540
},
{
  "type": "node",
  "id": 2998641048,
  "lat": 50.0575836,
  "lon": 19.9367073
},
{
  "type": "node",
  "id": 2998641657,
  "lat": 50.0579287,
  "lon": 19.9366464
},
{
  "type": "node",
  "id": 2998641660,
  "lat": 50.0579369,
  "lon": 19.9366298
},
{
  "type": "node",
  "id": 3086297215,
  "lat": 50.0575196,
  "lon": 19.9365636
},
{
  "type": "node",
  "id": 3086299096,
  "lat": 50.0571738,
  "lon": 19.9362906
},
{
  "type": "node",
  "id": 3086299101,
  "lat": 50.0571992,
  "lon": 19.9365003
},
{
  "type": "node",
  "id": 3086299102,
  "lat": 50.0572000,
  "lon": 19.9365150
},
{
  "type": "node",
  "id": 1499189330,
  "lat": 50.0475405,
  "lon": 19.9611298
},
{
  "type": "node",
  "id": 1499189335,
  "lat": 50.0474216,
  "lon": 19.9617403
},
{
  "type": "node",
  "id": 1499189344,
  "lat": 50.0474420,
  "lon": 19.9622643
},
{
  "type": "node",
  "id": 1499189360,
  "lat": 50.0475025,
  "lon": 19.9615305
},
{
  "type": "node",
  "id": 1499189366,
  "lat": 50.0475251,
  "lon": 19.9615336
},
{
  "type": "node",
  "id": 1499189375,
  "lat": 50.0475027,
  "lon": 19.9617191
},
{
  "type": "node",
  "id": 1499189378,
  "lat": 50.0473524,
  "lon": 19.9611886
},
{
  "type": "node",
  "id": 1658892271,
  "lat": 50.0473133,
  "lon": 19.9608643
},
{
  "type": "node",
  "id": 1658892278,
  "lat": 50.0473742,
  "lon": 19.9604605
},
{
  "type": "node",
  "id": 1658892284,
  "lat": 50.0473677,
  "lon": 19.9607500
},
{
  "type": "node",
  "id": 1658892288,
  "lat": 50.0474113,
  "lon": 19.9604734
},
{
  "type": "node",
  "id": 1658892294,
  "lat": 50.0475283,
  "lon": 19.9608041
},
{
  "type": "node",
  "id": 1658892299,
  "lat": 50.0474677,
  "lon": 19.9622652
},
{
  "type": "node",
  "id": 1658892310,
  "lat": 50.0475128,
  "lon": 19.9619287
},
{
  "type": "node",
  "id": 1658892313,
  "lat": 50.0475835,
  "lon": 19.9615580
},
{
  "type": "node",
  "id": 1658892315,
  "lat": 50.0476026,
  "lon": 19.9617716
},
{
  "type": "node",
  "id": 1658892324,
  "lat": 50.0476325,
  "lon": 19.9615794
},
{
  "type": "node",
  "id": 1658892329,
  "lat": 50.0476670,
  "lon": 19.9609881
},
{
  "type": "node",
  "id": 1658892542,
  "lat": 50.0480868,
  "lon": 19.9616191
},
{
  "type": "node",
  "id": 1658892552,
  "lat": 50.0481047,
  "lon": 19.9614952
},
{
  "type": "node",
  "id": 1658892575,
  "lat": 50.0481293,
  "lon": 19.9611467
},
{
  "type": "node",
  "id": 1658892577,
  "lat": 50.0481269,
  "lon": 19.9615052
},
{
  "type": "node",
  "id": 1658892595,
  "lat": 50.0481299,
  "lon": 19.9609582
},
{
  "type": "node",
  "id": 1658892597,
  "lat": 50.0481416,
  "lon": 19.9612436
},
{
  "type": "node",
  "id": 1658892602,
  "lat": 50.0481555,
  "lon": 19.9611551
},
{
  "type": "node",
  "id": 1658892603,
  "lat": 50.0481455,
  "lon": 19.9619638
},
{
  "type": "node",
  "id": 1658892604,
  "lat": 50.0481644,
  "lon": 19.9612538
},
{
  "type": "node",
  "id": 1658892625,
  "lat": 50.0482451,
  "lon": 19.9616764
},
{
  "type": "node",
  "id": 6514751638,
  "lat": 50.0475227,
  "lon": 19.9617119
},
{
  "type": "node",
  "id": 6514751646,
  "lat": 50.0482299,
  "lon": 19.9617624
},
{
  "type": "node",
  "id": 6514751647,
  "lat": 50.0481808,
  "lon": 19.9617493
},
{
  "type": "node",
  "id": 6514751648,
  "lat": 50.0481414,
  "lon": 19.9610708
},
{
  "type": "node",
  "id": 6514751649,
  "lat": 50.0481136,
  "lon": 19.9610586
},
{
  "type": "node",
  "id": 6514751650,
  "lat": 50.0475362,
  "lon": 19.9607481
},
{
  "type": "node",
  "id": 6680055026,
  "lat": 50.0482382,
  "lon": 19.9617155
},
{
  "type": "node",
  "id": 1499189374,
  "lat": 50.0475253,
  "lon": 19.9622740
},
{
  "type": "node",
  "id": 471984939,
  "lat": 50.0633709,
  "lon": 19.9282412
},
{
  "type": "node",
  "id": 1391259505,
  "lat": 50.0632391,
  "lon": 19.9282635
},
{
  "type": "node",
  "id": 2401453999,
  "lat": 50.0599568,
  "lon": 19.9235474
},
{
  "type": "node",
  "id": 2401454000,
  "lat": 50.0599595,
  "lon": 19.9234383
},
{
  "type": "node",
  "id": 2401454001,
  "lat": 50.0599609,
  "lon": 19.9235662
},
{
  "type": "node",
  "id": 2401454002,
  "lat": 50.0599703,
  "lon": 19.9236104
},
{
  "type": "node",
  "id": 2401454003,
  "lat": 50.0599802,
  "lon": 19.9235354
},
{
  "type": "node",
  "id": 2401454004,
  "lat": 50.0599832,
  "lon": 19.9236037
},
{
  "type": "node",
  "id": 2401454005,
  "lat": 50.0599842,
  "lon": 19.9236084
},
{
  "type": "node",
  "id": 2401454006,
  "lat": 50.0599919,
  "lon": 19.9233828
},
{
  "type": "node",
  "id": 2401454007,
  "lat": 50.0599994,
  "lon": 19.9234177
},
{
  "type": "node",
  "id": 2401454008,
  "lat": 50.0600156,
  "lon": 19.9235921
},
{
  "type": "node",
  "id": 2401454009,
  "lat": 50.0600636,
  "lon": 19.9240476
},
{
  "type": "node",
  "id": 2401454010,
  "lat": 50.0600731,
  "lon": 19.9240923
},
{
  "type": "node",
  "id": 2401454011,
  "lat": 50.0600741,
  "lon": 19.9240368
},
{
  "type": "node",
  "id": 2401454012,
  "lat": 50.0600751,
  "lon": 19.9240417
},
{
  "type": "node",
  "id": 2401454013,
  "lat": 50.0600773,
  "lon": 19.9241120
},
{
  "type": "node",
  "id": 2401454016,
  "lat": 50.0600997,
  "lon": 19.9241004
},
{
  "type": "node",
  "id": 2401454017,
  "lat": 50.0601069,
  "lon": 19.9240199
},
{
  "type": "node",
  "id": 2401454018,
  "lat": 50.0601208,
  "lon": 19.9241992
},
{
  "type": "node",
  "id": 2401454024,
  "lat": 50.0601621,
  "lon": 19.9241778
},
{
  "type": "node",
  "id": 2401454027,
  "lat": 50.0601684,
  "lon": 19.9242075
},
{
  "type": "node",
  "id": 2401454050,
  "lat": 50.0602801,
  "lon": 19.9241498
},
{
  "type": "node",
  "id": 2401454051,
  "lat": 50.0602817,
  "lon": 19.9241574
},
{
  "type": "node",
  "id": 2401454053,
  "lat": 50.0602884,
  "lon": 19.9241444
},
{
  "type": "node",
  "id": 2401454054,
  "lat": 50.0602902,
  "lon": 19.9241529
},
{
  "type": "node",
  "id": 2401454065,
  "lat": 50.0603161,
  "lon": 19.9241300
},
{
  "type": "node",
  "id": 2401454066,
  "lat": 50.0603178,
  "lon": 19.9241382
},
{
  "type": "node",
  "id": 2401454070,
  "lat": 50.0603235,
  "lon": 19.9241258
},
{
  "type": "node",
  "id": 2401454072,
  "lat": 50.0603253,
  "lon": 19.9241343
},
{
  "type": "node",
  "id": 2401454090,
  "lat": 50.0603518,
  "lon": 19.9241111
},
{
  "type": "node",
  "id": 2401454091,
  "lat": 50.0603535,
  "lon": 19.9241193
},
{
  "type": "node",
  "id": 2401454094,
  "lat": 50.0603594,
  "lon": 19.9241067
},
{
  "type": "node",
  "id": 2401454100,
  "lat": 50.0603612,
  "lon": 19.9241153
},
{
  "type": "node",
  "id": 2401454115,
  "lat": 50.0603864,
  "lon": 19.9240927
},
{
  "type": "node",
  "id": 2401454117,
  "lat": 50.0603881,
  "lon": 19.9241004
},
{
  "type": "node",
  "id": 2401454119,
  "lat": 50.0603924,
  "lon": 19.9240982
},
{
  "type": "node",
  "id": 2401454121,
  "lat": 50.0603935,
  "lon": 19.9241036
},
{
  "type": "node",
  "id": 2401454122,
  "lat": 50.0603968,
  "lon": 19.9240935
},
{
  "type": "node",
  "id": 2401454123,
  "lat": 50.0603984,
  "lon": 19.9241011
},
{
  "type": "node",
  "id": 2401454142,
  "lat": 50.0604257,
  "lon": 19.9240786
},
{
  "type": "node",
  "id": 2401454144,
  "lat": 50.0604275,
  "lon": 19.9240869
},
{
  "type": "node",
  "id": 2401454157,
  "lat": 50.0604352,
  "lon": 19.9240733
},
{
  "type": "node",
  "id": 2401454159,
  "lat": 50.0604370,
  "lon": 19.9240819
},
{
  "type": "node",
  "id": 2401454221,
  "lat": 50.0604633,
  "lon": 19.9240588
},
{
  "type": "node",
  "id": 2401454223,
  "lat": 50.0604652,
  "lon": 19.9240674
},
{
  "type": "node",
  "id": 2401454227,
  "lat": 50.0604712,
  "lon": 19.9240543
},
{
  "type": "node",
  "id": 2401454230,
  "lat": 50.0604731,
  "lon": 19.9240633
},
{
  "type": "node",
  "id": 2401454239,
  "lat": 50.0604991,
  "lon": 19.9240399
},
{
  "type": "node",
  "id": 2401454240,
  "lat": 50.0605010,
  "lon": 19.9240487
},
{
  "type": "node",
  "id": 2401454242,
  "lat": 50.0605061,
  "lon": 19.9240359
},
{
  "type": "node",
  "id": 2401454243,
  "lat": 50.0605081,
  "lon": 19.9240451
},
{
  "type": "node",
  "id": 2401454248,
  "lat": 50.0605359,
  "lon": 19.9240205
},
{
  "type": "node",
  "id": 2401454249,
  "lat": 50.0605378,
  "lon": 19.9240296
},
{
  "type": "node",
  "id": 2401454250,
  "lat": 50.0605433,
  "lon": 19.9240164
},
{
  "type": "node",
  "id": 2401454251,
  "lat": 50.0605453,
  "lon": 19.9240258
},
{
  "type": "node",
  "id": 2401454256,
  "lat": 50.0605714,
  "lon": 19.9240019
},
{
  "type": "node",
  "id": 2401454257,
  "lat": 50.0605734,
  "lon": 19.9240112
},
{
  "type": "node",
  "id": 2401454263,
  "lat": 50.0605803,
  "lon": 19.9239970
},
{
  "type": "node",
  "id": 2401454265,
  "lat": 50.0605823,
  "lon": 19.9240066
},
{
  "type": "node",
  "id": 2401454290,
  "lat": 50.0606075,
  "lon": 19.9239829
},
{
  "type": "node",
  "id": 2401454291,
  "lat": 50.0606096,
  "lon": 19.9239925
},
{
  "type": "node",
  "id": 2401454294,
  "lat": 50.0606171,
  "lon": 19.9239777
},
{
  "type": "node",
  "id": 2401454297,
  "lat": 50.0606192,
  "lon": 19.9239875
},
{
  "type": "node",
  "id": 2401454304,
  "lat": 50.0606451,
  "lon": 19.9239631
},
{
  "type": "node",
  "id": 2401454305,
  "lat": 50.0606472,
  "lon": 19.9239729
},
{
  "type": "node",
  "id": 2401454306,
  "lat": 50.0606535,
  "lon": 19.9239586
},
{
  "type": "node",
  "id": 2401454314,
  "lat": 50.0606556,
  "lon": 19.9239686
},
{
  "type": "node",
  "id": 2401454333,
  "lat": 50.0606807,
  "lon": 19.9239444
},
{
  "type": "node",
  "id": 2401454336,
  "lat": 50.0606829,
  "lon": 19.9239545
},
{
  "type": "node",
  "id": 2401454341,
  "lat": 50.0606899,
  "lon": 19.9239394
},
{
  "type": "node",
  "id": 2401454345,
  "lat": 50.0606921,
  "lon": 19.9239497
},
{
  "type": "node",
  "id": 2401454359,
  "lat": 50.0607172,
  "lon": 19.9239253
},
{
  "type": "node",
  "id": 2401454361,
  "lat": 50.0607194,
  "lon": 19.9239356
},
{
  "type": "node",
  "id": 2401454364,
  "lat": 50.0607259,
  "lon": 19.9239205
},
{
  "type": "node",
  "id": 2401454365,
  "lat": 50.0607273,
  "lon": 19.9230022
},
{
  "type": "node",
  "id": 2401454366,
  "lat": 50.0607281,
  "lon": 19.9239310
},
{
  "type": "node",
  "id": 2401454369,
  "lat": 50.0607387,
  "lon": 19.9230554
},
{
  "type": "node",
  "id": 2401454373,
  "lat": 50.0607442,
  "lon": 19.9230526
},