{
  "version": 0.6,
  "generator": "Overpass API 0.7.55.9 ab41fea6",
  "osm3s": {
    "timestamp_osm_base": "2020-02-14T14:42:02Z",
    "copyright": "The data included in this document is from www.openstreetmap.org. The data is made available under ODbL."
  },
  "elements": [

{
  "type": "node",
  "id": 204761338,
  "lat": 51.0668514,
  "lon": 3.7033213,
  "tags": {
    "addr:housenumber": "43",
    "addr:postcode": "9000",
    "addr:street": "Jozef Guislainstraat",
    "name": "Museum Dr. Guislain",
    "tourism": "museum",
    "website": "http://www.museumdrguislain.be",
    "wikidata": "Q2934898"
  }
},
{
  "type": "node",
  "id": 530191402,
  "lat": 51.1693662,
  "lon": 2.7755640,
  "tags": {
    "name": "Les Zéphyrs",
    "tourism": "museum"
  }
},
{
  "type": "node",
  "id": 717698372,
  "lat": 51.0558384,
  "lon": 3.7201406,
  "tags": {
    "name": "Design Museum Gent",
    "opening_hours": "Mo,Tu,Th,Fr 09:30-17:30; Sa,Su,PH 10:00-18:00",
    "toilets:wheelchair": "yes",
    "tourism": "museum",
    "wheelchair": "limited",
    "wikidata": "Q1809071",
    "wikipedia": "nl:Design museum Gent"
  }
},
{
  "type": "node",
  "id": 717698375,
  "lat": 51.0554405,
  "lon": 3.7172867,
  "tags": {
    "name": "School van toen",
    "tourism": "museum",
    "wikidata": "Q2248967",
    "wikipedia": "nl:De School van Toen"
  }
},
{
  "type": "node",
  "id": 907868913,
  "lat": 51.2123276,
  "lon": 3.2338997,
  "tags": {
    "addr:city": "Brugge",
    "addr:country": "BE",
    "addr:housenumber": "3A",
    "addr:postcode": "8000",
    "addr:street": "Peperstraat",
    "email": "info@adornes.org",
    "int_name": "Lace Museum",
    "name": "Adornesdomein",
    "opening_hours": "Mo-Sa 10:00-17:30; PH Off",
    "phone": "+32 50 33 88 83",
    "tourism": "museum",
    "website": "http://www.adornes.org/",
    "wheelchair": "limited"
  }
},
{
  "type": "node",
  "id": 1169756382,
  "lat": 51.0081895,
  "lon": 3.6192002,
  "tags": {
    "addr:city": "Sint-Martens-Latem",
    "addr:housename": "Museum Gevaert-Minne",
    "addr:housenumber": "45",
    "addr:postcode": "9830",
    "addr:street": "Kapitteldreef",
    "name": "Museum Gevaert-Minne",
    "tourism": "museum",
    "wikidata": "Q13866173"
  }
},
{
  "type": "node",
  "id": 1263445627,
  "lat": 50.8296692,
  "lon": 3.2699803,
  "tags": {
    "alt_name": "Groeningemuseum Kortrijk",
    "name": "Kortrijk 1302",
    "tourism": "museum",
    "website": "https://www.kortrijk1302.be/",
    "wikidata": "Q2045153",
    "wikipedia": "nl:Kortrijk 1302"
  }
},
{
  "type": "node",
  "id": 1264515775,
  "lat": 50.8305771,
  "lon": 3.2560514,
  "tags": {
    "description": "opening_hours tested with http://openingh.openstreetmap.de/evaluation_tool/#",
    "name": "Texture Kortrijk",
    "old_name": "Nationaal Vlasmuseum",
    "opening_hours": "May-Sep Tu-Su 10:00-18:00; Mo off \"Closed\"; Jan-Apr,Sep-Dec Tu-Su 10:00-17:00; Mo off \"Closed\"; PH off",
    "tourism": "museum",
    "website": "https://www.texturekortrijk.be/"
  }
},
{
  "type": "node",
  "id": 1268524325,
  "lat": 51.2332975,
  "lon": 2.9160237,
  "tags": {
    "addr:city": "Oostende",
    "addr:housenumber": "27",
    "addr:postcode": "8400",
    "addr:street": "Vlaanderenstraat",
    "name": "Ensorhuis",
    "source:url": "https://www.visitoostende.be/nl/james-ensorhuis",
    "tourism": "museum",
    "wikidata": "Q1679876",
    "wikipedia": "nl:Ensorhuis"
  }
},
{
  "type": "node",
  "id": 1268533874,
  "lat": 51.2256082,
  "lon": 2.9145726,
  "tags": {
    "name": "Mu.ZEE PMMK MSK",
    "tourism": "museum"
  }
},
{
  "type": "node",
  "id": 1268535939,
  "lat": 51.2333495,
  "lon": 2.9181560,
  "tags": {
    "name": "De Plate",
    "tourism": "museum"
  }
},
{
  "type": "node",
  "id": 1341445889,
  "lat": 51.2513188,
  "lon": 3.2819435,
  "tags": {
    "name": "Uilenspiegelmuseum",
    "tourism": "museum",
    "wikidata": "Q23670942"
  }
},
{
  "type": "node",
  "id": 1363635190,
  "lat": 50.9787472,
  "lon": 3.0810021,
  "tags": {
    "addr:housenumber": "24",
    "addr:postcode": "8830",
    "addr:street": "Marktplaats",
    "name": "Oorlogsmuseum",
    "tourism": "museum"
  }
},
{
  "type": "node",
  "id": 1388375116,
  "lat": 51.1156114,
  "lon": 3.2940965,
  "tags": {
    "tourism": "museum"
  }
},
{
  "type": "node",
  "id": 1398777206,
  "lat": 51.2108356,
  "lon": 3.2264075,
  "tags": {
    "name": "Lumina",
    "tourism": "museum"
  }
},
{
  "type": "node",
  "id": 1976192745,
  "lat": 51.2108140,
  "lon": 3.2262766,
  "tags": {
    "addr:housenumber": "2",
    "addr:street": "Wijnzakstraat",
    "name": "Choco-Story",
    "opening_hours": "Mo-Su 10:00-17:00",
    "phone": "+32 50 61 22 37",
    "tourism": "museum",
    "website": "http://www.choco-story.be/",
    "wikidata": "Q2747092"
  }
},
{
  "type": "node",
  "id": 2379730126,
  "lat": 51.2503085,
  "lon": 3.2821497,
  "tags": {
    "tourism": "museum"
  }
},
{
  "type": "node",
  "id": 2414598284,
  "lat": 51.1841501,
  "lon": 3.6367118,
  "tags": {
    "name": "Bardelare museum",
    "tourism": "museum"
  }
},
{
  "type": "node",
  "id": 2680779359,
  "lat": 50.8465456,
  "lon": 2.9435716,
  "tags": {
    "name": "Hooghe Crater Museum",
    "note": "WW1 museum",
    "tourism": "museum",
    "website": "http://www.hoogecrater.com/en/"
  }
},
{
  "type": "node",
  "id": 2759391031,
  "lat": 51.3562606,
  "lon": 3.4129305,
  "tags": {
    "addr:city": "Cadzand",
    "addr:housenumber": "2",
    "addr:postcode": "4506HE",
    "addr:street": "Herenweg",
    "name": "Fuchsiatuin Zomerweelde",
    "source": "BAG",
    "source:date": "2014-03-24",
    "subject": "fuchsia",
    "tourism": "museum"
  }
},
{
  "type": "node",
  "id": 2978182188,
  "lat": 51.0928946,
  "lon": 3.5722961,
  "tags": {
    "name": "Gekkefietsenmuseum",
    "tourism": "museum"
  }
},
{
  "type": "node",
  "id": 3033526245,
  "lat": 51.2085805,
  "lon": 3.2254533,
  "tags": {
    "addr:housenumber": "3",
    "addr:street": "Breidelstraat",
    "description": "degustatie inbegrepen",
    "description:en": "tasting included",
    "email": "info@mybeerexperience.com",
    "internet_access": "wlan",
    "name": "Brugs Biermuseum",
    "name:de": "Brügger Biermuseum",
    "name:en": "Bruges Beer Museum",
    "name:fr": "Musée brugeois de la bière",
    "name:nl": "Brugs Biermuseum",
    "phone": "+32 50 69 92 29",
    "tourism": "museum",
    "website": "https://mybeerexperience.com",
    "wheelchair": "no",
    "wikidata": "Q18549518"
  }
},
{
  "type": "node",
  "id": 3598967800,
  "lat": 51.3375246,
  "lon": 3.2453068,
  "tags": {
    "addr:city": "Knokke Heist",
    "addr:housenumber": "140",
    "addr:postcode": "8301",
    "addr:street": "Pannenstraat",
    "name": "Sincfala",
    "opening_hours": "Mo-Su 10:00-12:00,14:00-17:30; Dec 25-26 off; Jan 1-2 off",
    "tourism": "museum",
    "website": "www.sincfala.be/",
    "wikidata": "Q2306758"
  }
},
{
  "type": "node",
  "id": 3613024654,
  "lat": 51.1498987,
  "lon": 2.9269234,
  "tags": {
    "email": "godelievemuseum@hotmail.com",
    "fee": "yes",
    "fee:amount": "2 EUR",
    "name": "Godelievemuseum",
    "opening_hours": "Apr 01-Sep 30 Mo,Sa-Su 14:00-18:00; Apr 01-Sep 30 Tu-Fr 10:00-12:00,14:00-18:00",
    "phone": "+32 479 79 08 89",
    "start_date": "1987",
    "tourism": "museum"
  }
},
{
  "type": "node",
  "id": 3634680109,
  "lat": 51.2076391,
  "lon": 3.2262802,
  "tags": {
    "addr:housenumber": "29D",
    "addr:street": "Wollestraat",
    "name": "Torture Museum Oude Steen",
    "tourism": "museum",
    "website": "http://torturemuseum.be/",
    "wikidata": "Q56294596"
  }
},
{
  "type": "node",
  "id": 3700729494,
  "lat": 50.9201682,
  "lon": 3.1291300,
  "tags": {
    "name": "MUZE'UM L",
    "tourism": "museum",
    "website": "http://www.muzeuml.be/"
  }
},
{
  "type": "node",
  "id": 3751964393,
  "lat": 51.1915107,
  "lon": 2.9840875,
  "tags": {
    "name": "Oldtimer Motorcycle museum",
    "tourism": "museum"
  }
},
{
  "type": "node",
  "id": 4061233528,
  "lat": 51.1175720,
  "lon": 2.9816708,
  "tags": {
    "addr:city": "Koekelare",
    "addr:housenumber": "2",
    "addr:postcode": "8680",
    "addr:street": "Clevenstraat",
    "description": "Het Lange Max Museum is voor de Eerste Wereldoorlog-toerist een niet te missen plaats aan de Duitse zijde van het westelijk front. Een boerenerf vormt er het centraal punt van de cultuur-toeristische locatie. Vanaf het boerenerf brengt een lange dreef je",
    "email": "info@langemaxmuseum.be",
    "name": "Lange Max Museum",
    "opening_hours": "14:00 - 18:00",
    "operator": "Lange Max vzw",
    "payment:cash": "yes",
    "phone": "+32 475 58 50 51",
    "tourism": "museum",
    "website": "https://www.langemaxmuseum.be",
    "wheelchair": "yes",
    "wikidata": "Q18169501",
    "wikipedia": "en:Lange Max Museum"
  }
},
{
  "type": "node",
  "id": 4693648391,
  "lat": 50.8464568,
  "lon": 2.9454146,
  "tags": {
    "name": "Openlucht  museum  WO 1",
    "name:nl": "Openlucht  museum  WO 1",
    "tourism": "museum"
  }
},
{
  "type": "node",
  "id": 4974099892,
  "lat": 51.2402313,
  "lon": 3.5250097,
  "tags": {
    "addr:city": "Sint-Laureins",
    "addr:housenumber": "24",
    "addr:postcode": "9980",
    "addr:street": "Leemweg",
    "name": "Plattelandscentrum",
    "opening_hours": "Th-Fr 13:30-16:30",
    "operator": "Plattelandscentrum Meetjesland vzw",
    "tourism": "museum"
  }
},
{
  "type": "node",
  "id": 5181581337,
  "lat": 51.2941379,
  "lon": 3.1998974,
  "tags": {
    "name": "Heiligenmuseum",
    "name:en": "Museum of Saints",
    "name:nl": "Heiligenmuseum",
    "tourism": "museum"
  }
},
{
  "type": "node",
  "id": 5283902987,
  "lat": 51.2006561,
  "lon": 2.8472134,
  "tags": {
    "addr:city": "Oostende",
    "addr:housenumber": "636",
    "addr:postcode": "8400",
    "addr:street": "Nieuwpoortsesteenweg",
    "name": "Atlantikwall (WW1 & WW2)",
    "opening_hours:url": "https://www.raversyde.be/",
    "operator": "West Flanders Province",
    "tourism": "museum"
  }
},
{
  "type": "node",
  "id": 5303678018,
  "lat": 51.2027519,
  "lon": 3.2259303,
  "tags": {
    "name": "Diamantmuseum",
    "tourism": "museum",
    "wikidata": "Q2015143"
  }
},
{
  "type": "node",
  "id": 5420548425,
  "lat": 51.0915440,
  "lon": 2.9723421,
  "tags": {
    "historic": "railway_car",
    "name": "Spoorauto Kamieltje",
    "tourism": "museum",
    "url": "https://inventaris.onroerenderfgoed.be/erfgoedobjecten/208728"
  }
},
{
  "type": "node",
  "id": 5764487753,
  "lat": 51.3109489,
  "lon": 3.3856970,
  "tags": {
    "addr:housenumber": "35",
    "addr:postcode": "4524 AA",
    "addr:street": "Hoogstraat",
    "email": "info@bizarium.com",
    "name": "Bizarium",
    "phone": "+31117852808",
    "tourism": "museum",
    "website": "http://www.bizarium.com"
  }
},
{
  "type": "node",
  "id": 5854495022,
  "lat": 51.1435751,
  "lon": 3.2953392,
  "tags": {
    "name": "Museumschip Tordino",
    "tourism": "museum",
    "website": "http://www.museumschip.be/",
    "wikidata": "Q56245118"
  }
},
{
  "type": "node",
  "id": 5859225643,
  "lat": 50.8722381,
  "lon": 2.9885603,
  "tags": {
    "name": "underground war hospital",
    "tourism": "museum"
  }
},
{
  "type": "node",
  "id": 5894997986,
  "lat": 51.2098814,
  "lon": 3.2282929,
  "tags": {
    "name": "Lucifernum",
    "tourism": "museum"
  }
},
{
  "type": "node",
  "id": 6111374298,
  "lat": 50.9469476,
  "lon": 3.1254806,
  "tags": {
    "addr:housenumber": "20",
    "addr:street": "Henri Horriestraat",
    "alt_name": "Figaro",
    "name": "Kappersmuseum",
    "tourism": "museum"
  }
},
{
  "type": "node",
  "id": 6317821961,
  "lat": 51.2059931,
  "lon": 2.8841293,
  "tags": {
    "access": "customers",
    "addr:city": "Oostende",
    "addr:housenumber": "185",
    "addr:postcode": "8400",
    "addr:street": "Prins Roselaan",
    "name": "Astropolis Space Science Center",
    "operator": "Astropolis vzw",
    "start_date": "01/07/2019",
    "tourism": "museum",
    "website": "https://astropolis.be/"
  }
},
{
  "type": "node",
  "id": 6467938398,
  "lat": 51.1768079,
  "lon": 3.1529366,
  "tags": {
    "amenity": "planetarium",
    "email": "info@cozmix.be",
    "name": "Cozmix",
    "operator": "Volkssterrenwacht Beisbroek",
    "phone": "+32 50 39 05 66",
    "tourism": "museum",
    "website": "http://www.cozmix.be/",
    "wheelchair": "yes"
  }
},
{
  "type": "node",
  "id": 6467938399,
  "lat": 51.1768030,
  "lon": 3.1530957,
  "tags": {
    "email": "natuur@brugge.be",
    "fee": "no",
    "name": "Natuurcentrum",
    "phone": "+32 50 39 09 75",
    "tourism": "museum"
  }
},
{
  "type": "node",
  "id": 6517531519,
  "lat": 51.2021578,
  "lon": 3.2239341,
  "tags": {
    "name": "Halve Maan",
    "tourism": "museum"
  }
},
{
  "type": "node",
  "id": 6818121433,
  "lat": 51.2058215,
  "lon": 3.2229413,
  "tags": {
    "name": "Musea Sculpta 3D Museum",
    "tourism": "museum"
  }
},
{
  "type": "node",
  "id": 7063914648,
  "lat": 50.8559288,
  "lon": 3.3098530,
  "tags": {
    "addr:city": "Harelbeke",
    "addr:housenumber": "55",
    "addr:postcode": "8530",
    "addr:street": "Marktstraat",
    "name": "Stedelijk Museum Peter Benoit",
    "tourism": "museum"
  }
},
{
  "type": "way",
  "id": 34764893,
  "nodes": [
    405785621,
    1510087968,
    405785624,
    405785623,
    405785626,
    7102034336,
    7102034337,
    405785621
  ],
  "tags": {
    "building": "yes",
    "name": "Museum Walraversijde - Bezoekerscentrum",
    "tourism": "museum",
    "wikipedia": "en:Walraversijde"
  }
},
{
  "type": "way",
  "id": 68797543,
  "nodes": [
    2415196959,
    2415196961,
    826624258,
    2415196962,
    2415196959
  ],
  "tags": {
    "building": "yes",
    "name": "Kusthistories",
    "tourism": "museum"
  }
},
{
  "type": "way",
  "id": 85423255,
  "nodes": [
    990282648,
    5966468138,
    5966468137,
    5966468136,
    5966468135,
    5966468134,
    5966468139,
    990282642,
    5966468133,
    5966468132,
    3786064196,
    5966468130,
    5966468131,
    990282597,
    5966468129,
    5966468118,
    5966468119,
    5966468120,
    5966468121,
    5966468122,
    5966468123,
    5966468124,
    5966468125,
    5966468126,
    5966468127,
    5966468128,
    5966468117,
    5966468116,
    5966468114,
    5966468115,
    5966468113,
    5966468112,
    5966468111,
    990282578,
    5966468110,
    990282648
  ],
  "tags": {
    "addr:housenumber": "5-5A",
    "addr:street": "Ieperstraat",
    "building": "yes",
    "local_name": "Kasteel van Zonnebeke",
    "name": "Memorial Museum Passchendaele 1917",
    "tourism": "museum",
    "wikidata": "Q20084147"
  }
},
{
  "type": "way",
  "id": 87999978,
  "nodes": [
    1022913632,
    1022913280,
    1022913509,
    1022913225,
    1022913357,
    1022913443,
    5903564113,
    5903564112,
    5903564111,
    5903564114,
    3188187316,
    3188187315,
    1022913609,
    1022913319,
    5903564101,
    5903564102,
    1022913531,
    5903564103,
    3188187321,
    1022913576,
    5903564104,
    1022913211,
    5903564105,
    3188187320,
    5903564106,
    1022913669,
    1022913286,
    1022913331,
    5903564108,
    5903564107,
    5903564109,
    5903564110,
    1022913632
  ],
  "tags": {
    "addr:housenumber": "48A",
    "addr:street": "'s Graventafelstraat",
    "amenity": "cafe",
    "building": "manufacture",
    "name": "De Oude Kaasmakerij",
    "tourism": "museum",
    "website": "https://www.deoudekaasmakerij.be/"
  }
},
{
  "type": "way",
  "id": 89482810,
  "nodes": [
    1037663602,
    2889716989,
    3246143339,
    2889716992,
    2889716993,
    3246143340,
    2889716990,
    2889716988,
    2889716987,
    1037663707,
    1037663602
  ],
  "tags": {
    "building": "yes",
    "description": "IJzertoren das höchste Friedensdenkmal in Europa",
    "height": "84",
    "heritage": "yes",
    "historic": "memorial",
    "image": "https://commons.wikimedia.org/wiki/File%3ADiksmuide_Yser_Turm.jpg",
    "man_made": "tower",
    "memorial": "war_memorial",
    "name": "IJzertoren",
    "name:de": "Yser turm",
    "name:en": "Yser tower",
    "name:fr": "Tour de l'Yser",
    "tourism": "museum",
    "tower:type": "monument",
    "wikidata": "Q1708620",
    "wikipedia": "en:IJzertoren"
  }
},
{
  "type": "way",
  "id": 89811367,
  "nodes": [
    1041042769,
    3350363282,
    1041042728,
    1041042782,
    1041042739,
    1041042760,
    3350363249,
    1041042726,
    3350363186,
    1041042761,
    1041042773,
    3350363216,
    1041042784,
    6916128268,
    1041042763,
    1971393973,
    1041042769
  ],
  "tags": {
    "addr:city": "Jabbeke",
    "addr:housenumber": "341",
    "addr:postcode": "8490",
    "addr:street": "Gistelsteenweg",
    "name": "Provinciaal Museum Constant Permeke",
    "tourism": "museum",
    "website": "https://www.muzee.be/nl/permeke"
  }
},
{
  "type": "way",
  "id": 92235136,
  "nodes": [
    1070758205,
    4973719559,
    4973719174,
    6939575098,
    4973719547,
    4973719544,
    1070758435,
    1070758425,
    1070758304,
    1070758260,
    4973719503,
    4973719527,
    4973719508,
    4973719504,
    4973719507,
    4973719537,
    4973719512,
    4973719514,
    4973719550,
    4973719170,
    1070758173,
    1070758353,
    1070758383,
    1070758205
  ],
  "tags": {
    "building": "yes",
    "name": "exposition Picasso",
    "name:en": "Expo Center Bruges",
    "name:nl": "XPO Center Bruges",
    "tourism": "museum",
    "website": "https://www.xpo-center-bruges.be/"
  }
},
{
  "type": "way",
  "id": 96386454,
  "nodes": [
    1116995339,
    1116995386,
    1116995322,
    1116995340,
    1116995392,
    1116995393,
    1116995339
  ],
  "tags": {
    "building": "yes",
    "name": "Eperon d'Or",
    "note": "2014-11-24 : restauratie en herbestemming van Eperon d'Or tot het nationaal schoen- en borstelmuseum",
    "tourism": "museum",
    "wikidata": "Q27897937"
  }
},
{
  "type": "way",
  "id": 100855928,
  "nodes": [
    1165524067,
    5020822685,
    5020822686,
    4893533161,
    1165523907,
    5020822733,
    5020822736,
    5020822737,
    5020822735,
    5020822734,
    1165523914,
    5020822732,
    5020822731,
    5020822730,
    1165524028,
    5020822729,
    5020818520,
    5020818519,
    1165524076,
    5020818518,
    1165523909,
    5020818517,
    5020818516,
    5020818515,
    1165524061,
    5020818514,
    5020818513,
    5020818512,
    1165523986,
    5020818511,
    5020822690,
    5020822688,
    5020822687,
    5020822689,
    1165523947,
    1165523961,
    4893533162,
    1165524064,
    1165524100,
    1165523966,
    5020822681,
    5020822728,
    5020822727,
    5020822726,
    1165523963,
    1165523934,
    5020822725,
    5020822724,
    1165523915,
    5020822721,
    5020822519,
    5020822594,
    1165523900,
    1165524000,
    5020822592,
    5020822593,
    5020822595,
    5020822520,
    5020822722,
    5020822723,
    1165524034,
    1165523897,
    5020822683,
    5020822682,
    5020822684,
    1165524067
  ],
  "tags": {
    "OnroerendErfgoed:criteria": "M",
    "addr:city": "Brugge",
    "addr:street": "Gentpoortstraat",
    "building": "yes",
    "description": "Gentpoort",
    "heritage": "4",
    "heritage:operator": "OnroerendErfgoed",
    "heritage:website": "https://inventaris.onroerenderfgoed.be/dibe/relict/81919",
    "historic": "city_gate",
    "name": "Gentpoort",
    "opening_hours": "Tu-Su 09:30-12:30,13:30-17:30; Jan 01, Dec 25 Off",
    "operator": "Brugge Museum",
    "ref:OnroerendErfgoed": "81919",
    "tourism": "museum",
    "website": "museabrugge.be",
    "wheelchair": "no",
    "wikidata": "Q2105764",
    "wikipedia": "nl:Gentpoort"
  }
},
{
  "type": "way",
  "id": 105209504,
  "nodes": [
    6372083199,
    1212449371,
    1212449935,
    7203152552,
    1212452113,
    1212448227,
    2616101982,
    6372083202,
    2616101984,
    2616101987,
    2616101989,
    2616101996,
    2616101993,
    2616101976,
    2616101973,
    2616101971,
    1212448921,
    5264835865,
    2616101978,
    2616101980,
    7203152557,
    6372083198,
    6372083199
  ],
  "tags": {
    "building": "yes",
    "name": "Bosinfocentrum",
    "opening_hours": "Tu-Su 09:00-12:00,13:00-17:00",
    "tourism": "museum"
  }
},
{
  "type": "way",
  "id": 105533772,
  "nodes": [
    4743523828,
    4743523827,
    4180814120,
    1215382822,
    4180814118,
    4180814119,
    4180814117,
    4180814116,
    1882828877,
    1215382825,
    1215382836,
    4743523828
  ],
  "tags": {
    "building": "yes",
    "name": "Stadsmuseum Gent",
    "name:de": "Stadtmuseum Gent",
    "name:fr": "городской музе",
    "short_name": "STAM",
    "source": "Bing",
    "tourism": "museum",
    "wheelchair": "yes",
    "wikidata": "Q980285"
  }
},
{
  "type": "way",
  "id": 107231088,
  "nodes": [
    1232854438,
    1232854377,
    1232854829,
    5212963894,
    1232854766,
    5212963923,
    5212963864,
    1231571075,
    1232854394,
    1232854438
  ],
  "tags": {
    "building": "yes",
    "source:geometry:date": "2016/08/29",
    "source:geometry:ref": "Gbg/5274194",
    "tourism": "museum"
  }
},
{
  "type": "way",
  "id": 107231089,
  "nodes": [
    1231570778,
    2536910112,
    1232854485,
    1232854822,
    1232854754,
    1231571212,
    1231570778
  ],
  "tags": {
    "building": "yes",
    "source:geometry:date": "2010/11/25",
    "source:geometry:ref": "Gbg/2584749",
    "tourism": "museum"
  }
},
{
  "type": "way",
  "id": 108095382,
  "nodes": [
    1240771487,
    5032746308,
    5022141699,
    2407331217,
    5018670780,
    5709437335,
    3040483226,
    5018347859,
    1240771481,
    5073426634,
    5032747624,
    3040105357,
    5032746968,
    4597857135,
    4597857136,
    1240771471,
    4597857134,
    4597857133,
    4597857132,
    4597857131,
    5709437330,
    1240771484,
    1240771482,
    5709437316,
    1240771488,
    5032747633,
    5032746982,
    5032747650,
    3040485770,
    1240762875,
    3040485772,
    1240762835,
    5032747016,
    5032747015,
    5032747014,
    5032747011,
    5032747010,
    5032747012,
    5032747008,
    1240771485,
    1240771467,
    1240771478,
    5032746986,
    1240771469,
    1240771473,
    5032747625,
    5032746965,
    1240771486,
    4597857123,
    4597857124,
    1240771487
  ],
  "tags": {
    "addr:city": "Brugge",
    "addr:country": "BE",
    "addr:housenumber": "12",
    "addr:street": "Dijver",
    "museum": "art",
    "name": "Groeningemuseum",
    "name:fr": "Musée Groeninge",
    "name:ru": "Городской музей изящных искусств Гронинге",
    "tourism": "museum",
    "wikidata": "Q1948674",
    "wikipedia": "nl:Groeningemuseum"
  }
},
{
  "type": "way",
  "id": 108153673,
  "nodes": [
    1241260052,
    1241259969,
    1241259929,
    1241260080,
    5547554945,
    1241260043,
    1241259987,
    5547554936,
    1241259943,
    1241260052
  ],
  "tags": {
    "building": "yes",
    "tourism": "museum"
  }
},
{
  "type": "way",
  "id": 110672549,
  "nodes": [
    1263294203,
    1263294188,
    1263294220,
    1263294209,
    1263294198,
    1263294195,
    1263294213,
    1263294197,
    1263294215,
    1263294207,
    1263294217,
    1263294200,
    1263294210,
    1263294192,
    1263294202,
    1263294203
  ],
  "tags": {
    "building": "yes",
    "name": "Amandine",
    "tourism": "museum"
  }
},
{
  "type": "way",
  "id": 125485783,
  "nodes": [
    1393657101,
    1393657106,
    1393657089,
    1393657062,
    1393657101
  ],
  "tags": {
    "addr:housenumber": "29",
    "addr:postcode": "8470",
    "addr:street": "Warandestraat",
    "building": "yes",
    "name": "Wielermuseum de Gistelse Flandriens",
    "tourism": "museum",
    "website": "https://www.gistel.be/Dienst.aspx?ID=1755"
  }
},
{
  "type": "way",
  "id": 127791556,
  "nodes": [
    1413692083,
    1782526455,
    1782526461,
    1782526460,
    1782526466,
    1782526467,
    1782526462,
    1782526463,
    1782526453,
    1413692086,
    3921064007,
    3921063975,
    1413692070,
    3921063971,
    3921063976,
    3921063989,
    1782526430,
    1413692075,
    1413692083
  ],
  "tags": {
    "tourism": "museum"
  }
},
{
  "type": "way",
  "id": 127977920,
  "nodes": [
    1415233971,
    1415233983,
    1415233985,
    1415233988,
    1415233992,
    1415233990,
    1415233986,
    1415233973,
    2591477890,
    1415233935,
    1415233930,
    1415233914,
    1415233913,
    1415233912,
    1415233905,
    1415233917,
    1415233923,
    1415233950,
    1415233970,
    1415233971
  ],
  "tags": {
    "building": "ship",
    "historic": "ship",
    "image": "File:Zeebrugge West-Hinder R01.jpg",
    "name": "West-Hinder",
    "operator": "Seafront",
    "ship:type": "lightship",
    "tourism": "museum",
    "website": "http://www.seafront.be/en/lightship-west-hinder"
  }
},
{
  "type": "way",
  "id": 129572039,
  "nodes": [
    5617767547,
    5617767549,
    6133523428,
    6133523423,
    6133523424,
    6133523426,
    6133523425,
    6133523427,
    1429326825,
    5871065708,
    2283156525,
    6133523445,
    2283156527,
    5904459540,
    6133523444,
    6133523443,
    6133523442,
    6133523441,
    6133523434,
    6133523433,
    6133523435,
    6133523436,
    6133523437,
    6133523438,
    6133523439,
    6133523440,
    661138751,
    2283156528,
    5286572533,
    2283156526,
    5904459539,
    1429326827,
    1429326819,
    5617767550,
    5617767547
  ],
  "tags": {
    "addr:city": "Roeselare",
    "addr:housenumber": "15",
    "addr:postcode": "8800",
    "addr:street": "Polenplein",
    "building": "yes",
    "name": "KOERS, Museum van de Wielersport",
    "operator": "Stad Roeselare",
    "tourism": "museum",
    "wikidata": "Q1966865"
  }
},
{
  "type": "way",
  "id": 142984616,
  "nodes": [
    1564474710,
    2101995554,
    2101995572,
    2101995564,
    3184300819,
    1564474710
  ],
  "tags": {
    "building": "yes",
    "name": "Tyne Cot Visitors Centre",
    "tourism": "museum"
  }
},
{
  "type": "way",
  "id": 147542094,
  "nodes": [
    1607518800,
    1607518814,
    1607518788,
    1607518809,
    1607518800
  ],
  "tags": {
    "addr:city": "Adegem",
    "addr:housename": "Canada - Poland War Museum",
    "addr:housenumber": "21",
    "addr:postcode": "B-9991",
    "addr:street": "Heulendonk",
    "building": "yes",
    "name": "Canada - Poland War Museum",
    "operator": "Gilbert van Landschloot",
    "tourism": "museum",
    "website": "http://www.canadamuseum.be"
  }
},
{
  "type": "way",
  "id": 155769314,
  "nodes": [
    1681271157,
    4974122510,
    2311042809,
    2509830526,
    2311042812,
    1681259807,
    1681271165,
    1681271177,
    1681271157
  ],
  "tags": {
    "OnroerendErfgoed:criteria": "M",
    "addr:city": "Brugge",
    "addr:country": "BE",
    "addr:housenumber": "33",
    "addr:postcode": "8000",
    "addr:street": "Vlamingstraat",
    "building": "yes",
    "description": "Genuese Loge, hoekpand, deel van bank",
    "heritage": "4",
    "heritage:operator": "OnroerendErfgoed",
    "heritage:website": "https://inventaris.onroerenderfgoed.be/dibe/relict/29895",
    "image": "File:Saaihalle_Brugge.jpg",
    "name": "Frietmuseum",
    "name:es": "museo de frituras papa",
    "ref:OnroerendErfgoed": "29895",
    "tourism": "museum",
    "wikidata": "Q2487207"
  }
},
{
  "type": "way",
  "id": 167286189,
  "nodes": [
    1786934500,
    4651089725,
    4651089726,
    1786934503,
    1786934521,
    1786934517,
    1786934523,
    1786934498,
    1786934511,
    4651089727,
    4651089728,
    1786934506,
    1786934507,
    4651089729,
    1786934524,
    4651089730,
    1786934510,
    1786934514,
    1786934522,
    1786934505,
    1786934508,
    1786934519,
    1786934513,
    4651089721,
    4651089722,
    1786934512,
    1786934527,
    4651089723,
    4651089724,
    1786934516,
    1786934500
  ],
  "tags": {
    "addr:housenumber": "3-5",
    "addr:street": "Lucien Matthyslaan",
    "building": "yes",
    "name": "Museum van Deinze en de Leiestreek",
    "tourism": "museum",
    "wikidata": "Q2215500"
  }
},
{
  "type": "way",
  "id": 180918952,
  "nodes": [
    1913735401,
    5382846858,
    5072243734,
    5072243735,
    5072243739,
    1913735402,
    1912509734,
    5072243742,
    5072243737,
    1913735405,
    1913735408,
    5072243673,
    1913735397,
    1913735403,
    5072243668,
    1913735391,
    1913735404,
    5072243371,
    1913735394,
    1913735407,
    5072243369,
    5072243728,
    5072243731,
    5072243665,
    5382846859,
    5391360305,
    5072243373,
    1913735401
  ],
  "tags": {
    "addr:housenumber": "79B",
    "addr:street": "Potterierei",
    "building": "yes",
    "charge": "€4/adult 26yo-64yo;€3/person (12yo-26yo);€0/child <12yo",
    "name": "O-L-V-ter-Potterie",
    "opening_hours": "Tu-Su 09:30-12:30,13:30-17:30",
    "tourism": "museum"
  }
},
{
  "type": "way",
  "id": 182729722,
  "nodes": [
    1930874917,
    2638384133,
    4973657805,
    4973660859,
    1930874926,
    2350623312,
    1398745742,
    4597869249,
    2407331250,
    4597869252,
    4597869251,
    4597869250,
    4973657811,
    1930874895,
    4973660203,
    4973660204,
    4973653481,
    4973653479,
    1930874904,
    4973653476,
    4973653477,
    1930874901,
    4597869246,
    1240750309,
    4597869247,
    4973661021,
    4973661022,
    4973657820,
    4973657819,
    4973657818,
    4973657816,
    4973660876,
    4973660875,
    1930874917
  ],
  "tags": {
    "OnroerendErfgoed:criteria": "M",
    "addr:city": "Brugge",
    "addr:housenumber": "16",
    "addr:street": "Dijver",
    "building": "yes",
    "heritage": "4",
    "heritage:operator": "OnroerendErfgoed",
    "heritage:website": "https://inventaris.onroerenderfgoed.be/dibe/relict/82343",
    "name": "Frank Brangwyn-Arentshuis",
    "name:fr": "Frank Brangwyn-Hôtel Arents",
    "name:nl": "Frank Brangwyn-Arentshuis",
    "opening_hours": "Tu-Su 09:30-17:00",
    "ref:OnroerendErfgoed": "82343",
    "tourism": "museum",
    "website": "https://bezoekers.brugge.be/nl/arentshuis",
    "wheelchair": "limited",
    "wikidata": "Q11044187",
    "wikipedia": "nl:Arentshuis"
  }
},
{
  "type": "way",
  "id": 186189451,
  "nodes": [
    1968832615,
    5062658010,
    1968832567,
    1968832595,
    1968832611,
    1968832622,
    5062655517,
    5062655516,
    5600707934,
    1968832556,
    5062658011,
    5062655514,
    5062655511,
    5062655506,
    5062658006,
    5062658003,
    5062658004,
    1968832593,
    1968832615
  ],
  "tags": {
    "OnroerendErfgoed:criteria": "M",
    "addr:city": "Brugge",
    "addr:country": "BE",
    "addr:housenumber": "64",
    "addr:postcode": "8000",
    "addr:street": "Rolweg",
    "building": "house",
    "description": "Voormalige hofstede en geboortehuis van Guido Gezelle",
    "fixme": "GRB thinks that this has number 64;66",
    "heritage": "4",
    "heritage:operator": "OnroerendErfgoed",
    "heritage:website": "https://inventaris.onroerenderfgoed.be/dibe/relict/83212",
    "name": "Guido-Gezellemuseum",
    "opening_hours": "Tu-Su 09:30-12:30, 13:30-17:00; Dec 25 closed; Jan 01 closed",
    "ref:OnroerendErfgoed": "83212",
    "source:geometry:date": "2015/07/09",
    "source:geometry:ref": "Gbg/2380318",
    "subject:wikidata": "Q336977",
    "tourism": "museum",
    "wikidata": "Q664766"
  }
},
{
  "type": "way",
  "id": 186193075,
  "nodes": [
    1968891843,
    1968858729,
    1968858758,
    1968858752,
    1968858734,
    1968858788,
    1968858745,
    1968853648,
    1968853623,
    1968891845,
    5062082322,
    1968940810,
    1968891843
  ],
  "tags": {
    "addr:city": "Brugge",
    "addr:housenumber": "43",
    "addr:postcode": "8000",
    "addr:street": "Balstraat",
    "charge": "€4/adult (26yo-64yo);€3/adult(>65year);€3/student (12year old - 25 year old);€0/kid (<12year);free for schools",
    "email": "musea@brugge.be",
    "fax": "+32 50 44 87 78",
    "name": "Stedelijk Museum voor Volkskunde 'De Zwarte Kat'",
    "opening_hours": "Tu-Su 09:30-17:00",
    "phone": "+32 50 44 87 43",
    "tourism": "museum",
    "website": "http://www.museabrugge.be",
    "wheelchair": "limited"
  }
},
{
  "type": "way",
  "id": 218075613,
  "nodes": [
    2273712928,
    4973719680,
    4973719677,
    1594431115,
    1398745756,
    2273712926,
    4973719586,
    2273712923,
    2273712924,
    4973719651,
    4973719588,
    2273712922,
    2273712921,
    4973719641,
    4973719642,
    2273712919,
    4973719581,
    4973719650,
    4973719583,
    4973719584,
    4973719587,
    4973719589,
    4973719590,
    4973719657,
    4973719652,
    4973719656,
    4973719655,
    4973719660,
    4973719596,
    4973719594,
    4973719599,
    4973719177,
    4973719607,
    4973719605,
    4973719178,
    4973719595,
    4973719591,
    4973719654,
    4973719659,
    4973719658,
    4973719592,
    4973719593,
    2273712927,
    4973719597,
    4973719598,
    4973719180,
    4973719600,
    4973719604,
    4973719181,
    4973719603,
    4973719182,
    4973719184,
    4973719609,
    4973719665,
    4973719663,
    4973719664,
    4973719666,
    4973719667,
    4973719670,
    2638956211,
    2273712928
  ],
  "tags": {
    "building": "yes",
    "museum": "archaeological",
    "name": "Dienst Archeologie Stad Brugge",
    "tourism": "museum"
  }
},
{
  "type": "way",
  "id": 221397597,
  "nodes": [
    2304212655,
    2304212656,
    2304212658,
    4972768143,
    1164697457,
    4972768240,
    4972768241,
    1164697473,
    4972768325,
    4972768324,
    4972768322,
    4972768323,
    4972768321,
    4972768120,
    1164697463,
    4972768238,
    4972768237,
    4972768234,
    4972768146,
    4972768144,
    4972768145,
    2509817558,
    2304212655
  ],
  "tags": {
    "OnroerendErfgoed:criteria": "M",
    "addr:city": "Brugge",
    "addr:housenumber": "1",
    "addr:street": "Markt",
    "building": "yes",
    "description": "Neogotisch hoekpand 1910-1914, ministerie van Openbare Werken, Bestuur Bruggen en Wegen.",
    "heritage": "4",
    "heritage:operator": "OnroerendErfgoed",
    "heritage:website": "https://inventaris.onroerenderfgoed.be/dibe/relict/29454",
    "museum": "history",
    "name": "Historium",
    "opening_hours": "Mo-Su 10:00-21:00",
    "ref:OnroerendErfgoed": "29454",
    "toilets:wheelchair": "yes",
    "tourism": "museum",
    "wheelchair": "yes",
    "wikidata": "Q18574189",
    "wikipedia": "nl:Historium"
  }
},
{
  "type": "way",
  "id": 221477838,
  "nodes": [
    2305059335,
    2305059406,
    4973719501,
    4973719506,
    4973719542,
    4973719519,
    4973719546,
    2305059402,
    4973719167,
    4973719564,
    4973719568,
    2305059365,
    2305059383,
    4973719624,
    4973719623,
    2305059412,
    2305059372,
    4973719555,
    4973719553,
    4973719156,
    4973719552,
    4973719163,
    4973719162,
    4973719161,
    4973719157,
    4973719543,
    4973719513,
    4973719510,
    4973719540,
    4973719535,
    4973719538,
    4973719536,
    4973719533,
    4973719505,
    4973719532,
    4973719509,
    4973719502,
    4973719529,
    4973719500,
    4973719530,
    4973719528,
    4973719521,
    4973719526,
    4973719525,
    4973719499,
    2305059348,
    4973719496,
    4973719495,
    4973719492,
    4973719493,
    4973719491,
    4973719490,
    4973717818,
    4973717820,
    4973717812,
    4973717811,
    4973719489,
    4973719488,
    4973719484,
    4973719487,
    4973719485,
    4973719486,
    4973719483,
    4973719482,
    4973719481,
    4973719480,
    4973717808,
    4973717807,
    4973717809,
    4973717806,
    4973717805,
    4973717803,
    4973717804,
    2305059340,
    2505416181,
    4600671053,
    2305059335
  ],
  "tags": {
    "building": "yes",
    "description": "Gothische ziekenzaal",
    "name": "Memlingmuseum",
    "tourism": "museum"
  }
},
{
  "type": "way",
  "id": 221477841,
  "nodes": [
    4485866432,
    4485866440,
    4485866450,
    2305059364,
    2305059352,
    6506618052,
    4485866589,
    2305059355,
    4485866591,
    4485866592,
    4485866593,
    4485866595,
    4485866594,
    2305059350,
    4485866590,
    2305059418,
    6506618061,
    6506618060,
    4485866477,
    4485866488,
    4485866472,
    2305059413,
    4485866436,
    4485866462,
    4485866452,
    4485866445,
    4485866446,
    2305059399,
    4485866460,
    4485866461,
    1435705226,
    4485866432
  ],
  "tags": {
    "addr:city": "Brugge",
    "addr:country": "BE",
    "addr:housenumber": "17",
    "addr:postcode": "8000",
    "addr:street": "Dijver",
    "building": "house",
    "name": "Gruuthusemuseum",
    "name:etymology:wikidata": "Q2012173",
    "name:fr": "Musée Gruuthuse",
    "source:geometry:date": "2010-12-06",
    "source:geometry:ref": "Gbg/2387375",
    "tourism": "museum",
    "wikidata": "Q1108949",
    "wikipedia": "nl:Gruuthuse (museum)"
  }
},
{
  "type": "way",
  "id": 243640402,
  "nodes": [
    2510203612,
    5017794779,
    2510203561,
    2510203608,
    2510203565,
    2510194187,
    5017903235,
    2510194101,
    5017903230,
    5017903231,
    5458709677,
    5017903228,
    5017903227,
    5017903226,
    5017903225,
    1070742725,
    2510203568,
    2510203556,
    2510203612
  ],
  "tags": {
    "OnroerendErfgoed:criteria": "M",
    "addr:city": "Brugge",
    "addr:country": "BE",
    "addr:housenumber": "1",
    "addr:postcode": "8000",
    "addr:street": "Begijnhof",
    "building": "religious",
    "description": "Ten Zuiden van de poort, begijnenhuisje ingericht als museum",
    "heritage": "4",
    "heritage:operator": "OnroerendErfgoed",
    "heritage:website": "https://inventaris.onroerenderfgoed.be/dibe/relict/82300",
    "name": "Begijnenhuis",
    "name:nl": "Begijnenhuis",
    "ref:OnroerendErfgoed": "82300",
    "source:geometry:date": "2015/07/09",
    "source:geometry:ref": "Gbg/2386253",
    "tourism": "museum"
  }
},
{
  "type": "way",
  "id": 270945352,
  "nodes": [
    2759008411,
    2759008703,
    2759009000,
    2759009014,
    2759009283,
    2759009310,
    2759009333,
    2759009297,
    2759009401,
    2759009186,
    2759009200,
    2759009173,
    2759009004,
    2759008409,
    2759008432,
    2759008393,
    2759008362,
    2759008302,
    2759008285,
    2759008347,
    2759008092,
    2759008039,
    2759007980,
    2759008076,
    2759007951,
    2759007897,
    2759007869,
    2759007926,
    2759007845,
    2759007799,
    2759007780,
    2759007836,
    2759007769,
    2759007715,
    2759007651,
    2759007751,
    2759007598,
    2759007312,
    2759007280,
    2759007566,
    2759007268,
    2759007230,
    2759007206,
    2759007244,
    2759007189,
    2759007171,
    2759007148,
    2759007186,
    2759007116,
    2759007065,
    2759007046,
    2759008407,
    2759008411
  ],
  "tags": {
    "building": "commercial",
    "description": "Raadhuis. Waarschijnlijk gebouwd tussen 1390 en 1393; na zware beschadiging in 1944 herbouwd. Rechthoekig gebouw met ingebouwde toren die een karakteristiek voorbeeld oplevert van het Vlaamse belfort.",
    "heritage": "2",
    "heritage:operator": "rce",
    "image": "https://upload.wikimedia.org/wikipedia/commons/a/a4/Sluis_town_hall.jpg",
    "name": "Belfort",
    "ref:bag": "1714100000731003",
    "ref:rce": "33890",
    "source": "BAG",
    "source:date": "2014-03-24",
    "start_date": "1396",
    "tourism": "museum",
    "website": "http://www.belfortsluis.nl/nl/",
    "wikidata": "Q2413687",
    "wikipedia": "nl:Belfort van Sluis"
  }
},
{
  "type": "way",
  "id": 271270883,
  "nodes": [
    2762265840,
    2762266514,
    2762266427,
    2762266571,
    2762266520,
    2762266406,
    2762266344,
    2762266254,
    2762266510,
    2762266424,
    2762266323,
    2762265548,
    2762265840
  ],
  "tags": {
    "building": "yes",
    "description": "Fors, gedeeltelijk onderkelderd dwarspand van gele metselsteen. Strekken en onderdorpels in rode metselsteen. Lijst met consoles: 9-ruits schuifvensters; venstererker.",
    "fee": "MJK_free",
    "heritage": "2",
    "heritage:operator": "rce",
    "image": "https://upload.wikimedia.org/wikipedia/commons/9/9c/Aardenburg_-_Archeologisch_Museum_1.jpg",
    "name": "Gemeentelijk Archeologisch Museum",
    "ref:bag": "1714100000732512",
    "ref:rce": "6886",
    "source": "BAG",
    "source:date": "2014-03-24",
    "start_date": "1752",
    "tourism": "museum",
    "website": "http://museumaardenburg.nl/"
  }
},
{
  "type": "way",
  "id": 300123667,
  "nodes": [
    3042284091,
    3042284102,
    3042284109,
    3042284103,
    3971364858,
    3042284099,
    3042284098,
    3042284091
  ],
  "tags": {
    "addr:housenumber": "68",
    "addr:street": "Brugse Steenweg",
    "building": "residential",
    "name": "Het Zuivelmuseum",
    "name:de": "Das Milch Museum",
    "name:en": "The Dairy Museum",
    "name:fr": "Le Musée Laitier",
    "name:nl": "Het Zuivelmuseum",
    "note:name:de": "sic",
    "tourism": "museum",
    "website": "http://www.zuivelmuseum.be/"
  }
},
{
  "type": "way",
  "id": 309222777,
  "nodes": [
    5674571065,
    3145526585,
    3145526582,
    3145526559,
    3145526554,
    3145526545,
    3145526547,
    3145526563,
    5674571065
  ],
  "tags": {
    "addr:housenumber": "22",
    "addr:street": "IJzerdijk",
    "amenity": "cafe",
    "building": "yes",
    "description": "Museum '100 jaar fotografie'",
    "name": "Fot'oeil",
    "opening_hours": "sa 14:00+; su 11:00-20:00",
    "tourism": "museum"
  }
},
{
  "type": "way",
  "id": 363804350,
  "nodes": [
    3679306233,
    3679324626,
    3679324627,
    3679324628,
    3679306227,
    3679306233
  ],
  "tags": {
    "addr:city": "Nazareth",
    "addr:housenumber": "16",
    "addr:postcode": "9810",
    "addr:street": "Drapstraat",
    "building": "yes",
    "building:levels": "3",
    "name": "Het Burgerlijk Godshuis - Oorlogsmuseum",
    "source": "http://www.erfgoedbankleieschelde.be/erfgoed/2575-het-burgerlijk-godshuis-van-nazareth",
    "tourism": "museum",
    "website": "https://www.nazareth.be/website/165-www/2526-www/2529-www.html"
  }
},
{
  "type": "way",
  "id": 364033032,
  "nodes": [
    3681415332,
    3681415333,
    3681415331,
    3693434309,
    3681415330,
    3681415332
  ],
  "tags": {
    "building": "yes",
    "name": "Belle Epoque Centrum",
    "tourism": "museum",
    "website": "http://www.belle.epoque.blankenberge.be/",
    "wheelchair": "yes"
  }
},
{
  "type": "way",
  "id": 374340080,
  "nodes": [
    3777169614,
    3777169615,
    3777169616,
    3777169617,
    3777176317,
    3777169614
  ],
  "tags": {
    "building": "yes",
    "name": "Mostaard Wostyn",
    "tourism": "museum"
  }
},
{
  "type": "way",
  "id": 405891188,
  "nodes": [
    4080304207,
    4080304208,
    4080304209,
    4080304267,
    4080304210,
    4080304211,
    4080304212,
    4080304213,
    4080304214,
    4080309009,
    4080304215,
    4080304275,
    4080304216,
    4080304207
  ],
  "tags": {
    "building": "yes",
    "name": "Archeologisch Site museum",
    "tourism": "museum",
    "wikidata": "Q66005063"
  }
},
{
  "type": "way",
  "id": 442906542,
  "nodes": [
    4405562256,
    4405562225,
    4405562226,
    4405562257,
    4405574554,
    4405574551,
    4405562258,
    4405574553,
    4405562259,
    4405562241,
    4405562242,
    4405562249,
    4405562250,
    4405562260,
    4405562261,
    4405562256
  ],
  "tags": {
    "building": "no",
    "name": "Roger Raveelmuseum",
    "tourism": "museum",
    "website": "http://www.rogerraveelmuseum.be/website-default/1-www.html"
  }
},
{
  "type": "way",
  "id": 459398375,
  "nodes": [
    4552562822,
    4552562823,
    4552562824,
    4552562825,
    4552562822
  ],
  "tags": {
    "building": "yes",
    "tourism": "museum"
  }
},
{
  "type": "way",
  "id": 480853552,
  "nodes": [
    4738118023,
    4738118024,
    4738118025,
    7053905882,
    7053905883,
    4738118026,
    4738118027,
    4738118028,
    7053919087,
    7053919086,
    4738118029,
    7053919085,
    7053905884,
    4738118030,
    4738118023
  ],
  "tags": {
    "addr:city": "Ramskapelle",
    "addr:housenumber": "91,93",
    "addr:postcode": "8301",
    "addr:street": "Ramskapellestraat",
    "building": "yes",
    "name": "For Freedom Museum",
    "tourism": "museum",
    "wikidata": "Q13636814"
  }
},
{
  "type": "way",
  "id": 519082003,
  "nodes": [
    5592523480,
    5062149291,
    5062149290,
    6127187614,
    5062149287,
    6127187616,
    5062149286,
    5062149558,
    5592523480
  ],
  "tags": {
    "addr:city": "Brugge",
    "addr:housenumber": "16",
    "addr:postcode": "8000",
    "addr:street": "Balstraat",
    "building": "house",
    "email": "info@kantcentrum.eu",
    "fixme": "GRB thinks that this has number no number",
    "name": "Kantcentrum",
    "opening_hours": "Mo-Sa 09:30-17:00; PH Off",
    "phone": "+32 50 33 00 72",
    "source:geometry:date": "2017/04/14",
    "source:geometry:ref": "Gbg/2380295",
    "tourism": "museum",
    "website": "https://www.kantcentrum.eu/"
  }
},
{
  "type": "way",
  "id": 543937368,
  "nodes": [
    5258091636,
    5258091637,
    5258091638,
    5258091639,
    5258091636
  ],
  "tags": {
    "building": "yes",
    "name": "Jenevermuseum Van Hoorebeke",
    "tourism": "museum"
  }
},
{
  "type": "way",
  "id": 544215755,
  "nodes": [
    5260744604,
    5260744605,
    5260744606,
    5260744607,
    5260744604
  ],
  "tags": {
    "building": "yes",
    "tourism": "museum"
  }
},
{
  "type": "way",
  "id": 572931312,
  "nodes": [
    5504074035,
    5504074036,
    5504074037,
    5504074038,
    5504074035
  ],
  "tags": {
    "indoor": "area",
    "name": "Expo 'Vogels in het Zwin'",
    "tourism": "museum"
  }
},
{
  "type": "way",
  "id": 591310024,
  "nodes": [
    5645279532,
    5645279534,
    6959965271,
    5645279537,
    5645279538,
    6959965272,
    6959965273,
    6959965274,
    5645279532
  ],
  "tags": {
    "addr:city": "Deerlijk",
    "addr:housenumber": "8",
    "addr:postcode": "8540",
    "addr:street": "René De Clercqstraat",
    "building": "yes",
    "name": "Museum René De Clercq",
    "opening_hours": "su 14:30-18:00",
    "operator": "Deerlijk",
    "tourism": "museum"
  }
},
{
  "type": "way",
  "id": 661849985,
  "nodes": [
    6196360139,
    6196360140,
    6196360141,
    6196360142,
    6196360143,
    6196360144,
    6196360145,
    6196360146,
    6196360147,
    6196360148,
    6196360149,
    6196360150,
    6196360151,
    6196360152,
    6196360153,
    6196360154,
    6196360155,
    6196360156,
    6196360157,
    6196360158,
    6196360159,
    6196360160,
    6196360161,
    6196360162,
    6196360163,
    6196360164,
    6196360165,
    6196360166,
    6196360139
  ],
  "tags": {
    "building": "yes",
    "name": "Fransmansmuseum",
    "tourism": "museum",
    "wikidata": "Q18070499"
  }
},
{
  "type": "way",
  "id": 700721888,
  "nodes": [
    6580391591,
    6580391592,
    6580387257,
    3099232060,
    3099232059,
    6580387256,
    6580387255,
    3099232056,
    6580387283,
    6580387274,
    3099232050,
    3099232048,
    3099232037,
    6580387261,
    6580387254,
    6580387253,
    6580387252,
    6580387251,
    6580387250,
    6580387249,
    6580387248,
    6580387247,
    6580387246,
    6580387245,
    6580387244,
    6580387243,
    6580387242,
    6580387241,
    6580387240,
    6580387239,
    6580387238,
    6580387237,
    1692549661,
    1692549547,
    6556278429,
    6580387236,
    6580387235,
    6580387234,
    6580387233,
    6580387232,
    6580387231,
    6580387230,
    6580387229,
    6580387227,
    6580387228,
    6580387226,
    6580387225,
    6580387224,
    874351031,
    6580387258,
    6580387223,
    6580387222,
    6580391590,
    6580387221,
    6580391591
  ],
  "tags": {
    "fee": "yes",
    "image": "https://commons.wikimedia.org/wiki/File:Stoomcentrum_Maldegem_75196_WD.jpg",
    "name": "Stoomtrein Maldegem-Eeklo",
    "tourism": "museum",
    "website": "https://www.stoomtreinmaldegem.be/",
    "wikipedia": "nl:Stoomtrein Maldegem-Eeklo"
  }
},
{
  "type": "way",
  "id": 700725714,
  "nodes": [
    6580421881,
    6580421882,
    6582308806,
    6582308805,
    6582308808,
    6582308807,
    6580421883,
    6580421884,
    6582308810,
    6582308809,
    6580422985,
    6580422986,
    6580422987,
    6580422988,
    6580421881
  ],
  "tags": {
    "addr:city": "Deurle",
    "addr:housenumber": "1",
    "addr:postcode": "9831",
    "addr:street": "Gustaaf De Smetlaan",
    "building": "yes",
    "name": "Museum Gust De Smet",
    "tourism": "museum",
    "wikidata": "Q47472486"
  }
},
{
  "type": "way",
  "id": 700727883,
  "nodes": [
    6580443699,
    6582308977,
    6582308975,
    6582308976,
    6582308973,
    6582308974,
    6582308969,
    6582308971,
    6582308970,
    6582308972,
    6580443700,
    6582308968,
    6582308967,
    6580443701,
    6580443702,
    6580443703,
    6580443704,
    6580443705,
    6580443706,
    6580443707,
    6582308963,
    6580443708,
    6582308966,
    6582308964,
    6582308965,
    6580443709,
    6580443710,
    6582308962,
    6582308960,
    6582308961,
    6580443711,
    6580443712,
    6582308959,
    6580443713,
    6580443714,
    6580443715,
    6582308992,
    6580443716,
    6582308991,
    6582308990,
    6580443717,
    6582308989,
    6582308978,
    6582308979,
    6580443718,
    6582308988,
    6582308980,
    6582308987,
    6582308981,
    6582308986,
    6582308982,
    6582308985,
    6582308983,
    6582308984,
    6580443699
  ],
  "tags": {
    "addr:city": "Deurle",
    "addr:housenumber": "14",
    "addr:postcode": "9831",
    "addr:street": "Museumlaan",
    "building": "yes",
    "name": "Museum Mw. J. Dhondt-Dhaenens",
    "tourism": "museum"
  }
},
{
  "type": "way",
  "id": 738582044,
  "nodes": [
    6916150212,
    6916150213,
    6916150214,
    6916150215,
    6916150216,
    6916150217,
    6916150218,
    6916150219,
    6916150212
  ],
  "tags": {
    "addr:city": "Jabbeke",
    "addr:housenumber": "341",
    "addr:postcode": "8490",
    "addr:street": "Gistelsteenweg",
    "building": "house",
    "source:geometry:date": "2004/06/29",
    "source:geometry:ref": "Gbg/280753",
    "tourism": "museum",
    "website": "https://www.muzee.be/nl/permeke"
  }
},
{
  "type": "way",
  "id": 756311967,
  "nodes": [
    7063914647,
    7063914646,
    7063914633,
    7063914634,
    7063914645,
    7063914635,
    7063914639,
    6997598768,
    6997598769,
    7063914636,
    7064306269,
    7063914637,
    7063914638,
    7063914647
  ],
  "tags": {
    "addr:city": "Harelbeke",
    "addr:housenumber": "55-57",
    "addr:postcode": "8530",
    "addr:street": "Marktstraat",
    "building": "yes",
    "tourism": "museum"
  }
},
{
  "type": "relation",
  "id": 3395039,
  "members": [
    {
      "type": "way",
      "ref": 253176431,
      "role": "outer"
    },
    {
      "type": "way",
      "ref": 253176432,
      "role": "outer"
    },
    {
      "type": "way",
      "ref": 253176433,
      "role": "outer"
    }
  ],
  "tags": {
    "email": "info@seafront.be",
    "name": "Seafront",
    "phone": "+32 50 55 14 15",
    "tourism": "museum",
    "type": "multipolygon",
    "website": "https://www.seafront.be/",
    "wikidata": "Q2102354"
  }
},
{
  "type": "relation",
  "id": 7398643,
  "members": [
    {
      "type": "way",
      "ref": 507967594,
      "role": "inner"
    },
    {
      "type": "way",
      "ref": 221477839,
      "role": "outer"
    }
  ],
  "tags": {
    "building": "yes",
    "name": "Apotheek Sint-Janshospitaal Museum",
    "tourism": "museum",
    "type": "multipolygon"
  }
},
{
  "type": "relation",
  "id": 8489246,
  "members": [
    {
      "type": "way",
      "ref": 403817753,
      "role": "outer"
    },
    {
      "type": "way",
      "ref": 612400459,
      "role": "outer"
    },
    {
      "type": "way",
      "ref": 612400461,
      "role": "outer"
    },
    {
      "type": "way",
      "ref": 612400462,
      "role": "outer"
    },
    {
      "type": "way",
      "ref": 612400466,
      "role": "outer"
    },
    {
      "type": "way",
      "ref": 612400467,
      "role": "outer"
    },
    {
      "type": "way",
      "ref": 612400471,
      "role": "outer"
    },
    {
      "type": "way",
      "ref": 612400472,
      "role": "outer"
    },
    {
      "type": "way",
      "ref": 612400463,
      "role": "outer"
    }
  ],
  "tags": {
    "addr:city": "Koekelare",
    "addr:housenumber": "2",
    "addr:postcode": "8680",
    "addr:street": "Clevenstraat",
    "name": "Lange Max Museum",
    "name:en": "Langer Max Museum",
    "tourism": "museum",
    "type": "multipolygon"
  }
},
{
  "type": "node",
  "id": 4552562822,
  "lat": 50.8889786,
  "lon": 2.8771450
},
{
  "type": "node",
  "id": 4552562823,
  "lat": 50.8891477,
  "lon": 2.8771085
},
{
  "type": "node",
  "id": 4552562824,
  "lat": 50.8891587,
  "lon": 2.8772369
},
{
  "type": "node",
  "id": 4552562825,
  "lat": 50.8889896,
  "lon": 2.8772734
},
{
  "type": "node",
  "id": 3145526545,
  "lat": 51.0012002,
  "lon": 2.8278037
},
{
  "type": "node",
  "id": 3145526547,
  "lat": 51.0012163,
  "lon": 2.8279438
},
{
  "type": "node",
  "id": 3145526554,
  "lat": 51.0012771,
  "lon": 2.8277815
},
{
  "type": "node",
  "id": 3145526559,
  "lat": 51.0012865,
  "lon": 2.8278633
},
{
  "type": "node",
  "id": 3145526563,
  "lat": 51.0012891,
  "lon": 2.8279228
},
{
  "type": "node",
  "id": 3145526582,
  "lat": 51.0014449,
  "lon": 2.8278175
},
{
  "type": "node",
  "id": 3145526585,
  "lat": 51.0014587,
  "lon": 2.8279379
},
{
  "type": "node",
  "id": 5674571065,
  "lat": 51.0012962,
  "lon": 2.8279848
},
{
  "type": "node",
  "id": 1037663602,
  "lat": 51.0315468,
  "lon": 2.8523585
},
{
  "type": "node",
  "id": 1037663707,
  "lat": 51.0314766,
  "lon": 2.8521812
},
{
  "type": "node",
  "id": 2889716987,
  "lat": 51.0315057,
  "lon": 2.8519770
},
{
  "type": "node",
  "id": 2889716988,
  "lat": 51.0316171,
  "lon": 2.8518653
},
{
  "type": "node",
  "id": 2889716989,
  "lat": 51.0316753,
  "lon": 2.8524048
},
{
  "type": "node",
  "id": 2889716990,
  "lat": 51.0317456,
  "lon": 2.8519116
},
{
  "type": "node",
  "id": 2889716992,
  "lat": 51.0317867,
  "lon": 2.8522931
},
{
  "type": "node",
  "id": 2889716993,
  "lat": 51.0318159,
  "lon": 2.8520888
},
{
  "type": "node",
  "id": 3246143339,
  "lat": 51.0317314,
  "lon": 2.8523485
},
{
  "type": "node",
  "id": 3246143340,
  "lat": 51.0317811,
  "lon": 2.8520012
},
{
  "type": "node",
  "id": 5260744604,
  "lat": 51.0327886,
  "lon": 2.8538656
},
{
  "type": "node",
  "id": 5260744605,
  "lat": 51.0326584,
  "lon": 2.8538531
},
{
  "type": "node",
  "id": 5260744606,
  "lat": 51.0326566,
  "lon": 2.8539073
},
{
  "type": "node",
  "id": 5260744607,
  "lat": 51.0327878,
  "lon": 2.8539212
},
{
  "type": "node",
  "id": 990282648,
  "lat": 50.8707892,
  "lon": 2.9884236
},
{
  "type": "node",
  "id": 990282578,
  "lat": 50.8705910,
  "lon": 2.9886555
},
{
  "type": "node",
  "id": 990282597,
  "lat": 50.8706950,
  "lon": 2.9888804
},
{
  "type": "node",
  "id": 990282642,
  "lat": 50.8708780,
  "lon": 2.9886700
},
{
  "type": "node",
  "id": 3786064196,
  "lat": 50.8708080,
  "lon": 2.9888178
},
{
  "type": "node",
  "id": 5966468110,
  "lat": 50.8705909,
  "lon": 2.9886530
},
{
  "type": "node",
  "id": 5966468111,
  "lat": 50.8705803,
  "lon": 2.9886672
},
{
  "type": "node",
  "id": 5966468112,
  "lat": 50.8705777,
  "lon": 2.9886671
},
{
  "type": "node",
  "id": 5966468113,
  "lat": 50.8705746,
  "lon": 2.9886708
},
{
  "type": "node",
  "id": 5966468114,
  "lat": 50.8705904,
  "lon": 2.9886925
},
{
  "type": "node",
  "id": 5966468115,
  "lat": 50.8705865,
  "lon": 2.9886971
},
{
  "type": "node",
  "id": 5966468116,
  "lat": 50.8705899,
  "lon": 2.9886899
},
{
  "type": "node",
  "id": 5966468117,
  "lat": 50.8706016,
  "lon": 2.9886759
},
{
  "type": "node",
  "id": 5966468118,
  "lat": 50.8706326,
  "lon": 2.9887830
},
{
  "type": "node",
  "id": 5966468119,
  "lat": 50.8706325,
  "lon": 2.9887858
},
{
  "type": "node",
  "id": 5966468120,
  "lat": 50.8706132,
  "lon": 2.9888073
},
{
  "type": "node",
  "id": 5966468121,
  "lat": 50.8706120,
  "lon": 2.9888055
},
{
  "type": "node",
  "id": 5966468122,
  "lat": 50.8706108,
  "lon": 2.9888065
},
{
  "type": "node",
  "id": 5966468123,
  "lat": 50.8705973,
  "lon": 2.9887770
},
{
  "type": "node",
  "id": 5966468124,
  "lat": 50.8705989,
  "lon": 2.9887753
},
{
  "type": "node",
  "id": 5966468125,
  "lat": 50.8705980,
  "lon": 2.9887736
},
{
  "type": "node",
  "id": 5966468126,
  "lat": 50.8706188,
  "lon": 2.9887491
},
{
  "type": "node",
  "id": 5966468127,
  "lat": 50.8706141,
  "lon": 2.9887387
},
{
  "type": "node",
  "id": 5966468128,
  "lat": 50.8706248,
  "lon": 2.9887262
},
{
  "type": "node",
  "id": 5966468129,
  "lat": 50.8706446,
  "lon": 2.9887692
},
{
  "type": "node",
  "id": 5966468130,
  "lat": 50.8707892,
  "lon": 2.9888393
},
{
  "type": "node",
  "id": 5966468131,
  "lat": 50.8707689,
  "lon": 2.9887951
},
{
  "type": "node",
  "id": 5966468132,
  "lat": 50.8708265,
  "lon": 2.9887964
},
{
  "type": "node",
  "id": 5966468133,
  "lat": 50.8708059,
  "lon": 2.9887525
},
{
  "type": "node",
  "id": 5966468134,
  "lat": 50.8708223,
  "lon": 2.9885116
},
{
  "type": "node",
  "id": 5966468135,
  "lat": 50.8708025,
  "lon": 2.9884688
},
{
  "type": "node",
  "id": 5966468136,
  "lat": 50.8707914,
  "lon": 2.9884812
},
{
  "type": "node",
  "id": 5966468137,
  "lat": 50.8707850,
  "lon": 2.9884677
},
{
  "type": "node",
  "id": 5966468138,
  "lat": 50.8708011,
  "lon": 2.9884488
},
{
  "type": "node",
  "id": 5966468139,
  "lat": 50.8708108,
  "lon": 2.9885248
},
{
  "type": "node",
  "id": 1022913211,
  "lat": 50.8930439,
  "lon": 2.9858577
},
{
  "type": "node",
  "id": 1022913225,
  "lat": 50.8928653,
  "lon": 2.9855491
},
{
  "type": "node",
  "id": 1022913280,
  "lat": 50.8928883,
  "lon": 2.9854930
},
{
  "type": "node",
  "id": 1022913286,
  "lat": 50.8929953,
  "lon": 2.9857534
},
{
  "type": "node",
  "id": 1022913319,
  "lat": 50.8930430,
  "lon": 2.9859744
},
{
  "type": "node",
  "id": 1022913331,
  "lat": 50.8930957,
  "lon": 2.9856736
},
{
  "type": "node",
  "id": 1022913357,
  "lat": 50.8928586,
  "lon": 2.9855293
},
{
  "type": "node",
  "id": 1022913443,
  "lat": 50.8927772,
  "lon": 2.9856229
},
{
  "type": "node",
  "id": 1022913509,
  "lat": 50.8928976,
  "lon": 2.9855238
},
{
  "type": "node",
  "id": 1022913531,
  "lat": 50.8930197,
  "lon": 2.9859308
},
{
  "type": "node",
  "id": 1022913576,
  "lat": 50.8930453,
  "lon": 2.9858954
},
{
  "type": "node",
  "id": 1022913609,
  "lat": 50.8929358,
  "lon": 2.9860606
},
{
  "type": "node",
  "id": 1022913632,
  "lat": 50.8929973,
  "lon": 2.9853633
},
{
  "type": "node",
  "id": 1022913669,
  "lat": 50.8930195,
  "lon": 2.9858280
},
{
  "type": "node",
  "id": 3188187315,
  "lat": 50.8928623,
  "lon": 2.9858296
},
{
  "type": "node",
  "id": 3188187316,
  "lat": 50.8928718,
  "lon": 2.9858210
},
{
  "type": "node",
  "id": 3188187320,
  "lat": 50.8930335,
  "lon": 2.9858380
},
{
  "type": "node",
  "id": 3188187321,
  "lat": 50.8930384,
  "lon": 2.9859134
},
{
  "type": "node",
  "id": 5903564101,
  "lat": 50.8930290,
  "lon": 2.9859427
},
{
  "type": "node",
  "id": 5903564102,
  "lat": 50.8930256,
  "lon": 2.9859464
},
{
  "type": "node",
  "id": 5903564103,
  "lat": 50.8930294,
  "lon": 2.9859248
},
{
  "type": "node",
  "id": 5903564104,
  "lat": 50.8930456,
  "lon": 2.9858713
},
{
  "type": "node",
  "id": 5903564105,
  "lat": 50.8930393,
  "lon": 2.9858453
},
{
  "type": "node",
  "id": 5903564106,
  "lat": 50.8930275,
  "lon": 2.9858322
},
{
  "type": "node",
  "id": 5903564107,
  "lat": 50.8930642,
  "lon": 2.9856128
},
{
  "type": "node",
  "id": 5903564108,
  "lat": 50.8930742,
  "lon": 2.9856051
},
{
  "type": "node",
  "id": 5903564109,
  "lat": 50.8930176,
  "lon": 2.9854668
},
{
  "type": "node",
  "id": 5903564110,
  "lat": 50.8930276,
  "lon": 2.9854589
},
{
  "type": "node",
  "id": 5903564111,
  "lat": 50.8928130,
  "lon": 2.9856807
},
{
  "type": "node",
  "id": 5903564112,
  "lat": 50.8928051,
  "lon": 2.9856639
},
{
  "type": "node",
  "id": 5903564113,
  "lat": 50.8927994,
  "lon": 2.9856700
},
{
  "type": "node",
  "id": 5903564114,
  "lat": 50.8928090,
  "lon": 2.9856855
},
{
  "type": "node",
  "id": 1564474710,
  "lat": 50.8885751,
  "lon": 3.0002434
},
{
  "type": "node",
  "id": 2101995554,
  "lat": 50.8885008,
  "lon": 3.0002713
},
{
  "type": "node",
  "id": 2101995564,
  "lat": 50.8883684,
  "lon": 3.0001436
},
{
  "type": "node",
  "id": 2101995572,
  "lat": 50.8883941,
  "lon": 3.0003098
},
{
  "type": "node",
  "id": 3184300819,
  "lat": 50.8885511,
  "lon": 3.0000747
},
{
  "type": "node",
  "id": 1429326819,
  "lat": 50.9439130,
  "lon": 3.1275636
},
{
  "type": "node",
  "id": 1429326825,
  "lat": 50.9443695,
  "lon": 3.1270265
},
{
  "type": "node",
  "id": 1429326827,
  "lat": 50.9443981,
  "lon": 3.1271809
},
{
  "type": "node",
  "id": 2283156525,
  "lat": 50.9443602,
  "lon": 3.1269677
},
{
  "type": "node",
  "id": 2283156526,
  "lat": 50.9444068,
  "lon": 3.1272262
},
{
  "type": "node",
  "id": 5617767547,
  "lat": 50.9438568,
  "lon": 3.1274247
},
{
  "type": "node",
  "id": 5617767549,
  "lat": 50.9438792,
  "lon": 3.1274103
},
{
  "type": "node",
  "id": 5617767550,
  "lat": 50.9438578,
  "lon": 3.1275680
},
{
  "type": "node",
  "id": 5871065708,
  "lat": 50.9443657,
  "lon": 3.1270027
},
{
  "type": "node",
  "id": 5904459539,
  "lat": 50.9444031,
  "lon": 3.1272051
},
{
  "type": "node",
  "id": 6133523423,
  "lat": 50.9442240,
  "lon": 3.1271228
},
{
  "type": "node",
  "id": 6133523424,
  "lat": 50.9442316,
  "lon": 3.1271018
},
{
  "type": "node",
  "id": 6133523425,
  "lat": 50.9442693,
  "lon": 3.1270878
},
{
  "type": "node",
  "id": 6133523426,
  "lat": 50.9442620,
  "lon": 3.1270837
},
{
  "type": "node",
  "id": 6133523427,
  "lat": 50.9442730,
  "lon": 3.1271009
},
{
  "type": "node",
  "id": 6133523428,
  "lat": 50.9442277,
  "lon": 3.1271347
},
{
  "type": "node",
  "id": 661138751,
  "lat": 50.9444758,
  "lon": 3.1271491
},
{
  "type": "node",
  "id": 2283156527,
  "lat": 50.9444418,
  "lon": 3.1269310
},
{
  "type": "node",
  "id": 2283156528,
  "lat": 50.9444789,
  "lon": 3.1271694
},
{
  "type": "node",
  "id": 5286572533,
  "lat": 50.9444560,
  "lon": 3.1271874
},
{
  "type": "node",
  "id": 5904459540,
  "lat": 50.9444473,
  "lon": 3.1269628
},
{
  "type": "node",
  "id": 6133523433,
  "lat": 50.9444706,
  "lon": 3.1270831
},
{
  "type": "node",
  "id": 6133523434,
  "lat": 50.9444692,
  "lon": 3.1270833
},
{
  "type": "node",
  "id": 6133523435,
  "lat": 50.9444726,
  "lon": 3.1270947
},
{
  "type": "node",
  "id": 6133523436,
  "lat": 50.9444713,
  "lon": 3.1270952
},
{
  "type": "node",
  "id": 6133523437,
  "lat": 50.9444725,
  "lon": 3.1271011
},
{
  "type": "node",
  "id": 6133523438,
  "lat": 50.9444705,
  "lon": 3.1271020
},
{
  "type": "node",
  "id": 6133523439,
  "lat": 50.9444727,
  "lon": 3.1271140
},
{
  "type": "node",
  "id": 6133523440,
  "lat": 50.9444695,
  "lon": 3.1271154
},
{
  "type": "node",
  "id": 6133523441,
  "lat": 50.9444578,
  "lon": 3.1270047
},
{
  "type": "node",
  "id": 6133523442,
  "lat": 50.9444566,
  "lon": 3.1270049
},
{
  "type": "node",
  "id": 6133523443,
  "lat": 50.9444557,
  "lon": 3.1269987
},
{
  "type": "node",
  "id": 6133523444,
  "lat": 50.9444536,
  "lon": 3.1269993
},
{
  "type": "node",
  "id": 6133523445,
  "lat": 50.9444399,
  "lon": 3.1269317
},
{
  "type": "node",
  "id": 1241259929,
  "lat": 50.8327708,
  "lon": 3.2690849
},
{
  "type": "node",
  "id": 1241259943,
  "lat": 50.8329967,
  "lon": 3.2688080
},
{
  "type": "node",
  "id": 1241259969,
  "lat": 50.8327591,
  "lon": 3.2689538
},
{
  "type": "node",
  "id": 1241260043,
  "lat": 50.8326684,
  "lon": 3.2696165
},
{
  "type": "node",
  "id": 1241260052,
  "lat": 50.8329503,
  "lon": 3.2686941
},
{
  "type": "node",
  "id": 1241260080,
  "lat": 50.8326339,
  "lon": 3.2693079
},
{
  "type": "node",
  "id": 5547554945,
  "lat": 50.8326587,
  "lon": 3.2695299
},
{
  "type": "node",
  "id": 1241259987,
  "lat": 50.8330761,
  "lon": 3.2694880
},
{
  "type": "node",
  "id": 5547554936,
  "lat": 50.8330500,
  "lon": 3.2692865
},
{
  "type": "node",
  "id": 6997598768,
  "lat": 50.8554827,
  "lon": 3.3102292
},
{
  "type": "node",
  "id": 6997598769,
  "lat": 50.8556091,
  "lon": 3.3104168
},
{
  "type": "node",
  "id": 7063914633,
  "lat": 50.8558212,
  "lon": 3.3098991
},
{
  "type": "node",
  "id": 7063914634,
  "lat": 50.8558349,
  "lon": 3.3099155
},
{
  "type": "node",
  "id": 7063914635,
  "lat": 50.8557140,
  "lon": 3.3101265
},
{
  "type": "node",
  "id": 7063914636,
  "lat": 50.8557367,
  "lon": 3.3101960
},
{
  "type": "node",
  "id": 7063914637,
  "lat": 50.8558764,
  "lon": 3.3099611
},
{
  "type": "node",
  "id": 7063914638,
  "lat": 50.8558850,
  "lon": 3.3099715
},
{
  "type": "node",
  "id": 7063914639,
  "lat": 50.8556239,
  "lon": 3.3099974
},
{
  "type": "node",
  "id": 7063914645,
  "lat": 50.8558016,
  "lon": 3.3099736
},
{
  "type": "node",
  "id": 7063914646,
  "lat": 50.8558815,
  "lon": 3.3097791
},
{
  "type": "node",
  "id": 7063914647,
  "lat": 50.8559450,
  "lon": 3.3098591
},
{
  "type": "node",
  "id": 7064306269,
  "lat": 50.8558492,
  "lon": 3.3100105
},
{
  "type": "node",
  "id": 5645279532,
  "lat": 50.8523930,
  "lon": 3.3551050
},
{
  "type": "node",
  "id": 5645279534,
  "lat": 50.8524059,
  "lon": 3.3552188
},
{
  "type": "node",
  "id": 5645279537,
  "lat": 50.8523179,
  "lon": 3.3551177
},
{
  "type": "node",
  "id": 5645279538,
  "lat": 50.8523456,
  "lon": 3.3551115
},
{
  "type": "node",
  "id": 6959965271,
  "lat": 50.8523301,
  "lon": 3.3552343
},
{
  "type": "node",
  "id": 6959965272,
  "lat": 50.8523454,
  "lon": 3.3551039
},
{
  "type": "node",
  "id": 6959965273,
  "lat": 50.8523721,
  "lon": 3.3550961
},
{
  "type": "node",
  "id": 6959965274,
  "lat": 50.8523726,
  "lon": 3.3551058
},
{
  "type": "node",
  "id": 1116995322,
  "lat": 50.9214858,
  "lon": 3.2120702
},
{
  "type": "node",
  "id": 1116995339,
  "lat": 50.9215746,
  "lon": 3.2117499
},
{
  "type": "node",
  "id": 1116995340,
  "lat": 50.9215767,
  "lon": 3.2121336
},
{
  "type": "node",
  "id": 1116995386,
  "lat": 50.9214858,
  "lon": 3.2116937
},
{
  "type": "node",
  "id": 1116995392,
  "lat": 50.9216418,
  "lon": 3.2118999
},
{
  "type": "node",
  "id": 1116995393,
  "lat": 50.9216655,
  "lon": 3.2118133
},
{
  "type": "node",
  "id": 4080304207,
  "lat": 51.0308620,
  "lon": 2.9604266
},
{
  "type": "node",
  "id": 4080304208,
  "lat": 51.0307004,
  "lon": 2.9605665
},
{
  "type": "node",
  "id": 4080304209,
  "lat": 51.0306966,
  "lon": 2.9605554
},
{
  "type": "node",
  "id": 4080304210,
  "lat": 51.0306325,
  "lon": 2.9606109
},
{
  "type": "node",
  "id": 4080304211,
  "lat": 51.0307861,
  "lon": 2.9610592
},
{
  "type": "node",
  "id": 4080304212,
  "lat": 51.0308351,
  "lon": 2.9610168
},
{
  "type": "node",
  "id": 4080304213,
  "lat": 51.0308222,
  "lon": 2.9609790
},
{
  "type": "node",
  "id": 4080304214,
  "lat": 51.0308460,
  "lon": 2.9609583
},
{
  "type": "node",
  "id": 4080304215,
  "lat": 51.0307415,
  "lon": 2.9606534
},
{
  "type": "node",
  "id": 4080304216,
  "lat": 51.0308959,
  "lon": 2.9605196
},
{
  "type": "node",
  "id": 4080304267,
  "lat": 51.0306394,
  "lon": 2.9606049
},
{
  "type": "node",
  "id": 4080304275,
  "lat": 51.0307737,
  "lon": 2.9606255
},
{
  "type": "node",
  "id": 4080309009,
  "lat": 51.0308054,
  "lon": 2.9608397
},
{
  "type": "node",
  "id": 3777169614,
  "lat": 51.0645122,
  "lon": 3.1036304
},
{
  "type": "node",
  "id": 3777169615,
  "lat": 51.0644308,
  "lon": 3.1037016
},
{
  "type": "node",
  "id": 3777169616,
  "lat": 51.0644618,
  "lon": 3.1038115
},
{
  "type": "node",
  "id": 3777169617,
  "lat": 51.0645454,
  "lon": 3.1037371
},
{
  "type": "node",
  "id": 3777176317,
  "lat": 51.0645360,
  "lon": 3.1037070
},
{
  "type": "node",
  "id": 6196360139,
  "lat": 51.0888528,
  "lon": 2.9777303
},
{
  "type": "node",
  "id": 6196360140,
  "lat": 51.0888794,
  "lon": 2.9778714
},
{
  "type": "node",
  "id": 6196360141,
  "lat": 51.0888603,
  "lon": 2.9778818
},
{
  "type": "node",
  "id": 6196360142,
  "lat": 51.0889450,
  "lon": 2.9783044
},
{
  "type": "node",
  "id": 6196360143,
  "lat": 51.0889675,
  "lon": 2.9782949
},
{
  "type": "node",
  "id": 6196360144,
  "lat": 51.0889455,
  "lon": 2.9781824
},
{
  "type": "node",
  "id": 6196360145,
  "lat": 51.0889931,
  "lon": 2.9781561
},
{
  "type": "node",
  "id": 6196360146,
  "lat": 51.0889445,
  "lon": 2.9779033
},
{
  "type": "node",
  "id": 6196360147,
  "lat": 51.0889535,
  "lon": 2.9778978
},
{
  "type": "node",
  "id": 6196360148,
  "lat": 51.0889585,
  "lon": 2.9779145
},
{
  "type": "node",
  "id": 6196360149,
  "lat": 51.0889640,
  "lon": 2.9779001
},
{
  "type": "node",
  "id": 6196360150,
  "lat": 51.0889655,
  "lon": 2.9778834
},
{
  "type": "node",
  "id": 6196360151,
  "lat": 51.0889665,
  "lon": 2.9778706
},
{
  "type": "node",
  "id": 6196360152,
  "lat": 51.0889655,
  "lon": 2.9778571
},
{
  "type": "node",
  "id": 6196360153,
  "lat": 51.0889635,
  "lon": 2.9778403
},
{
  "type": "node",
  "id": 6196360154,
  "lat": 51.0889671,
  "lon": 2.9778378
},
{
  "type": "node",
  "id": 6196360155,
  "lat": 51.0889645,
  "lon": 2.9778235
},
{
  "type": "node",
  "id": 6196360156,
  "lat": 51.0889609,
  "lon": 2.9778250
},
{
  "type": "node",
  "id": 6196360157,
  "lat": 51.0889582,
  "lon": 2.9778155
},
{
  "type": "node",
  "id": 6196360158,
  "lat": 51.0889558,
  "lon": 2.9778074
},
{
  "type": "node",
  "id": 6196360159,
  "lat": 51.0889528,
  "lon": 2.9778008
},
{
  "type": "node",
  "id": 6196360160,
  "lat": 51.0889505,
  "lon": 2.9777942
},
{
  "type": "node",
  "id": 6196360161,
  "lat": 51.0889439,
  "lon": 2.9777847
},
{
  "type": "node",
  "id": 6196360162,
  "lat": 51.0889377,
  "lon": 2.9777771
},
{
  "type": "node",
  "id": 6196360163,
  "lat": 51.0889275,
  "lon": 2.9777676
},
{
  "type": "node",
  "id": 6196360164,
  "lat": 51.0889320,
  "lon": 2.9777889
},
{
  "type": "node",
  "id": 6196360165,
  "lat": 51.0889234,
  "lon": 2.9777927
},
{
  "type": "node",
  "id": 6196360166,
  "lat": 51.0889049,
  "lon": 2.9777050
},
{
  "type": "node",
  "id": 4061223109,
  "lat": 51.1191990,
  "lon": 2.9806249
},
{
  "type": "node",
  "id": 4061223111,
  "lat": 51.1190798,
  "lon": 2.9806874
},
{
  "type": "node",
  "id": 4061223113,
  "lat": 51.1178771,
  "lon": 2.9817561
},
{
  "type": "node",
  "id": 4061223114,
  "lat": 51.1196805,
  "lon": 2.9817728
},
{
  "type": "node",
  "id": 4061223117,
  "lat": 51.1191619,
  "lon": 2.9808375
},
{
  "type": "node",
  "id": 4061223120,
  "lat": 51.1197647,
  "lon": 2.9817246
},
{
  "type": "node",
  "id": 4061223121,
  "lat": 51.1201654,
  "lon": 2.9814402
},
{
  "type": "node",
  "id": 4061223122,
  "lat": 51.1199398,
  "lon": 2.9806731
},
{
  "type": "node",
  "id": 4061223123,
  "lat": 51.1195560,
  "lon": 2.9809789
},
{
  "type": "node",
  "id": 4061223124,
  "lat": 51.1195930,
  "lon": 2.9811291
},
{
  "type": "node",
  "id": 4061223125,
  "lat": 51.1193708,
  "lon": 2.9812739
},
{
  "type": "node",
  "id": 4061223126,
  "lat": 51.1177781,
  "lon": 2.9813769
},
{
  "type": "node",
  "id": 5797031458,
  "lat": 51.1197702,
  "lon": 2.9809495
},
{
  "type": "node",
  "id": 5797031459,
  "lat": 51.1197441,
  "lon": 2.9809871
},
{
  "type": "node",
  "id": 5797031460,
  "lat": 51.1197239,
  "lon": 2.9810380
},
{
  "type": "node",
  "id": 5797031461,
  "lat": 51.1197155,
  "lon": 2.9810823
},
{
  "type": "node",
  "id": 5797031462,
  "lat": 51.1197172,
  "lon": 2.9811480
},
{
  "type": "node",
  "id": 5797031463,
  "lat": 51.1197281,
  "lon": 2.9811990
},
{
  "type": "node",
  "id": 5797031464,
  "lat": 51.1197037,
  "lon": 2.9812231
},
{
  "type": "node",
  "id": 5797031465,
  "lat": 51.1197256,
  "lon": 2.9813009
},
{
  "type": "node",
  "id": 5797031466,
  "lat": 51.1197593,
  "lon": 2.9812741
},
{
  "type": "node",
  "id": 5797031467,
  "lat": 51.1197778,
  "lon": 2.9812995
},
{
  "type": "node",
  "id": 5797031468,
  "lat": 51.1198089,
  "lon": 2.9813183
},
{
  "type": "node",
  "id": 5797031469,
  "lat": 51.1198426,
  "lon": 2.9813277
},
{
  "type": "node",
  "id": 5797031470,
  "lat": 51.1198797,
  "lon": 2.9813170
},
{
  "type": "node",
  "id": 5797031471,
  "lat": 51.1199100,
  "lon": 2.9812995
},
{
  "type": "node",
  "id": 5797031472,
  "lat": 51.1199453,
  "lon": 2.9812459
},
{
  "type": "node",
  "id": 5797031473,
  "lat": 51.1199622,
  "lon": 2.9811963
},
{
  "type": "node",
  "id": 5797031474,
  "lat": 51.1199689,
  "lon": 2.9811373
},
{
  "type": "node",
  "id": 5797031475,
  "lat": 51.1199689,
  "lon": 2.9810850
},
{
  "type": "node",
  "id": 5797031476,
  "lat": 51.1199579,
  "lon": 2.9810260
},
{
  "type": "node",
  "id": 5797031477,
  "lat": 51.1199411,
  "lon": 2.9809804
},
{
  "type": "node",
  "id": 5797031478,
  "lat": 51.1199108,
  "lon": 2.9809441
},
{
  "type": "node",
  "id": 5797031479,
  "lat": 51.1198754,
  "lon": 2.9809187
},
{
  "type": "node",
  "id": 5797031480,
  "lat": 51.1198384,
  "lon": 2.9809133
},
{
  "type": "node",
  "id": 5797031481,
  "lat": 51.1198022,
  "lon": 2.9809200
},
{
  "type": "node",
  "id": 5797031482,
  "lat": 51.1197340,
  "lon": 2.9810125
},
{
  "type": "node",
  "id": 5797031485,
  "lat": 51.1172564,
  "lon": 2.9817404
},
{
  "type": "node",
  "id": 5797031487,
  "lat": 51.1175192,
  "lon": 2.9817555
},
{
  "type": "node",
  "id": 5797031488,
  "lat": 51.1174753,
  "lon": 2.9815879
},
{
  "type": "node",
  "id": 5797031489,
  "lat": 51.1174855,
  "lon": 2.9818387
},
{
  "type": "node",
  "id": 5797031492,
  "lat": 51.1176354,
  "lon": 2.9817448
},
{
  "type": "node",
  "id": 5797031504,
  "lat": 51.1175013,
  "lon": 2.9815765
},
{
  "type": "node",
  "id": 5797031505,
  "lat": 51.1175308,
  "lon": 2.9817032
},
{
  "type": "node",
  "id": 5797031506,
  "lat": 51.1175522,
  "lon": 2.9816932
},
{
  "type": "node",
  "id": 5797031507,
  "lat": 51.1175590,
  "lon": 2.9817314
},
{
  "type": "node",
  "id": 5797031508,
  "lat": 51.1176023,
  "lon": 2.9817072
},
{
  "type": "node",
  "id": 5797031509,
  "lat": 51.1175888,
  "lon": 2.9816449
},
{
  "type": "node",
  "id": 5797031510,
  "lat": 51.1175775,
  "lon": 2.9816502
},
{
  "type": "node",
  "id": 5797031511,
  "lat": 51.1175526,
  "lon": 2.9815443
},
{
  "type": "node",
  "id": 5797031512,
  "lat": 51.1175825,
  "lon": 2.9815369
},
{
  "type": "node",
  "id": 5797031513,
  "lat": 51.1176048,
  "lon": 2.9816227
},
{
  "type": "node",
  "id": 5797031514,
  "lat": 51.1177833,
  "lon": 2.9815074
},
{
  "type": "node",
  "id": 5797031515,
  "lat": 51.1177606,
  "lon": 2.9814236
},
{
  "type": "node",
  "id": 5797031516,
  "lat": 51.1176437,
  "lon": 2.9815976
},
{
  "type": "node",
  "id": 5797031532,
  "lat": 51.1178749,
  "lon": 2.9818769
},
{
  "type": "node",
  "id": 1667087827,
  "lat": 51.1168390,
  "lon": 2.9826825
},
{
  "type": "node",
  "id": 1667087870,
  "lat": 51.1179435,
  "lon": 2.9820586
},
{
  "type": "node",
  "id": 1667088144,
  "lat": 51.1167099,
  "lon": 2.9821213
},
{
  "type": "node",
  "id": 4061223112,
  "lat": 51.1179136,
  "lon": 2.9819015
},
{
  "type": "node",
  "id": 4061223118,
  "lat": 51.1194083,
  "lon": 2.9819728
},
{
  "type": "node",
  "id": 5797031486,
  "lat": 51.1172885,
  "lon": 2.9819044
},
{
  "type": "node",
  "id": 5797031490,
  "lat": 51.1175199,
  "lon": 2.9819914
},
{
  "type": "node",
  "id": 5797031491,
  "lat": 51.1176728,
  "lon": 2.9818972
},
{
  "type": "node",
  "id": 5797031493,
  "lat": 51.1170688,
  "lon": 2.9819634
},
{
  "type": "node",
  "id": 5797031494,
  "lat": 51.1171232,
  "lon": 2.9822358
},
{
  "type": "node",
  "id": 5797031495,
  "lat": 51.1171740,
  "lon": 2.9824650
},
{
  "type": "node",
  "id": 5797031496,
  "lat": 51.1168811,
  "lon": 2.9826232
},
{
  "type": "node",
  "id": 5797031497,
  "lat": 51.1168474,
  "lon": 2.9824663
},
{
  "type": "node",
  "id": 5797031498,
  "lat": 51.1168583,
  "lon": 2.9824395
},
{
  "type": "node",
  "id": 5797031499,
  "lat": 51.1168979,
  "lon": 2.9824167
},
{
  "type": "node",
  "id": 5797031500,
  "lat": 51.1168870,
  "lon": 2.9823483
},
{
  "type": "node",
  "id": 5797031501,
  "lat": 51.1168314,
  "lon": 2.9823711
},
{
  "type": "node",
  "id": 5797031502,
  "lat": 51.1167851,
  "lon": 2.9821431
},
{
  "type": "node",
  "id": 5797031503,
  "lat": 51.1168931,
  "lon": 2.9823776
},
{
  "type": "node",
  "id": 5797031533,
  "lat": 51.1179068,
  "lon": 2.9820244
},
{
  "type": "node",
  "id": 5797031534,
  "lat": 51.1177090,
  "lon": 2.9821464
},
{
  "type": "node",
  "id": 5797031535,
  "lat": 51.1176939,
  "lon": 2.9820754
},
{
  "type": "node",
  "id": 5797031536,
  "lat": 51.1177477,
  "lon": 2.9820445
},
{
  "type": "node",
  "id": 5797031537,
  "lat": 51.1177301,
  "lon": 2.9819560
},
{
  "type": "node",
  "id": 5797031538,
  "lat": 51.1176568,
  "lon": 2.9819600
},
{
  "type": "node",
  "id": 5797031539,
  "lat": 51.1176922,
  "lon": 2.9821049
},
{
  "type": "node",
  "id": 5797031540,
  "lat": 51.1176173,
  "lon": 2.9821531
},
{
  "type": "node",
  "id": 5797031541,
  "lat": 51.1175811,
  "lon": 2.9820097
},
{
  "type": "node",
  "id": 1393657062,
  "lat": 51.1587462,
  "lon": 2.9745435
},
{
  "type": "node",
  "id": 1393657089,
  "lat": 51.1588232,
  "lon": 2.9748543
},
{
  "type": "node",
  "id": 1393657101,
  "lat": 51.1588154,
  "lon": 2.9744999
},
{
  "type": "node",
  "id": 1393657106,
  "lat": 51.1588924,
  "lon": 2.9748107
},
{
  "type": "node",
  "id": 1041042726,
  "lat": 51.1779920,
  "lon": 3.0986676
},
{
  "type": "node",
  "id": 1041042728,
  "lat": 51.1790322,
  "lon": 3.0988883
},
{
  "type": "node",
  "id": 1041042739,
  "lat": 51.1787372,
  "lon": 3.0994439
},
{
  "type": "node",
  "id": 1041042760,
  "lat": 51.1787800,
  "lon": 3.0987953
},
{
  "type": "node",
  "id": 1041042769,
  "lat": 51.1795242,
  "lon": 3.0993906
},
{
  "type": "node",
  "id": 1041042782,
  "lat": 51.1789757,
  "lon": 3.0994900
},
{
  "type": "node",
  "id": 1971393973,
  "lat": 51.1794640,
  "lon": 3.0998116
},
{
  "type": "node",
  "id": 3350363186,
  "lat": 51.1779168,
  "lon": 3.0994348
},
{
  "type": "node",
  "id": 3350363249,
  "lat": 51.1785582,
  "lon": 3.0987333
},
{
  "type": "node",
  "id": 3350363282,
  "lat": 51.1792073,
  "lon": 3.0990077
},
{
  "type": "node",
  "id": 1041042761,
  "lat": 51.1778682,
  "lon": 3.1000132
},
{
  "type": "node",
  "id": 1041042763,
  "lat": 51.1793181,
  "lon": 3.1008892
},
{
  "type": "node",
  "id": 1041042773,
  "lat": 51.1784037,
  "lon": 3.1001490
},
{
  "type": "node",
  "id": 1041042784,
  "lat": 51.1788082,
  "lon": 3.1004400
},
{
  "type": "node",
  "id": 3350363216,
  "lat": 51.1783640,
  "lon": 3.1003370
},
{
  "type": "node",
  "id": 6916128268,
  "lat": 51.1787802,
  "lon": 3.1007605
},
{
  "type": "node",
  "id": 6916150212,
  "lat": 51.1790821,
  "lon": 3.1002559
},
{
  "type": "node",
  "id": 6916150213,
  "lat": 51.1792017,
  "lon": 3.1002764
},
{
  "type": "node",
  "id": 6916150214,
  "lat": 51.1792140,
  "lon": 3.1000958
},
{
  "type": "node",
  "id": 6916150215,
  "lat": 51.1792354,
  "lon": 3.1000992
},
{
  "type": "node",
  "id": 6916150216,
  "lat": 51.1792432,
  "lon": 3.0999855
},
{
  "type": "node",
  "id": 6916150217,
  "lat": 51.1791846,
  "lon": 3.0999745
},
{
  "type": "node",
  "id": 6916150218,
  "lat": 51.1791894,
  "lon": 3.0999020
},
{
  "type": "node",
  "id": 6916150219,
  "lat": 51.1791100,
  "lon": 3.0998886
},
{
  "type": "node",
  "id": 1231571075,
  "lat": 51.1145862,
  "lon": 3.2952028
},
{
  "type": "node",
  "id": 1231571212,
  "lat": 51.1144784,
  "lon": 3.2941821
},
{
  "type": "node",
  "id": 1232854377,
  "lat": 51.1146396,
  "lon": 3.2950863
},
{
  "type": "node",
  "id": 1232854394,
  "lat": 51.1145351,
  "lon": 3.2947073
},
{
  "type": "node",
  "id": 1232854438,
  "lat": 51.1145965,
  "lon": 3.2946882
},
{
  "type": "node",
  "id": 1232854485,
  "lat": 51.1145511,
  "lon": 3.2942474
},
{
  "type": "node",
  "id": 1232854754,
  "lat": 51.1145253,
  "lon": 3.2946262
},
{
  "type": "node",
  "id": 1232854822,
  "lat": 51.1145881,
  "lon": 3.2946118
},
{
  "type": "node",
  "id": 1231570778,
  "lat": 51.1155569,
  "lon": 3.2934392
},
{
  "type": "node",
  "id": 1232854766,
  "lat": 51.1155336,
  "lon": 3.2949199
},
{
  "type": "node",
  "id": 1232854829,
  "lat": 51.1154957,
  "lon": 3.2948658
},
{
  "type": "node",
  "id": 2536910112,
  "lat": 51.1155811,
  "lon": 3.2935314
},
{
  "type": "node",
  "id": 5212963864,
  "lat": 51.1152170,
  "lon": 3.2950394
},
{
  "type": "node",
  "id": 5212963894,
  "lat": 51.1155010,
  "lon": 3.2949271
},
{
  "type": "node",
  "id": 5212963923,
  "lat": 51.1155349,
  "lon": 3.2949571
},
{
  "type": "node",
  "id": 826624258,
  "lat": 51.1890358,
  "lon": 2.8179291
},
{
  "type": "node",
  "id": 2415196959,
  "lat": 51.1887441,
  "lon": 2.8176634
},
{
  "type": "node",
  "id": 2415196961,
  "lat": 51.1888675,
  "lon": 2.8175307
},
{
  "type": "node",
  "id": 2415196962,
  "lat": 51.1889068,
  "lon": 2.8180603
},
{
  "type": "node",
  "id": 405785621,
  "lat": 51.1986151,
  "lon": 2.8486504
},
{
  "type": "node",
  "id": 405785623,
  "lat": 51.1986639,
  "lon": 2.8493194
},
{
  "type": "node",
  "id": 405785624,
  "lat": 51.1984487,
  "lon": 2.8488403
},
{
  "type": "node",
  "id": 405785626,
  "lat": 51.1989187,
  "lon": 2.8490271
},
{
  "type": "node",
  "id": 1510087968,
  "lat": 51.1985307,
  "lon": 2.8487474
},
{
  "type": "node",
  "id": 7102034336,
  "lat": 51.1988566,
  "lon": 2.8488903
},
{
  "type": "node",
  "id": 7102034337,
  "lat": 51.1987688,
  "lon": 2.8489899
},
{
  "type": "node",
  "id": 1263294188,
  "lat": 51.2293403,
  "lon": 2.9239189
},
{
  "type": "node",
  "id": 1263294192,
  "lat": 51.2294528,
  "lon": 2.9239859
},
{
  "type": "node",
  "id": 1263294195,
  "lat": 51.2294948,
  "lon": 2.9238357
},
{
  "type": "node",
  "id": 1263294197,
  "lat": 51.2296997,
  "lon": 2.9238679
},
{
  "type": "node",
  "id": 1263294198,
  "lat": 51.2293991,
  "lon": 2.9238438
},
{
  "type": "node",
  "id": 1263294200,
  "lat": 51.2295687,
  "lon": 2.9239779
},
{
  "type": "node",
  "id": 1263294202,
  "lat": 51.2293873,
  "lon": 2.9239752
},
{
  "type": "node",
  "id": 1263294203,
  "lat": 51.2293470,
  "lon": 2.9239618
},
{
  "type": "node",
  "id": 1263294207,
  "lat": 51.2297034,
  "lon": 2.9239384
},
{
  "type": "node",
  "id": 1263294209,
  "lat": 51.2293621,
  "lon": 2.9238545
},
{
  "type": "node",
  "id": 1263294210,
  "lat": 51.2295167,
  "lon": 2.9239832
},
{
  "type": "node",
  "id": 1263294213,
  "lat": 51.2296527,
  "lon": 2.9238465
},
{
  "type": "node",
  "id": 1263294215,
  "lat": 51.2297098,
  "lon": 2.9239001
},
{
  "type": "node",
  "id": 1263294217,
  "lat": 51.2296225,
  "lon": 2.9239618
},
{
  "type": "node",
  "id": 1263294220,
  "lat": 51.2293437,
  "lon": 2.9238840
},
{
  "type": "node",
  "id": 3681415330,
  "lat": 51.3153766,
  "lon": 3.1319163
},
{
  "type": "node",
  "id": 3681415331,
  "lat": 51.3154772,
  "lon": 3.1320628
},
{
  "type": "node",
  "id": 3681415332,
  "lat": 51.3154720,
  "lon": 3.1317996
},
{
  "type": "node",
  "id": 3681415333,
  "lat": 51.3155533,
  "lon": 3.1319667
},
{
  "type": "node",
  "id": 3693434309,
  "lat": 51.3154367,
  "lon": 3.1320032
},
{
  "type": "node",
  "id": 1070742725,
  "lat": 51.2017082,
  "lon": 3.2237188
},
{
  "type": "node",
  "id": 1070758173,
  "lat": 51.2042351,
  "lon": 3.2232218
},
{
  "type": "node",
  "id": 1070758205,
  "lat": 51.2042519,
  "lon": 3.2233233
},
{
  "type": "node",
  "id": 1070758260,
  "lat": 51.2040173,
  "lon": 3.2234538
},
{
  "type": "node",
  "id": 1070758304,
  "lat": 51.2040317,
  "lon": 3.2234880
},
{
  "type": "node",
  "id": 1070758353,
  "lat": 51.2042492,
  "lon": 3.2232554
},
{
  "type": "node",
  "id": 1070758383,
  "lat": 51.2042316,
  "lon": 3.2232743
},
{
  "type": "node",
  "id": 1070758425,
  "lat": 51.2040497,
  "lon": 3.2234691
},
{
  "type": "node",
  "id": 1070758435,
  "lat": 51.2040694,
  "lon": 3.2235179
},
{
  "type": "node",
  "id": 1398745756,
  "lat": 51.2046215,
  "lon": 3.2237191
},
{
  "type": "node",
  "id": 1594431115,
  "lat": 51.2047270,
  "lon": 3.2235768
},
{
  "type": "node",
  "id": 2273712919,
  "lat": 51.2043924,
  "lon": 3.2233364
},
{
  "type": "node",
  "id": 2273712921,
  "lat": 51.2044504,
  "lon": 3.2234514
},
{
  "type": "node",
  "id": 2273712922,
  "lat": 51.2044777,
  "lon": 3.2234118
},
{
  "type": "node",
  "id": 2273712923,
  "lat": 51.2044969,
  "lon": 3.2236308
},
{
  "type": "node",
  "id": 2273712924,
  "lat": 51.2045750,
  "lon": 3.2235267
},
{
  "type": "node",
  "id": 2273712926,
  "lat": 51.2045719,
  "lon": 3.2237762
},
{
  "type": "node",
  "id": 2273712927,
  "lat": 51.2046531,
  "lon": 3.2230162
},
{
  "type": "node",
  "id": 2273712928,
  "lat": 51.2048559,
  "lon": 3.2233305
},
{
  "type": "node",
  "id": 2305059327,
  "lat": 51.2044897,
  "lon": 3.2236801
},
{
  "type": "node",
  "id": 2305059340,
  "lat": 51.2037324,
  "lon": 3.2238752
},
{
  "type": "node",
  "id": 2305059344,
  "lat": 51.2044332,
  "lon": 3.2235117
},
{
  "type": "node",
  "id": 2305059348,
  "lat": 51.2040227,
  "lon": 3.2235758
},
{
  "type": "node",
  "id": 2305059365,
  "lat": 51.2042244,
  "lon": 3.2241215
},
{
  "type": "node",
  "id": 2305059366,
  "lat": 51.2044138,
  "lon": 3.2237769
},
{
  "type": "node",
  "id": 2305059372,
  "lat": 51.2042113,
  "lon": 3.2239644
},
{
  "type": "node",
  "id": 2305059383,
  "lat": 51.2042600,
  "lon": 3.2240835
},
{
  "type": "node",
  "id": 2305059390,
  "lat": 51.2044585,
  "lon": 3.2238919
},
{
  "type": "node",
  "id": 2305059401,
  "lat": 51.2041497,
  "lon": 3.2237439
},
{
  "type": "node",
  "id": 2305059402,
  "lat": 51.2041464,
  "lon": 3.2242137
},
{
  "type": "node",
  "id": 2305059406,
  "lat": 51.2040389,
  "lon": 3.2243077
},
{
  "type": "node",
  "id": 2305059408,
  "lat": 51.2044734,
  "lon": 3.2236020
},
{
  "type": "node",
  "id": 2305059412,
  "lat": 51.2042586,
  "lon": 3.2240723
},
{
  "type": "node",
  "id": 2305059424,
  "lat": 51.2041999,
  "lon": 3.2237670
},
{
  "type": "node",
  "id": 2505416181,
  "lat": 51.2038087,
  "lon": 3.2240577
},
{
  "type": "node",
  "id": 2510194101,
  "lat": 51.2017207,
  "lon": 3.2237231
},
{
  "type": "node",
  "id": 2510194187,
  "lat": 51.2017101,
  "lon": 3.2236373
},
{
  "type": "node",
  "id": 2510203556,
  "lat": 51.2015899,
  "lon": 3.2236616
},
{
  "type": "node",
  "id": 2510203561,
  "lat": 51.2015104,
  "lon": 3.2236642
},
{
  "type": "node",
  "id": 2510203565,
  "lat": 51.2017033,
  "lon": 3.2235711
},
{
  "type": "node",
  "id": 2510203568,
  "lat": 51.2016006,
  "lon": 3.2237488
},
{
  "type": "node",
  "id": 2510203608,
  "lat": 51.2016228,
  "lon": 3.2236075
},
{
  "type": "node",
  "id": 2510203612,
  "lat": 51.2015143,
  "lon": 3.2236998
},
{
  "type": "node",
  "id": 2638956211,
  "lat": 51.2047712,
  "lon": 3.2232150
},
{
  "type": "node",
  "id": 4600671053,
  "lat": 51.2038736,
  "lon": 3.2243438
},
{
  "type": "node",
  "id": 4973717803,
  "lat": 51.2038080,
  "lon": 3.2237732
},
{
  "type": "node",
  "id": 4973717804,
  "lat": 51.2038139,
  "lon": 3.2237898
},
{
  "type": "node",
  "id": 4973717805,
  "lat": 51.2038156,
  "lon": 3.2237663
},
{
  "type": "node",
  "id": 4973717806,
  "lat": 51.2038213,
  "lon": 3.2237823
},
{
  "type": "node",
  "id": 4973717807,
  "lat": 51.2038381,
  "lon": 3.2237581
},
{
  "type": "node",
  "id": 4973717808,
  "lat": 51.2038399,
  "lon": 3.2237338
},
{
  "type": "node",
  "id": 4973717809,
  "lat": 51.2038400,
  "lon": 3.2237628
},
{
  "type": "node",
  "id": 4973717811,
  "lat": 51.2039237,
  "lon": 3.2236651
},
{
  "type": "node",
  "id": 4973717812,
  "lat": 51.2039276,
  "lon": 3.2236745
},
{
  "type": "node",
  "id": 4973717818,
  "lat": 51.2039518,
  "lon": 3.2236372
},
{
  "type": "node",
  "id": 4973717820,
  "lat": 51.2039550,
  "lon": 3.2236450
},
{
  "type": "node",
  "id": 4973719155,
  "lat": 51.2041535,
  "lon": 3.2237530
},
{
  "type": "node",
  "id": 4973719156,
  "lat": 51.2041547,
  "lon": 3.2238545
},
{
  "type": "node",
  "id": 4973719157,
  "lat": 51.2041559,
  "lon": 3.2238452
},
{
  "type": "node",
  "id": 4973719159,
  "lat": 51.2041568,
  "lon": 3.2237494
},
{
  "type": "node",
  "id": 4973719161,
  "lat": 51.2041590,
  "lon": 3.2238420
},
{
  "type": "node",
  "id": 4973719162,
  "lat": 51.2041600,
  "lon": 3.2238448
},
{
  "type": "node",
  "id": 4973719163,
  "lat": 51.2041608,
  "lon": 3.2238440
},
{
  "type": "node",
  "id": 4973719165,
  "lat": 51.2041810,
  "lon": 3.2238208
},
{
  "type": "node",
  "id": 4973719167,
  "lat": 51.2041817,
  "lon": 3.2242130
},
{
  "type": "node",
  "id": 4973719168,
  "lat": 51.2041818,
  "lon": 3.2238232
},
{
  "type": "node",
  "id": 4973719169,
  "lat": 51.2041824,
  "lon": 3.2238281
},
{
  "type": "node",
  "id": 4973719170,
  "lat": 51.2041832,
  "lon": 3.2232804
},
{
  "type": "node",
  "id": 4973719171,
  "lat": 51.2041843,
  "lon": 3.2238177
},
{
  "type": "node",
  "id": 4973719172,
  "lat": 51.2041855,
  "lon": 3.2238252
},
{
  "type": "node",
  "id": 4973719174,
  "lat": 51.2041867,
  "lon": 3.2234170
},
{
  "type": "node",
  "id": 4973719177,
  "lat": 51.2046882,
  "lon": 3.2233790
},
{
  "type": "node",
  "id": 4973719178,
  "lat": 51.2046927,
  "lon": 3.2233235
},
{
  "type": "node",
  "id": 4973719180,
  "lat": 51.2046937,
  "lon": 3.2230631
},
{
  "type": "node",
  "id": 4973719181,
  "lat": 51.2046952,
  "lon": 3.2231324
},
{
  "type": "node",
  "id": 4973719182,
  "lat": 51.2046970,
  "lon": 3.2231519
},
{
  "type": "node",
  "id": 4973719184,
  "lat": 51.2046984,
  "lon": 3.2231562
},
{
  "type": "node",
  "id": 4973719480,
  "lat": 51.2038635,
  "lon": 3.2237094
},
{
  "type": "node",
  "id": 4973719481,
  "lat": 51.2038685,
  "lon": 3.2237220
},
{
  "type": "node",
  "id": 4973719482,
  "lat": 51.2038785,
  "lon": 3.2237277
},
{
  "type": "node",
  "id": 4973719483,
  "lat": 51.2038801,
  "lon": 3.2237313
},
{
  "type": "node",
  "id": 4973719484,
  "lat": 51.2039066,
  "lon": 3.2236672
},
{
  "type": "node",
  "id": 4973719485,
  "lat": 51.2039098,
  "lon": 3.2236974
},
{
  "type": "node",
  "id": 4973719486,
  "lat": 51.2039111,
  "lon": 3.2237010
},
{
  "type": "node",
  "id": 4973719487,
  "lat": 51.2039115,
  "lon": 3.2236796
},
{
  "type": "node",
  "id": 4973719488,
  "lat": 51.2039177,
  "lon": 3.2236559
},
{
  "type": "node",
  "id": 4973719489,
  "lat": 51.2039222,
  "lon": 3.2236668
},
{
  "type": "node",
  "id": 4973719490,
  "lat": 51.2039590,
  "lon": 3.2236299
},
{
  "type": "node",
  "id": 4973719491,
  "lat": 51.2039625,
  "lon": 3.2236383
},
{
  "type": "node",
  "id": 4973719492,
  "lat": 51.2039949,
  "lon": 3.2235927
},
{
  "type": "node",
  "id": 4973719493,
  "lat": 51.2039983,
  "lon": 3.2236011
},
{
  "type": "node",
  "id": 4973719495,
  "lat": 51.2040021,
  "lon": 3.2235854
},
{
  "type": "node",
  "id": 4973719496,
  "lat": 51.2040055,
  "lon": 3.2235936
},
{
  "type": "node",
  "id": 4973719499,
  "lat": 51.2040288,
  "lon": 3.2235912
},
{
  "type": "node",
  "id": 4973719500,
  "lat": 51.2040604,
  "lon": 3.2236476
},
{
  "type": "node",
  "id": 4973719501,
  "lat": 51.2040677,
  "lon": 3.2242792
},
{
  "type": "node",
  "id": 4973719502,
  "lat": 51.2040682,
  "lon": 3.2236955
},
{
  "type": "node",
  "id": 4973719503,
  "lat": 51.2040699,
  "lon": 3.2233959
},
{
  "type": "node",
  "id": 4973719504,
  "lat": 51.2040720,
  "lon": 3.2232904
},
{
  "type": "node",
  "id": 4973719505,
  "lat": 51.2040726,
  "lon": 3.2237071
},
{
  "type": "node",
  "id": 4973719506,
  "lat": 51.2040742,
  "lon": 3.2242980
},
{
  "type": "node",
  "id": 4973719507,
  "lat": 51.2040743,
  "lon": 3.2232594
},
{
  "type": "node",
  "id": 4973719508,
  "lat": 51.2040746,
  "lon": 3.2232967
},
{
  "type": "node",
  "id": 4973719509,
  "lat": 51.2040761,
  "lon": 3.2236880
},
{
  "type": "node",
  "id": 4973719510,
  "lat": 51.2041152,
  "lon": 3.2237918
},
{
  "type": "node",
  "id": 4973719512,
  "lat": 51.2041191,
  "lon": 3.2232401
},
{
  "type": "node",
  "id": 4973719513,
  "lat": 51.2041200,
  "lon": 3.2238048
},
{
  "type": "node",
  "id": 4973719514,
  "lat": 51.2041223,
  "lon": 3.2232471
},
{
  "type": "node",
  "id": 4973719519,
  "lat": 51.2041268,
  "lon": 3.2242271
},
{
  "type": "node",
  "id": 4973719521,
  "lat": 51.2040334,
  "lon": 3.2236027
},
{
  "type": "node",
  "id": 4973719525,
  "lat": 51.2040371,
  "lon": 3.2235833
},
{
  "type": "node",
  "id": 4973719526,
  "lat": 51.2040414,
  "lon": 3.2235948
},
{
  "type": "node",
  "id": 4973719527,
  "lat": 51.2040421,
  "lon": 3.2233288
},
{
  "type": "node",
  "id": 4973719528,
  "lat": 51.2040483,
  "lon": 3.2236434
},
{
  "type": "node",
  "id": 4973719529,
  "lat": 51.2040527,
  "lon": 3.2236557
},
{
  "type": "node",
  "id": 4973719530,
  "lat": 51.2040560,
  "lon": 3.2236364
},
{
  "type": "node",
  "id": 4973719532,
  "lat": 51.2040804,
  "lon": 3.2236989
},
{
  "type": "node",
  "id": 4973719533,
  "lat": 51.2040878,
  "lon": 3.2237480
},
{
  "type": "node",
  "id": 4973719535,
  "lat": 51.2040920,
  "lon": 3.2237599
},
{
  "type": "node",
  "id": 4973719536,
  "lat": 51.2040957,
  "lon": 3.2237407
},
{
  "type": "node",
  "id": 4973719537,
  "lat": 51.2040994,
  "lon": 3.2232321
},
{
  "type": "node",
  "id": 4973719538,
  "lat": 51.2041002,
  "lon": 3.2237522
},
{
  "type": "node",
  "id": 4973719540,
  "lat": 51.2041063,
  "lon": 3.2237995
},
{
  "type": "node",
  "id": 4973719542,
  "lat": 51.2041334,
  "lon": 3.2242452
},
{
  "type": "node",
  "id": 4973719543,
  "lat": 51.2041356,
  "lon": 3.2237904
},
{
  "type": "node",
  "id": 4973719544,
  "lat": 51.2041419,
  "lon": 3.2234397
},
{
  "type": "node",
  "id": 4973719546,
  "lat": 51.2041451,
  "lon": 3.2242101
},
{
  "type": "node",
  "id": 4973719547,
  "lat": 51.2041491,
  "lon": 3.2234570
},
{
  "type": "node",
  "id": 4973719550,
  "lat": 51.2041532,
  "lon": 3.2232091
},
{
  "type": "node",
  "id": 4973719552,
  "lat": 51.2041622,
  "lon": 3.2238478
},
{
  "type": "node",
  "id": 4973719553,
  "lat": 51.2041659,
  "lon": 3.2238846
},
{
  "type": "node",
  "id": 4973719555,
  "lat": 51.2041737,
  "lon": 3.2238761
},
{
  "type": "node",
  "id": 4973719558,
  "lat": 51.2041783,
  "lon": 3.2237136
},
{
  "type": "node",
  "id": 4973719559,
  "lat": 51.2041796,
  "lon": 3.2233999
},
{
  "type": "node",
  "id": 4973719560,
  "lat": 51.2041808,
  "lon": 3.2238244
},
{
  "type": "node",
  "id": 4973719564,
  "lat": 51.2042124,
  "lon": 3.2241792
},
{
  "type": "node",
  "id": 4973719565,
  "lat": 51.2042151,
  "lon": 3.2238994
},
{
  "type": "node",
  "id": 4973719566,
  "lat": 51.2042160,
  "lon": 3.2238984
},
{
  "type": "node",
  "id": 4973719567,
  "lat": 51.2042192,
  "lon": 3.2238117
},
{
  "type": "node",
  "id": 4973719568,
  "lat": 51.2042268,
  "lon": 3.2241289
},
{
  "type": "node",
  "id": 4973719569,
  "lat": 51.2042324,
  "lon": 3.2239414
},
{
  "type": "node",
  "id": 4973719570,
  "lat": 51.2042442,
  "lon": 3.2238698
},
{
  "type": "node",
  "id": 4973719575,
  "lat": 51.2043650,
  "lon": 3.2238034
},
{
  "type": "node",
  "id": 4973719581,
  "lat": 51.2044355,
  "lon": 3.2232792
},
{
  "type": "node",
  "id": 4973719582,
  "lat": 51.2044725,
  "lon": 3.2237069
},
{
  "type": "node",
  "id": 4973719583,
  "lat": 51.2044731,
  "lon": 3.2232275
},
{
  "type": "node",
  "id": 4973719584,
  "lat": 51.2044737,
  "lon": 3.2232288
},
{
  "type": "node",
  "id": 4973719585,
  "lat": 51.2044894,
  "lon": 3.2236490
},
{
  "type": "node",
  "id": 4973719586,
  "lat": 51.2044981,
  "lon": 3.2236345
},
{
  "type": "node",
  "id": 4973719587,
  "lat": 51.2045171,
  "lon": 3.2231723
},
{
  "type": "node",
  "id": 4973719588,
  "lat": 51.2045214,
  "lon": 3.2234851
},
{
  "type": "node",
  "id": 4973719589,
  "lat": 51.2045306,
  "lon": 3.2231984
},
{
  "type": "node",
  "id": 4973719590,
  "lat": 51.2045325,
  "lon": 3.2231962
},
{
  "type": "node",
  "id": 4973719591,
  "lat": 51.2046074,
  "lon": 3.2232463
},
{
  "type": "node",
  "id": 4973719592,
  "lat": 51.2046153,
  "lon": 3.2230488
},
{
  "type": "node",
  "id": 4973719593,
  "lat": 51.2046203,
  "lon": 3.2230589
},
{
  "type": "node",
  "id": 4973719594,
  "lat": 51.2046302,
  "lon": 3.2234182
},
{
  "type": "node",
  "id": 4973719595,
  "lat": 51.2046325,
  "lon": 3.2232111
},
{
  "type": "node",
  "id": 4973719596,
  "lat": 51.2046414,
  "lon": 3.2234419
},
{
  "type": "node",
  "id": 4973719597,
  "lat": 51.2046616,
  "lon": 3.2230343
},
{
  "type": "node",
  "id": 4973719598,
  "lat": 51.2046732,
  "lon": 3.2230218
},
{
  "type": "node",
  "id": 4973719599,
  "lat": 51.2046771,
  "lon": 3.2233544
},
{
  "type": "node",
  "id": 4973719600,
  "lat": 51.2046824,
  "lon": 3.2230754
},
{
  "type": "node",
  "id": 4973719603,
  "lat": 51.2047012,
  "lon": 3.2231452
},
{
  "type": "node",
  "id": 4973719604,
  "lat": 51.2047046,
  "lon": 3.2231196
},
{
  "type": "node",
  "id": 4973719605,
  "lat": 51.2047060,
  "lon": 3.2233065
},
{
  "type": "node",
  "id": 4973719607,
  "lat": 51.2047157,
  "lon": 3.2233234
},
{
  "type": "node",
  "id": 4973719609,
  "lat": 51.2047210,
  "lon": 3.2231258
},
{
  "type": "node",
  "id": 4973719623,
  "lat": 51.2042594,
  "lon": 3.2240714
},
{
  "type": "node",
  "id": 4973719624,
  "lat": 51.2042608,
  "lon": 3.2240748
},
{
  "type": "node",
  "id": 4973719625,
  "lat": 51.2042635,
  "lon": 3.2238478
},
{
  "type": "node",
  "id": 4973719626,
  "lat": 51.2042785,
  "lon": 3.2238865
},
{
  "type": "node",
  "id": 4973719631,
  "lat": 51.2043142,
  "lon": 3.2237046
},
{
  "type": "node",
  "id": 4973719641,
  "lat": 51.2044046,
  "lon": 3.2233647
},
{
  "type": "node",
  "id": 4973719642,
  "lat": 51.2044063,
  "lon": 3.2233625
},
{
  "type": "node",
  "id": 4973719650,
  "lat": 51.2044350,
  "lon": 3.2232780
},
{
  "type": "node",
  "id": 4973719651,
  "lat": 51.2045388,
  "lon": 3.2234582
},
{
  "type": "node",
  "id": 4973719652,
  "lat": 51.2045480,
  "lon": 3.2233272
},
{
  "type": "node",
  "id": 4973719653,
  "lat": 51.2045490,
  "lon": 3.2237993
},
{
  "type": "node",
  "id": 4973719654,
  "lat": 51.2045557,
  "lon": 3.2231442
},
{
  "type": "node",
  "id": 4973719655,
  "lat": 51.2045575,
  "lon": 3.2234053
},
{
  "type": "node",
  "id": 4973719656,
  "lat": 51.2045768,
  "lon": 3.2233797
},
{
  "type": "node",
  "id": 4973719657,
  "lat": 51.2045774,
  "lon": 3.2232852
},
{
  "type": "node",
  "id": 4973719658,
  "lat": 51.2045829,
  "lon": 3.2230910
},
{
  "type": "node",
  "id": 4973719659,
  "lat": 51.2045880,
  "lon": 3.2231007
},
{
  "type": "node",
  "id": 4973719660,
  "lat": 51.2046039,
  "lon": 3.2234944
},
{
  "type": "node",
  "id": 4973719663,
  "lat": 51.2047353,
  "lon": 3.2232008
},
{
  "type": "node",
  "id": 4973719664,
  "lat": 51.2047474,
  "lon": 3.2232233
},
{
  "type": "node",
  "id": 4973719665,
  "lat": 51.2047499,
  "lon": 3.2231822
},
{
  "type": "node",
  "id": 4973719666,
  "lat": 51.2047505,
  "lon": 3.2232186
},
{
  "type": "node",
  "id": 4973719667,
  "lat": 51.2047589,
  "lon": 3.2232326
},
{
  "type": "node",
  "id": 4973719670,
  "lat": 51.2047692,
  "lon": 3.2232118
},
{
  "type": "node",
  "id": 4973719677,
  "lat": 51.2048259,
  "lon": 3.2234028
},
{
  "type": "node",
  "id": 4973719680,
  "lat": 51.2048269,
  "lon": 3.2234038
},