{
  "version": 0.6,
  "generator": "Overpass API 0.7.55.9 ab41fea6",
  "osm3s": {
    "timestamp_osm_base": "2020-02-14T19:02:02Z",
    "copyright": "The data included in this document is from www.openstreetmap.org. The data is made available under ODbL."
  },
  "elements": [

{
  "type": "node",
  "id": 283207422,
  "lat": 46.4245229,
  "lon": 13.9373239,
  "tags": {
    "name": "Pocarjeva domačija",
    "name:en": "Pocar Farm",
    "tourism": "museum"
  }
},
{
  "type": "node",
  "id": 297191142,
  "lat": 46.6228868,
  "lon": 13.9083868,
  "tags": {
    "addr:city": "Villach",
    "addr:country": "AT",
    "addr:housenumber": "9",
    "addr:postcode": "9500",
    "addr:street": "Ferdinand-Wedenig-Straße",
    "name": "Villacher Fahrzeugmuseum",
    "tourism": "museum"
  }
},
{
  "type": "node",
  "id": 300576218,
  "lat": 46.6203179,
  "lon": 14.3104898,
  "tags": {
    "name": "Thomas-Koschat-Museum",
    "tourism": "museum",
    "wheelchair": "no"
  }
},
{
  "type": "node",
  "id": 472646752,
  "lat": 46.6241696,
  "lon": 14.3101324,
  "tags": {
    "addr:city": "Klagenfurt am Wörthersee",
    "addr:country": "AT",
    "addr:housenumber": "8",
    "addr:postcode": "9021",
    "addr:street": "Burggasse",
    "name": "Museum Moderner Kunst Kärnten",
    "phone": "+435053630542",
    "toilets:wheelchair": "yes",
    "tourism": "museum",
    "website": "www.mmkk.at",
    "wheelchair": "yes",
    "wheelchair:access": "yes",
    "wheelchair:guided_tour": "yes"
  }
},
{
  "type": "node",
  "id": 528189996,
  "lat": 46.6289967,
  "lon": 14.2932896,
  "tags": {
    "addr:city": "Klagenfurt am Wörthersee",
    "addr:country": "AT",
    "addr:housenumber": "6",
    "addr:postcode": "9020",
    "addr:street": "Kinkstraße",
    "description": "Museum geschlossen",
    "name": "Bergbaumuseum",
    "tourism": "museum",
    "wheelchair": "yes"
  }
},
{
  "type": "node",
  "id": 600567307,
  "lat": 46.5821851,
  "lon": 14.0194972,
  "tags": {
    "addr:city": "Rosegg",
    "addr:housenumber": "22",
    "addr:postcode": "9232",
    "addr:street": "Bergweg",
    "name": "Keltenweg Frög",
    "opening_hours:url": "http://www.keltenwelt.at/info/anfahrt-%C3%B6ffnungszeiten",
    "phone": "+43 676 84 23 50 205",
    "tourism": "museum",
    "website": "http://www.keltenwelt.at"
  }
},
{
  "type": "node",
  "id": 696772601,
  "lat": 46.5255458,
  "lon": 14.2998624,
  "tags": {
    "addr:city": "Ferlach",
    "addr:country": "AT",
    "addr:housenumber": "1",
    "addr:postcode": "9170",
    "addr:street": "Sponheimer Platz",
    "contact:email": "ferlach.tourismusinfo@ktn.gde.at",
    "contact:phone": "+43 4227 4920",
    "contact:website": "http://www.jagdmuseum-ferlach.at",
    "name": "Büchsenmacher & Jagdmuseum",
    "phone": "+434227260026",
    "tourism": "museum",
    "website": "http://www.jagdmuseum-ferlach.at"
  }
},
{
  "type": "node",
  "id": 727643530,
  "lat": 46.2901689,
  "lon": 14.2036674,
  "tags": {
    "tourism": "museum"
  }
},
{
  "type": "node",
  "id": 829012225,
  "lat": 46.3804851,
  "lon": 13.7525027,
  "tags": {
    "information": "office",
    "name": "Dom Trenta",
    "opening_hours": "Mo-Su 10:00-18:00",
    "tourism": "museum",
    "wikidata": "Q2800824"
  }
},
{
  "type": "node",
  "id": 1280233828,
  "lat": 46.5938617,
  "lon": 14.0189859,
  "tags": {
    "tourism": "museum"
  }
},
{
  "type": "node",
  "id": 1309187741,
  "lat": 46.4788770,
  "lon": 13.8327876,
  "tags": {
    "museum": "open_air",
    "name": "Charcoal Burning Area Exhibit",
    "subject": "history",
    "tourism": "museum"
  }
},
{
  "type": "node",
  "id": 1426865723,
  "lat": 46.6164923,
  "lon": 14.3049340,
  "tags": {
    "addr:city": "Klagenfurt am Wörthersee",
    "addr:country": "AT",
    "addr:housenumber": "20",
    "addr:postcode": "9020",
    "addr:street": "Florian-Gröger-Straße",
    "description:de": "Ist auch Austragunsort div.Rock- Blues- und Jazzkonzerte",
    "email": "office@eboardmuseum.com",
    "internet_access": "wlan",
    "name": "Eboardmuseum",
    "phone": "+43 699 19144180",
    "tourism": "museum",
    "website": "http://www.eboardmuseum.com",
    "wheelchair": "yes"
  }
},
{
  "type": "node",
  "id": 1430321969,
  "lat": 46.6223534,
  "lon": 14.3093807,
  "tags": {
    "addr:city": "Klagenfurt am Wörthersee",
    "addr:country": "AT",
    "addr:housenumber": "10/3",
    "addr:postcode": "9020",
    "addr:street": "Lidmanskygasse",
    "name": "Diözesanmuseum",
    "tourism": "museum",
    "wheelchair": "no"
  }
},
{
  "type": "node",
  "id": 1718363531,
  "lat": 46.6570442,
  "lon": 14.1745652,
  "tags": {
    "name": "Karolinger-Museum",
    "tourism": "museum"
  }
},
{
  "type": "node",
  "id": 1751243528,
  "lat": 46.6160509,
  "lon": 14.2568479,
  "tags": {
    "designation": "Wilsonstrasse 37",
    "name": "Kinomuseum",
    "tourism": "museum",
    "wikidata": "Q1742257",
    "wikipedia": "de:Kinomuseum Klagenfurt"
  }
},
{
  "type": "node",
  "id": 2720078886,
  "lat": 46.4324423,
  "lon": 14.0572346,
  "tags": {
    "name": "Stara Sava",
    "source": "observation",
    "tourism": "museum",
    "wikidata": "Q7427655",
    "wikipedia": "en:Stara Sava"
  }
},
{
  "type": "node",
  "id": 3226637845,
  "lat": 46.5272271,
  "lon": 14.1553262,
  "tags": {
    "name": "Rosenmuseum und Alte Schmiede",
    "tourism": "museum"
  }
},
{
  "type": "node",
  "id": 3638764071,
  "lat": 46.5355464,
  "lon": 14.2685410,
  "tags": {
    "name": "Bienenmuseum",
    "opening_hours": "Mo-Su 13:00-18:00",
    "tourism": "museum"
  }
},
{
  "type": "node",
  "id": 3638765976,
  "lat": 46.5173037,
  "lon": 14.2946586,
  "tags": {
    "addr:city": "Ferlach",
    "addr:housenumber": "7",
    "addr:postcode": "9170",
    "addr:street": "Auengasse",
    "museum": "transport",
    "name": "Technikmuseum Historama Ferlach",
    "opening_hours": "Tu-Fr 11:00-17:15",
    "tourism": "museum"
  }
},
{
  "type": "node",
  "id": 3654508214,
  "lat": 46.1666043,
  "lon": 13.9220414,
  "tags": {
    "addr:street": "Zakojca",
    "name": "Bevkova domačija",
    "tourism": "museum"
  }
},
{
  "type": "node",
  "id": 4218771389,
  "lat": 46.1541047,
  "lon": 14.0278572,
  "tags": {
    "name": "Partizanska bolnica Franja",
    "tourism": "museum",
    "wheelchair": "no",
    "wikidata": "Q1003498",
    "wikipedia": "sl:Slovenska vojna partizanska bolnica Franja"
  }
},
{
  "type": "node",
  "id": 4498029075,
  "lat": 46.5343512,
  "lon": 14.2251438,
  "tags": {
    "name": "Galerie Walker",
    "tourism": "museum"
  }
},
{
  "type": "node",
  "id": 5289657058,
  "lat": 46.3406126,
  "lon": 14.1753425,
  "tags": {
    "name": "Šivčeva hiša (Gallery)",
    "tourism": "museum"
  }
},
{
  "type": "node",
  "id": 5349317946,
  "lat": 46.3407902,
  "lon": 14.1754452,
  "tags": {
    "name": "Lectarjev muzej",
    "name:hu": "Mézeskalács múzeum",
    "tourism": "museum"
  }
},
{
  "type": "node",
  "id": 5645495121,
  "lat": 46.2159369,
  "lon": 14.1505355,
  "tags": {
    "addr:housenumber": "58",
    "addr:postcode": "4228",
    "addr:street": "Na Plavžu",
    "email": "muzej.zelezniki@siol.net",
    "name": "Muzej Železniki",
    "name:en": "Železniki Museum",
    "phone": "+38645147356",
    "tourism": "museum",
    "website": "http://museums.si/en-us/Home/Units/Museum?id=10196"
  }
},
{
  "type": "node",
  "id": 5801045253,
  "lat": 46.4873150,
  "lon": 14.5932226,
  "tags": {
    "name": "Tickets Obir Tropfsteinhöhlen",
    "toilets:wheelchair": "yes",
    "tourism": "museum",
    "wheelchair": "yes"
  }
},
{
  "type": "node",
  "id": 5817781069,
  "lat": 46.3349348,
  "lon": 14.2108733,
  "tags": {
    "name": "Etnološki muzej Mošnje",
    "tourism": "museum"
  }
},
{
  "type": "node",
  "id": 6252647595,
  "lat": 46.3750747,
  "lon": 14.1992292,
  "tags": {
    "name": "Muzej Avsenik",
    "operator": "Tradicija Avsenik d.o.o.",
    "ref:vatin": "SI30595517",
    "tourism": "museum"
  }
},
{
  "type": "way",
  "id": 121376152,
  "nodes": [
    1359141152,
    1359141147,
    1359141135,
    1359141127,
    1359141121,
    1359141126,
    1359141125,
    1359141134,
    1359141151,
    1359141146,
    1359141154,
    1359141152
  ],
  "tags": {
    "addr:city": "Preddvor",
    "addr:country": "SI",
    "addr:housenumber": "24",
    "addr:postcode": "4205",
    "addr:street": "Tupaliče",
    "building": "house",
    "name": "Kovaški muzej Anton Bukovnik",
    "tourism": "museum"
  }
},
{
  "type": "way",
  "id": 123531647,
  "nodes": [
    1377250310,
    1377250314,
    1377250320,
    1377250323,
    1377250311,
    1377250315,
    1377250313,
    1377250316,
    1377250318,
    1377250322,
    1377250329,
    1377250331,
    1377250327,
    1377250330,
    1377250341,
    1377250338,
    1377250336,
    1377250334,
    1377250339,
    1377250332,
    1377250326,
    1377250325,
    1377250328,
    1377250324,
    1377250310
  ],
  "tags": {
    "access": "permissive",
    "addr:city": "Rosegg",
    "addr:country": "AT",
    "addr:housenumber": "1",
    "addr:postcode": "9232",
    "addr:street": "Schlossallee",
    "alt_name": "Schloss Lukrezia",
    "amenity": "cafe",
    "building": "yes",
    "building:architecture": "classicism",
    "castle_type": "stately",
    "castle_type:de": "schloss",
    "description": "Schloss mit Wachsfigurenkabinett",
    "historic": "castle",
    "name": "Schloss Rosegg",
    "start_date": "1772",
    "tourism": "museum",
    "visit": "entrance",
    "website": "http://www.rosegg.at",
    "wikidata": "Q2243216",
    "wikipedia": "de:Schloss Rosegg"
  }
},
{
  "type": "way",
  "id": 128670688,
  "nodes": [
    1421325051,
    1421325050,
    1421325041,
    1421325042,
    1421325051
  ],
  "tags": {
    "addr:city": "Klagenfurt am Wörthersee",
    "addr:housenumber": "3",
    "addr:postcode": "9020",
    "addr:street": "Primoschgasse",
    "alt_name": "bluecube;blue cube;kidsmobil",
    "building": "yes",
    "email": "office.bluecube@ktn.gv.at",
    "fax": "+43 463 310 150",
    "name": "wissens.wert.welt",
    "opening_hours": "Mo-Th 08:30-16:00; Fr-Sa 10:00-18:00",
    "phone": "+43 664 6202 044",
    "short_name": "Wissenswertwelt",
    "source": "homepage",
    "tourism": "museum",
    "website": "http://www.wissenswertwelt.at"
  }
},
{
  "type": "way",
  "id": 152654396,
  "nodes": [
    1654604337,
    1654604302,
    1654604514,
    1654604530,
    1654604560,
    1654604337
  ],
  "tags": {
    "addr:city": "Klagenfurt am Wörthersee",
    "addr:country": "AT",
    "addr:housenumber": "7",
    "addr:street": "St. Ruprechter Straße",
    "building": "public",
    "name": "Landesarchiv",
    "opening_hours": "Mo,Tu,Th 08:00-15:30, We 08:00-17:45",
    "tourism": "museum"
  }
},
{
  "type": "way",
  "id": 153185614,
  "nodes": [
    1659006666,
    1659006655,
    1659006656,
    1659006665,
    1659006673,
    1659006700,
    1659006698,
    1659006709,
    1659006741,
    1659006666
  ],
  "tags": {
    "addr:city": "Klagenfurt am Wörthersee",
    "addr:country": "AT",
    "addr:housenumber": "50",
    "addr:street": "Bahnhofstraße",
    "building": "yes",
    "name": "Robert Musil Museum",
    "tourism": "museum",
    "wheelchair": "yes"
  }
},
{
  "type": "way",
  "id": 153783787,
  "nodes": [
    1664233344,
    1664233351,
    1664233359,
    1664233364,
    1664233347,
    1664233353,
    1664233325,
    1664233327,
    1664233322,
    1664233266,
    1664233242,
    1664233116,
    1664233272,
    1664233291,
    1664233315,
    1664233313,
    1664233344
  ],
  "tags": {
    "addr:housenumber": "34a",
    "addr:postcode": "9173",
    "addr:street": "Gotschuchen",
    "building": "yes",
    "contact:phone": "+43/660/4430332",
    "name": "EXPI - hands on Science Center",
    "source": "geoimage.at",
    "tourism": "museum",
    "url": "www.expi.at"
  }
},
{
  "type": "way",
  "id": 204069878,
  "nodes": [
    2140866474,
    2140866481,
    4792263000,
    2140866483,
    4792263001,
    2140866484,
    2140866477,
    2140866476,
    2140866467,
    2140866464,
    4086810291,
    4086810290,
    2140866460,
    2140866462,
    2140866465,
    2140866461,
    2140866459,
    2140866458,
    2140866463,
    4086829990,
    2140866466,
    2140866468,
    2140866470,
    2140866479,
    2140866478,
    2140866473,
    2140866474
  ],
  "tags": {
    "building": "yes",
    "historic": "castle",
    "name": "Loški Muzej",
    "source": "Bing",
    "tourism": "museum"
  }
},
{
  "type": "way",
  "id": 224079140,
  "nodes": [
    2329153957,
    2329153959,
    2329153955,
    2329153954,
    2329153957
  ],
  "tags": {
    "addr:city": "Bohinjska Bistrica",
    "addr:country": "SI",
    "addr:postcode": "4264",
    "addr:street": "Zoisova ulica",
    "building": "yes",
    "name": "Muzej Tomaža Godca",
    "tourism": "museum"
  }
},
{
  "type": "way",
  "id": 231027476,
  "nodes": [
    2394463119,
    2394463113,
    2394463118,
    2394463122,
    2394463119
  ],
  "tags": {
    "building": "yes",
    "name": "Oldtimer und Bauernkram Museum",
    "source_ref": "Bing Sat",
    "tourism": "museum",
    "wheelchair": "yes"
  }
},
{
  "type": "way",
  "id": 241248496,
  "nodes": [
    2489391769,
    2489391770,
    2489391771,
    6348068612,
    6348068626,
    2489391772,
    6348068617,
    6348068616,
    6348068615,
    6348068624,
    6348068614,
    2489391773,
    6348068621,
    2489391774,
    2489391769
  ],
  "tags": {
    "building": "yes",
    "name": "Tramwaymuseum",
    "railway": "museum",
    "tourism": "museum"
  }
},
{
  "type": "way",
  "id": 244742830,
  "nodes": [
    2520216911,
    2520216910,
    2520216915,
    2520216912,
    2520216919,
    2520216907,
    2520216911
  ],
  "tags": {
    "building": "yes",
    "tourism": "museum"
  }
},
{
  "type": "way",
  "id": 306462456,
  "nodes": [
    3113854655,
    3113854657,
    3113854654,
    3113854652,
    3113854655
  ],
  "tags": {
    "addr:city": "Žirovnica",
    "addr:housenumber": "2",
    "addr:postcode": "4274",
    "addr:street": "Vrba",
    "building": "yes",
    "name": "Rojstna hiša dr. Franceta Prešerna",
    "phone": "+386 4 5802092",
    "tourism": "museum",
    "website": "http://www.zirovnica.eu/domov/",
    "wikipedia": "sl:Prešernova rojstna hiša"
  }
},
{
  "type": "way",
  "id": 350569995,
  "nodes": [
    3563199926,
    6252647597,
    6252646810,
    6252647791,
    6252646811,
    6252647792,
    6252646812,
    6252646813,
    6252647793,
    6252647794,
    6252646814,
    6252646815,
    6252646816,
    6252646817,
    6252647598,
    6252647795,
    6252647796,
    6252646818,
    6252647797,
    6252646819,
    6252646820,
    3563199933,
    3563199939,
    6252646822,
    3563199931,
    3563199930,
    3563199929,
    3563208704,
    3563208705,
    3563199926
  ],
  "tags": {
    "building": "yes",
    "name": "Avsenik",
    "tourism": "museum"
  }
},
{
  "type": "way",
  "id": 395454585,
  "nodes": [
    3983139749,
    3983139746,
    3983139694,
    3983139696,
    3983139749
  ],
  "tags": {
    "building": "yes",
    "name": "Ambulanta E preko 4G",
    "tourism": "museum"
  }
},
{
  "type": "way",
  "id": 424892034,
  "nodes": [
    4242549347,
    4242549349,
    4242549348,
    4242549346,
    4242549347
  ],
  "tags": {
    "building": "yes",
    "name": "Handwerksmuseum",
    "source": "BING; survey",
    "tourism": "museum"
  }
},
{
  "type": "way",
  "id": 430233097,
  "nodes": [
    4295036902,
    4295037891,
    4295037299,
    4295037790,
    4295036902
  ],
  "tags": {
    "addr:city": "Kranjska Gora",
    "addr:housenumber": "63",
    "addr:postcode": "4280",
    "addr:street": "Borovška cesta",
    "building": "yes",
    "name": "Liznjekova domačija",
    "opening_hours": "May-Oct: Tu-Sa 10:00-18:00; May-Oct: Su10:00-17:00; Nov-Apr: Tu-Fr 9:30-16:00; Nov-Apr: Sa-Su 10:00-16:00",
    "operator": "Gornjesavski muzej Jesenice",
    "ref:gurs:hs_mid": "11927424",
    "source:addr": "GURS",
    "source:addr:date": "1995-01-01",
    "tourism": "museum",
    "wikidata": "Q6660649"
  }
},
{
  "type": "way",
  "id": 454568311,
  "nodes": [
    4511156213,
    4511156214,
    4511156215,
    4511156216,
    4511156217,
    4511156218,
    4511156213
  ],
  "tags": {
    "addr:city": "Cerkno",
    "addr:housenumber": "12",
    "addr:postcode": "5282",
    "addr:street": "Bevkova ulica",
    "building": "yes",
    "name": "Mestni MuzejIdrija",
    "source": "GURS",
    "source:date": "20010829",
    "tourism": "museum"
  }
},
{
  "type": "way",
  "id": 495622010,
  "nodes": [
    4873613745,
    4873613742,
    4873613743,
    4873613744,
    4873613745
  ],
  "tags": {
    "addr:housenumber": "49",
    "addr:street": "Triglavska cesta",
    "building": "yes",
    "name": "Slovenski planinski muzej",
    "tourism": "museum",
    "website": "http://www.planinskimuzej.si/",
    "wikidata": "Q7541800"
  }
},
{
  "type": "way",
  "id": 615207485,
  "nodes": [
    5817781065,
    5817781066,
    5817781067,
    5817781068,
    5817781065
  ],
  "tags": {
    "building": "yes",
    "tourism": "museum"
  }
},
{
  "type": "way",
  "id": 758954044,
  "nodes": [
    1359141154,
    1359141155,
    1359141158,
    1359141144,
    1359141138,
    1359141137,
    1359141136,
    1359141143,
    1359141148,
    1359141152,
    1359141154
  ],
  "tags": {
    "addr:city": "Preddvor",
    "addr:country": "SI",
    "addr:housenumber": "24B",
    "addr:postcode": "4205",
    "addr:street": "Tupaliče",
    "building": "house",
    "name": "Kovaški muzej Anton Bukovnik",
    "tourism": "museum"
  }
},
{
  "type": "relation",
  "id": 1738712,
  "members": [
    {
      "type": "way",
      "ref": 128842892,
      "role": "inner"
    },
    {
      "type": "way",
      "ref": 43675722,
      "role": "outer"
    }
  ],
  "tags": {
    "building": "yes",
    "name": "Landesmuseum Kärnten",
    "phone": "+435053630599",
    "toilets:wheelchair": "no",
    "tourism": "museum",
    "type": "multipolygon",
    "website": "http://www.landesmuseum.ktn.gv.at/210225_DE",
    "wheelchair": "yes",
    "wheelchair:access": "yes",
    "wheelchair:guided_tour": "yes"
  }
},
{
  "type": "relation",
  "id": 5235167,
  "members": [
    {
      "type": "way",
      "ref": 351063214,
      "role": "outer"
    },
    {
      "type": "way",
      "ref": 351063221,
      "role": "inner"
    },
    {
      "type": "way",
      "ref": 351063219,
      "role": "inner"
    }
  ],
  "tags": {
    "addr:city": "Radovljica",
    "addr:housenumber": "1",
    "addr:postcode": "4240",
    "addr:street": "Linhartov trg",
    "building": "yes",
    "name": "Čebelarski muzej Radovljica",
    "name:en": "Municipal and Beekeeping Museum",
    "tourism": "museum",
    "type": "multipolygon"
  }
},
{
  "type": "node",
  "id": 4511156213,
  "lat": 46.1283533,
  "lon": 13.9876832
},
{
  "type": "node",
  "id": 4511156214,
  "lat": 46.1282816,
  "lon": 13.9878647
},
{
  "type": "node",
  "id": 4511156215,
  "lat": 46.1280065,
  "lon": 13.9876399
},
{
  "type": "node",
  "id": 4511156216,
  "lat": 46.1281152,
  "lon": 13.9873649
},
{
  "type": "node",
  "id": 4511156217,
  "lat": 46.1281895,
  "lon": 13.9874258
},
{
  "type": "node",
  "id": 4511156218,
  "lat": 46.1281526,
  "lon": 13.9875192
},
{
  "type": "node",
  "id": 4295036902,
  "lat": 46.4853709,
  "lon": 13.7876740
},
{
  "type": "node",
  "id": 4295037299,
  "lat": 46.4855316,
  "lon": 13.7877638
},
{
  "type": "node",
  "id": 4295037790,
  "lat": 46.4854607,
  "lon": 13.7878431
},
{
  "type": "node",
  "id": 4295037891,
  "lat": 46.4854419,
  "lon": 13.7875946
},
{
  "type": "node",
  "id": 3983139694,
  "lat": 46.3198769,
  "lon": 13.9429567
},
{
  "type": "node",
  "id": 3983139696,
  "lat": 46.3198801,
  "lon": 13.9430917
},
{
  "type": "node",
  "id": 3983139746,
  "lat": 46.3199684,
  "lon": 13.9429465
},
{
  "type": "node",
  "id": 3983139749,
  "lat": 46.3199716,
  "lon": 13.9430758
},
{
  "type": "node",
  "id": 2329153954,
  "lat": 46.2712109,
  "lon": 13.9510020
},
{
  "type": "node",
  "id": 2329153955,
  "lat": 46.2712271,
  "lon": 13.9511641
},
{
  "type": "node",
  "id": 2329153957,
  "lat": 46.2713880,
  "lon": 13.9509649
},
{
  "type": "node",
  "id": 2329153959,
  "lat": 46.2714042,
  "lon": 13.9511271
},
{
  "type": "node",
  "id": 3012733215,
  "lat": 46.3404247,
  "lon": 14.1761108
},
{
  "type": "node",
  "id": 3012733216,
  "lat": 46.3404711,
  "lon": 14.1761494
},
{
  "type": "node",
  "id": 3567756790,
  "lat": 46.3405746,
  "lon": 14.1762661
},
{
  "type": "node",
  "id": 3567756791,
  "lat": 46.3405831,
  "lon": 14.1762436
},
{
  "type": "node",
  "id": 3567756792,
  "lat": 46.3405997,
  "lon": 14.1761598
},
{
  "type": "node",
  "id": 3567758893,
  "lat": 46.3406551,
  "lon": 14.1763351
},
{
  "type": "node",
  "id": 3567758894,
  "lat": 46.3406315,
  "lon": 14.1760773
},
{
  "type": "node",
  "id": 3567758895,
  "lat": 46.3406516,
  "lon": 14.1762049
},
{
  "type": "node",
  "id": 3567758896,
  "lat": 46.3406790,
  "lon": 14.1763739
},
{
  "type": "node",
  "id": 3567758898,
  "lat": 46.3407020,
  "lon": 14.1764452
},
{
  "type": "node",
  "id": 3567758900,
  "lat": 46.3406711,
  "lon": 14.1760655
},
{
  "type": "node",
  "id": 3567758901,
  "lat": 46.3406819,
  "lon": 14.1763138
},
{
  "type": "node",
  "id": 3567758902,
  "lat": 46.3407062,
  "lon": 14.1764641
},
{
  "type": "node",
  "id": 3567758903,
  "lat": 46.3407093,
  "lon": 14.1764863
},
{
  "type": "node",
  "id": 3567758904,
  "lat": 46.3406994,
  "lon": 14.1760952
},
{
  "type": "node",
  "id": 3567758905,
  "lat": 46.3407084,
  "lon": 14.1763553
},
{
  "type": "node",
  "id": 3567758906,
  "lat": 46.3406920,
  "lon": 14.1755587
},
{
  "type": "node",
  "id": 3567758907,
  "lat": 46.3407241,
  "lon": 14.1764096
},
{
  "type": "node",
  "id": 3567758909,
  "lat": 46.3407383,
  "lon": 14.1764493
},
{
  "type": "node",
  "id": 3567758910,
  "lat": 46.3407437,
  "lon": 14.1765249
},
{
  "type": "node",
  "id": 3567758912,
  "lat": 46.3407261,
  "lon": 14.1758714
},
{
  "type": "node",
  "id": 3567758913,
  "lat": 46.3407325,
  "lon": 14.1759170
},
{
  "type": "node",
  "id": 3567758914,
  "lat": 46.3407473,
  "lon": 14.1761404
},
{
  "type": "node",
  "id": 3567758915,
  "lat": 46.3407274,
  "lon": 14.1755928
},
{
  "type": "node",
  "id": 3567758916,
  "lat": 46.3407605,
  "lon": 14.1759393
},
{
  "type": "node",
  "id": 3567758917,
  "lat": 46.3407554,
  "lon": 14.1758025
},
{
  "type": "node",
  "id": 3567758918,
  "lat": 46.3407370,
  "lon": 14.1755743
},
{
  "type": "node",
  "id": 3567758920,
  "lat": 46.3407892,
  "lon": 14.1761785
},
{
  "type": "node",
  "id": 3567758921,
  "lat": 46.3407703,
  "lon": 14.1756383
},
{
  "type": "node",
  "id": 3567758922,
  "lat": 46.3407796,
  "lon": 14.1756153
},
{
  "type": "node",
  "id": 3567758923,
  "lat": 46.3408009,
  "lon": 14.1758454
},
{
  "type": "node",
  "id": 3567758924,
  "lat": 46.3408203,
  "lon": 14.1759437
},
{
  "type": "node",
  "id": 3567758926,
  "lat": 46.3408670,
  "lon": 14.1759908
},
{
  "type": "node",
  "id": 3567758928,
  "lat": 46.3408997,
  "lon": 14.1757539
},
{
  "type": "node",
  "id": 5626049617,
  "lat": 46.3406695,
  "lon": 14.1765346
},
{
  "type": "node",
  "id": 5626049618,
  "lat": 46.3406668,
  "lon": 14.1764926
},
{
  "type": "node",
  "id": 5817781065,
  "lat": 46.3350237,
  "lon": 14.2107166
},
{
  "type": "node",
  "id": 5817781066,
  "lat": 46.3349247,
  "lon": 14.2106710
},
{
  "type": "node",
  "id": 5817781067,
  "lat": 46.3348464,
  "lon": 14.2110273
},
{
  "type": "node",
  "id": 5817781068,
  "lat": 46.3349455,
  "lon": 14.2110729
},
{
  "type": "node",
  "id": 4873613742,
  "lat": 46.4581105,
  "lon": 13.9361761
},
{
  "type": "node",
  "id": 4873613743,
  "lat": 46.4578112,
  "lon": 13.9364001
},
{
  "type": "node",
  "id": 4873613744,
  "lat": 46.4577556,
  "lon": 13.9362436
},
{
  "type": "node",
  "id": 4873613745,
  "lat": 46.4580550,
  "lon": 13.9360196
},
{
  "type": "node",
  "id": 3113854652,
  "lat": 46.3878377,
  "lon": 14.1474900
},
{
  "type": "node",
  "id": 3113854654,
  "lat": 46.3878815,
  "lon": 14.1475980
},
{
  "type": "node",
  "id": 3113854655,
  "lat": 46.3879524,
  "lon": 14.1473922
},
{
  "type": "node",
  "id": 3113854657,
  "lat": 46.3879962,
  "lon": 14.1475002
},
{
  "type": "node",
  "id": 3563199926,
  "lat": 46.3746256,
  "lon": 14.1991235
},
{
  "type": "node",
  "id": 3563199929,
  "lat": 46.3747104,
  "lon": 14.1989215
},
{
  "type": "node",
  "id": 3563199930,
  "lat": 46.3747316,
  "lon": 14.1988720
},
{
  "type": "node",
  "id": 3563199931,
  "lat": 46.3747606,
  "lon": 14.1989012
},
{
  "type": "node",
  "id": 3563199933,
  "lat": 46.3748511,
  "lon": 14.1992129
},
{
  "type": "node",
  "id": 3563199939,
  "lat": 46.3749206,
  "lon": 14.1990617
},
{
  "type": "node",
  "id": 3563208704,
  "lat": 46.3746901,
  "lon": 14.1989027
},
{
  "type": "node",
  "id": 3563208705,
  "lat": 46.3746135,
  "lon": 14.1990832
},
{
  "type": "node",
  "id": 6252646810,
  "lat": 46.3745918,
  "lon": 14.1991682
},
{
  "type": "node",
  "id": 6252646811,
  "lat": 46.3745614,
  "lon": 14.1992399
},
{
  "type": "node",
  "id": 6252646812,
  "lat": 46.3745584,
  "lon": 14.1993052
},
{
  "type": "node",
  "id": 6252646813,
  "lat": 46.3745657,
  "lon": 14.1993486
},
{
  "type": "node",
  "id": 6252646814,
  "lat": 46.3746378,
  "lon": 14.1994436
},
{
  "type": "node",
  "id": 6252646815,
  "lat": 46.3746655,
  "lon": 14.1994499
},
{
  "type": "node",
  "id": 6252646816,
  "lat": 46.3746937,
  "lon": 14.1994486
},
{
  "type": "node",
  "id": 6252646817,
  "lat": 46.3747176,
  "lon": 14.1994360
},
{
  "type": "node",
  "id": 6252646818,
  "lat": 46.3748122,
  "lon": 14.1993342
},
{
  "type": "node",
  "id": 6252646819,
  "lat": 46.3748590,
  "lon": 14.1992499
},
{
  "type": "node",
  "id": 6252646820,
  "lat": 46.3748680,
  "lon": 14.1992292
},
{
  "type": "node",
  "id": 6252646822,
  "lat": 46.3748667,
  "lon": 14.1990096
},
{
  "type": "node",
  "id": 6252647597,
  "lat": 46.3746191,
  "lon": 14.1991418
},
{
  "type": "node",
  "id": 6252647598,
  "lat": 46.3747480,
  "lon": 14.1994103
},
{
  "type": "node",
  "id": 6252647791,
  "lat": 46.3745714,
  "lon": 14.1992053
},
{
  "type": "node",
  "id": 6252647792,
  "lat": 46.3745588,
  "lon": 14.1992663
},
{
  "type": "node",
  "id": 6252647793,
  "lat": 46.3745814,
  "lon": 14.1993889
},
{
  "type": "node",
  "id": 6252647794,
  "lat": 46.3746083,
  "lon": 14.1994247
},
{
  "type": "node",
  "id": 6252647795,
  "lat": 46.3747575,
  "lon": 14.1993883
},
{
  "type": "node",
  "id": 6252647796,
  "lat": 46.3747870,
  "lon": 14.1993122
},
{
  "type": "node",
  "id": 6252647797,
  "lat": 46.3748486,
  "lon": 14.1992417
},
{
  "type": "node",
  "id": 2140866458,
  "lat": 46.1649970,
  "lon": 14.3047224
},
{
  "type": "node",
  "id": 2140866459,
  "lat": 46.1649929,
  "lon": 14.3047760
},
{
  "type": "node",
  "id": 2140866460,
  "lat": 46.1649923,
  "lon": 14.3052369
},
{
  "type": "node",
  "id": 2140866461,
  "lat": 46.1650094,
  "lon": 14.3048222
},
{
  "type": "node",
  "id": 2140866462,
  "lat": 46.1650067,
  "lon": 14.3051828
},
{
  "type": "node",
  "id": 2140866463,
  "lat": 46.1650153,
  "lon": 14.3046852
},
{
  "type": "node",
  "id": 2140866464,
  "lat": 46.1650610,
  "lon": 14.3053410
},
{
  "type": "node",
  "id": 2140866465,
  "lat": 46.1650468,
  "lon": 14.3051739
},
{
  "type": "node",
  "id": 2140866466,
  "lat": 46.1650714,
  "lon": 14.3046772
},
{
  "type": "node",
  "id": 2140866467,
  "lat": 46.1650893,
  "lon": 14.3053181
},
{
  "type": "node",
  "id": 2140866468,
  "lat": 46.1650985,
  "lon": 14.3047114
},
{
  "type": "node",
  "id": 2140866470,
  "lat": 46.1651501,
  "lon": 14.3051459
},
{
  "type": "node",
  "id": 2140866473,
  "lat": 46.1653153,
  "lon": 14.3047880
},
{
  "type": "node",
  "id": 2140866474,
  "lat": 46.1653870,
  "lon": 14.3046600
},
{
  "type": "node",
  "id": 2140866476,
  "lat": 46.1653949,
  "lon": 14.3053146
},
{
  "type": "node",
  "id": 2140866477,
  "lat": 46.1653956,
  "lon": 14.3054371
},
{
  "type": "node",
  "id": 2140866478,
  "lat": 46.1654277,
  "lon": 14.3049194
},
{
  "type": "node",
  "id": 2140866479,
  "lat": 46.1654443,
  "lon": 14.3051498
},
{
  "type": "node",
  "id": 2140866481,
  "lat": 46.1654990,
  "lon": 14.3047864
},
{
  "type": "node",
  "id": 2140866483,
  "lat": 46.1655294,
  "lon": 14.3049940
},
{
  "type": "node",
  "id": 2140866484,
  "lat": 46.1655318,
  "lon": 14.3054356
},
{
  "type": "node",
  "id": 2520216907,
  "lat": 46.1653302,
  "lon": 14.3029736
},
{
  "type": "node",
  "id": 2520216910,
  "lat": 46.1652564,
  "lon": 14.3028628
},
{
  "type": "node",
  "id": 2520216911,
  "lat": 46.1653229,
  "lon": 14.3028543
},
{
  "type": "node",
  "id": 2520216912,
  "lat": 46.1653629,
  "lon": 14.3030904
},
{
  "type": "node",
  "id": 2520216915,
  "lat": 46.1652711,
  "lon": 14.3031023
},
{
  "type": "node",
  "id": 2520216919,
  "lat": 46.1653555,
  "lon": 14.3029704
},
{
  "type": "node",
  "id": 4086810290,
  "lat": 46.1649998,
  "lon": 14.3053017
},
{
  "type": "node",
  "id": 4086810291,
  "lat": 46.1650198,
  "lon": 14.3053329
},
{
  "type": "node",
  "id": 4086829990,
  "lat": 46.1650409,
  "lon": 14.3046698
},
{
  "type": "node",
  "id": 4792263000,
  "lat": 46.1655073,
  "lon": 14.3048429
},
{
  "type": "node",
  "id": 4792263001,
  "lat": 46.1655303,
  "lon": 14.3051614
},
{
  "type": "node",
  "id": 1359141121,
  "lat": 46.2907578,
  "lon": 14.4271866
},
{
  "type": "node",
  "id": 1359141125,
  "lat": 46.2908272,
  "lon": 14.4269694
},
{
  "type": "node",
  "id": 1359141126,
  "lat": 46.2908318,
  "lon": 14.4269728
},
{
  "type": "node",
  "id": 1359141127,
  "lat": 46.2908073,
  "lon": 14.4272224
},
{
  "type": "node",
  "id": 1359141134,
  "lat": 46.2908658,
  "lon": 14.4268576
},
{
  "type": "node",
  "id": 1359141135,
  "lat": 46.2908811,
  "lon": 14.4270089
},
{
  "type": "node",
  "id": 1359141136,
  "lat": 46.2908633,
  "lon": 14.4273342
},
{
  "type": "node",
  "id": 1359141137,
  "lat": 46.2908792,
  "lon": 14.4273486
},
{
  "type": "node",
  "id": 1359141138,
  "lat": 46.2908773,
  "lon": 14.4273531
},
{
  "type": "node",
  "id": 1359141143,
  "lat": 46.2909359,
  "lon": 14.4271659
},
{
  "type": "node",
  "id": 1359141144,
  "lat": 46.2909338,
  "lon": 14.4274057
},
{
  "type": "node",
  "id": 1359141146,
  "lat": 46.2909666,
  "lon": 14.4270143
},
{
  "type": "node",
  "id": 1359141147,
  "lat": 46.2909510,
  "lon": 14.4270595
},
{
  "type": "node",
  "id": 1359141148,
  "lat": 46.2909527,
  "lon": 14.4271835
},
{
  "type": "node",
  "id": 1359141151,
  "lat": 46.2909897,
  "lon": 14.4269473
},
{
  "type": "node",
  "id": 1359141152,
  "lat": 46.2909889,
  "lon": 14.4271021
},
{
  "type": "node",
  "id": 1359141154,
  "lat": 46.2910072,
  "lon": 14.4270609
},
{
  "type": "node",
  "id": 1359141155,
  "lat": 46.2910150,
  "lon": 14.4270434
},
{
  "type": "node",
  "id": 1359141158,
  "lat": 46.2910715,
  "lon": 14.4270960
},
{
  "type": "node",
  "id": 1664233116,
  "lat": 46.5446284,
  "lon": 14.3903439
},
{
  "type": "node",
  "id": 1664233242,
  "lat": 46.5446907,
  "lon": 14.3904036
},
{
  "type": "node",
  "id": 1664233266,
  "lat": 46.5447030,
  "lon": 14.3903766
},
{
  "type": "node",
  "id": 1664233272,
  "lat": 46.5447037,
  "lon": 14.3901692
},
{
  "type": "node",
  "id": 1664233291,
  "lat": 46.5447107,
  "lon": 14.3901763
},
{
  "type": "node",
  "id": 1664233313,
  "lat": 46.5447265,
  "lon": 14.3901198
},
{
  "type": "node",
  "id": 1664233315,
  "lat": 46.5447341,
  "lon": 14.3901286
},
{
  "type": "node",
  "id": 1664233322,
  "lat": 46.5447471,
  "lon": 14.3904199
},
{
  "type": "node",
  "id": 1664233325,
  "lat": 46.5448015,
  "lon": 14.3902655
},
{
  "type": "node",
  "id": 1664233327,
  "lat": 46.5448102,
  "lon": 14.3902747
},
{
  "type": "node",
  "id": 1664233344,
  "lat": 46.5448936,
  "lon": 14.3897509
},
{
  "type": "node",
  "id": 1664233347,
  "lat": 46.5449185,
  "lon": 14.3899196
},
{
  "type": "node",
  "id": 1664233351,
  "lat": 46.5449392,
  "lon": 14.3897887
},
{
  "type": "node",
  "id": 1664233353,
  "lat": 46.5449500,
  "lon": 14.3899522
},
{
  "type": "node",
  "id": 1664233359,
  "lat": 46.5449616,
  "lon": 14.3897194
},
{
  "type": "node",
  "id": 1664233364,
  "lat": 46.5449749,
  "lon": 14.3897719
},
{
  "type": "node",
  "id": 4242549346,
  "lat": 46.5396931,
  "lon": 14.5095375
},
{
  "type": "node",
  "id": 4242549347,
  "lat": 46.5397321,
  "lon": 14.5093609
},
{
  "type": "node",
  "id": 4242549348,
  "lat": 46.5397782,
  "lon": 14.5095772
},
{
  "type": "node",
  "id": 4242549349,
  "lat": 46.5398172,
  "lon": 14.5094007
},
{
  "type": "node",
  "id": 2394463113,
  "lat": 46.4877520,
  "lon": 14.5788357
},
{
  "type": "node",
  "id": 2394463118,
  "lat": 46.4878245,
  "lon": 14.5793074
},
{
  "type": "node",
  "id": 2394463119,
  "lat": 46.4878408,
  "lon": 14.5788069
},
{
  "type": "node",
  "id": 2394463122,
  "lat": 46.4879133,
  "lon": 14.5792786
},
{
  "type": "node",
  "id": 1377250310,
  "lat": 46.5913895,
  "lon": 14.0236520
},
{
  "type": "node",
  "id": 1377250311,
  "lat": 46.5914072,
  "lon": 14.0240683
},
{
  "type": "node",
  "id": 1377250313,
  "lat": 46.5914135,
  "lon": 14.0242174
},
{
  "type": "node",
  "id": 1377250314,
  "lat": 46.5914243,
  "lon": 14.0239232
},
{
  "type": "node",
  "id": 1377250315,
  "lat": 46.5914259,
  "lon": 14.0242141
},
{
  "type": "node",
  "id": 1377250316,
  "lat": 46.5914329,
  "lon": 14.0243681
},
{
  "type": "node",
  "id": 1377250318,
  "lat": 46.5914471,
  "lon": 14.0243642
},
{
  "type": "node",
  "id": 1377250320,
  "lat": 46.5914615,
  "lon": 14.0239131
},
{
  "type": "node",
  "id": 1377250322,
  "lat": 46.5914640,
  "lon": 14.0244959
},
{
  "type": "node",
  "id": 1377250323,
  "lat": 46.5914789,
  "lon": 14.0240488
},
{
  "type": "node",
  "id": 1377250324,
  "lat": 46.5914886,
  "lon": 14.0236251
},
{
  "type": "node",
  "id": 1377250325,
  "lat": 46.5915036,
  "lon": 14.0239071
},
{
  "type": "node",
  "id": 1377250326,
  "lat": 46.5915199,
  "lon": 14.0240345
},
{
  "type": "node",
  "id": 1377250327,
  "lat": 46.5915210,
  "lon": 14.0246458
},
{
  "type": "node",
  "id": 1377250328,
  "lat": 46.5915241,
  "lon": 14.0239016
},
{
  "type": "node",
  "id": 1377250329,
  "lat": 46.5915373,
  "lon": 14.0244760
},
{
  "type": "node",
  "id": 1377250331,
  "lat": 46.5915578,
  "lon": 14.0246358
},
{
  "type": "node",
  "id": 1377250332,
  "lat": 46.5915665,
  "lon": 14.0240218
},
{
  "type": "node",
  "id": 1377250334,
  "lat": 46.5915833,
  "lon": 14.0244580
},
{
  "type": "node",
  "id": 1377250336,
  "lat": 46.5916033,
  "lon": 14.0246142
},
{
  "type": "node",
  "id": 1377250338,
  "lat": 46.5916203,
  "lon": 14.0246095
},
{
  "type": "node",
  "id": 1377250339,
  "lat": 46.5916212,
  "lon": 14.0244477
},
{
  "type": "node",
  "id": 1377250330,
  "lat": 46.5915552,
  "lon": 14.0249118
},
{
  "type": "node",
  "id": 1377250341,
  "lat": 46.5916556,
  "lon": 14.0248845
},
{
  "type": "node",
  "id": 2489391769,
  "lat": 46.6165686,
  "lon": 14.2578610
},
{
  "type": "node",
  "id": 2489391770,
  "lat": 46.6166004,
  "lon": 14.2580471
},
{
  "type": "node",
  "id": 2489391771,
  "lat": 46.6162782,
  "lon": 14.2581846
},
{
  "type": "node",
  "id": 2489391772,
  "lat": 46.6162698,
  "lon": 14.2580715
},
{
  "type": "node",
  "id": 2489391773,
  "lat": 46.6163580,
  "lon": 14.2579800
},
{
  "type": "node",
  "id": 2489391774,
  "lat": 46.6163529,
  "lon": 14.2579302
},
{
  "type": "node",
  "id": 6348068612,
  "lat": 46.6162723,
  "lon": 14.2581414
},
{
  "type": "node",
  "id": 6348068614,
  "lat": 46.6163486,
  "lon": 14.2579835
},
{
  "type": "node",
  "id": 6348068615,
  "lat": 46.6163558,
  "lon": 14.2580216
},
{
  "type": "node",
  "id": 6348068616,
  "lat": 46.6163184,
  "lon": 14.2580318
},
{
  "type": "node",
  "id": 6348068617,
  "lat": 46.6163187,
  "lon": 14.2580532
},
{
  "type": "node",
  "id": 6348068621,
  "lat": 46.6163550,
  "lon": 14.2579508
},
{
  "type": "node",
  "id": 6348068624,
  "lat": 46.6163527,
  "lon": 14.2580053
},
{
  "type": "node",
  "id": 6348068626,
  "lat": 46.6162705,
  "lon": 14.2580975
},
{
  "type": "node",
  "id": 1654604302,
  "lat": 46.6180243,
  "lon": 14.3078145
},
{
  "type": "node",
  "id": 1654604337,
  "lat": 46.6180659,
  "lon": 14.3080567
},
{
  "type": "node",
  "id": 1654604514,
  "lat": 46.6184065,
  "lon": 14.3076753
},
{
  "type": "node",
  "id": 1654604530,
  "lat": 46.6184250,
  "lon": 14.3077831
},
{
  "type": "node",
  "id": 1654604560,
  "lat": 46.6184481,
  "lon": 14.3079175
},
{
  "type": "node",
  "id": 1659006655,
  "lat": 46.6163832,
  "lon": 14.3128383
},
{
  "type": "node",
  "id": 1659006656,
  "lat": 46.6163896,
  "lon": 14.3128350
},
{
  "type": "node",
  "id": 1659006665,
  "lat": 46.6164411,
  "lon": 14.3128083
},
{
  "type": "node",
  "id": 1659006673,
  "lat": 46.6164705,
  "lon": 14.3129287
},
{
  "type": "node",
  "id": 1659006698,
  "lat": 46.6165847,
  "lon": 14.3127310
},
{
  "type": "node",
  "id": 1659006700,
  "lat": 46.6166148,
  "lon": 14.3128541
},
{
  "type": "node",
  "id": 1659006709,
  "lat": 46.6166388,
  "lon": 14.3127031
},
{
  "type": "node",
  "id": 1659006741,
  "lat": 46.6167182,
  "lon": 14.3130281
},
{
  "type": "node",
  "id": 552581274,
  "lat": 46.6212861,
  "lon": 14.3122425
},
{
  "type": "node",
  "id": 552581275,
  "lat": 46.6212770,
  "lon": 14.3127024
},
{
  "type": "node",
  "id": 552581276,
  "lat": 46.6208191,
  "lon": 14.3126803
},
{
  "type": "node",
  "id": 552581278,
  "lat": 46.6208292,
  "lon": 14.3122194
},
{
  "type": "node",
  "id": 1422712180,
  "lat": 46.6207971,
  "lon": 14.3125263
},
{
  "type": "node",
  "id": 1422712181,
  "lat": 46.6208020,
  "lon": 14.3123638
},
{
  "type": "node",
  "id": 1422712182,
  "lat": 46.6208237,
  "lon": 14.3125271
},
{
  "type": "node",
  "id": 1422712183,
  "lat": 46.6208248,
  "lon": 14.3123645
},
{
  "type": "node",
  "id": 1422712184,
  "lat": 46.6208992,
  "lon": 14.3126827
},
{
  "type": "node",
  "id": 1422712185,
  "lat": 46.6208995,
  "lon": 14.3126714
},
{
  "type": "node",
  "id": 1422712186,
  "lat": 46.6209088,
  "lon": 14.3122433
},
{
  "type": "node",
  "id": 1422712187,
  "lat": 46.6209094,
  "lon": 14.3122218
},
{
  "type": "node",
  "id": 1422712192,
  "lat": 46.6211090,
  "lon": 14.3125267
},
{
  "type": "node",
  "id": 1422712193,
  "lat": 46.6211133,
  "lon": 14.3123998
},
{
  "type": "node",
  "id": 1422712194,
  "lat": 46.6211744,
  "lon": 14.3125290
},
{
  "type": "node",
  "id": 1422712195,
  "lat": 46.6211787,
  "lon": 14.3124020
},
{
  "type": "node",
  "id": 1422712196,
  "lat": 46.6212006,
  "lon": 14.3127001
},
{
  "type": "node",
  "id": 1422712197,
  "lat": 46.6212012,
  "lon": 14.3126805
},
{
  "type": "node",
  "id": 1422712198,
  "lat": 46.6212090,
  "lon": 14.3122523
},
{
  "type": "node",
  "id": 1422712199,
  "lat": 46.6212094,
  "lon": 14.3122402
},
{
  "type": "node",
  "id": 1422712200,
  "lat": 46.6212815,
  "lon": 14.3123957
},
{
  "type": "node",
  "id": 1422712201,
  "lat": 46.6212817,
  "lon": 14.3125488
},
{
  "type": "node",
  "id": 1422712202,
  "lat": 46.6212897,
  "lon": 14.3125490
},
{
  "type": "node",
  "id": 1422712203,
  "lat": 46.6212943,
  "lon": 14.3123961
},
{
  "type": "node",
  "id": 4608394952,
  "lat": 46.6210423,
  "lon": 14.3126757
},
{
  "type": "node",
  "id": 1421325041,
  "lat": 46.6113286,
  "lon": 14.3292206
},
{
  "type": "node",
  "id": 1421325042,
  "lat": 46.6113318,
  "lon": 14.3288728
},
{
  "type": "node",
  "id": 1421325050,
  "lat": 46.6115014,
  "lon": 14.3292296
},
{
  "type": "node",
  "id": 1421325051,
  "lat": 46.6115037,
  "lon": 14.3288710
},
{
  "type": "node",
  "id": 1659006666,
  "lat": 46.6164619,
  "lon": 14.3131608
},
{
  "type": "way",
  "id": 351063214,
  "nodes": [
    3567758928,
    3567758921,
    3567758922,
    3567758918,
    3567758915,
    3567758906,
    3012733215,
    3012733216,
    3567756791,
    3567756790,
    3567758893,
    3567758896,
    3567758898,
    3567758902,
    3567758903,
    5626049618,
    5626049617,
    3567758910,
    3567758909,
    3567758907,
    3567758905,
    3567758901,
    3567758914,
    3567758920,
    3567758926,
    3567758924,
    3567758928
  ]
},
{
  "type": "way",
  "id": 351063219,
  "nodes": [
    3567758904,
    3567758895,
    3567756792,
    3567758894,
    3567758900,
    3567758904
  ]
},
{
  "type": "way",
  "id": 351063221,
  "nodes": [
    3567758923,
    3567758917,
    3567758912,
    3567758913,
    3567758916,
    3567758923
  ]
},
{
  "type": "way",
  "id": 43675722,
  "nodes": [
    552581274,
    1422712200,
    1422712203,
    1422712202,
    1422712201,
    552581275,
    1422712196,
    1422712197,
    4608394952,
    1422712185,
    1422712184,
    552581276,
    1422712182,
    1422712180,
    1422712181,
    1422712183,
    552581278,
    1422712187,
    1422712186,
    1422712198,
    1422712199,
    552581274
  ]
},
{
  "type": "way",
  "id": 128842892,
  "nodes": [
    1422712195,
    1422712194,
    1422712192,
    1422712193,
    1422712195
  ]
}

  ]
}
