{
  "version": 0.6,
  "generator": "Overpass API 0.7.55.1011 6c2efc30",
  "osm3s": {
    "timestamp_osm_base": "2020-02-14T09:38:02Z",
    "copyright": "The data included in this document is from www.openstreetmap.org. The data is made available under ODbL."
  },
  "elements": [

{
  "type": "node",
  "id": 29269886,
  "lat": 51.5228224,
  "lon": -0.1547768,
  "tags": {
    "addr:city": "London",
    "addr:housenumber": "8-10",
    "addr:postcode": "NW1 5LR",
    "addr:street": "Marylebone Road",
    "email": "guest.experience@madame-tussauds.com",
    "fhrs:confidence_management": "10",
    "fhrs:hygiene": "5",
    "fhrs:id": "428012",
    "fhrs:local_authority_id": "01066/4000/0/000",
    "fhrs:rating": "4",
    "fhrs:structural": "5",
    "name": "Madame Tussauds",
    "name:ru": "Мадам Тюссо",
    "name:zh": "杜莎夫人蜡像馆",
    "opening_hours": "Mo-Fr 09:30-17:30; Sa-Su 09:00-18:00",
    "phone": "+44 871 894 3000",
    "source:addr": "FSA Food Hygiene Ratings Database",
    "source:postcode": "FSA Food Hygiene Ratings Database",
    "toilets:wheelchair": "yes",
    "tourism": "museum",
    "website": "https://www.madametussauds.co.uk/london",
    "wheelchair": "yes",
    "wheelchair:description": "Bis auf die Bustour am Ende kann man sich alles ansehen. Und wenn man Hilfe braucht um sich mit einer Figur fotografieren zu lassen sind die Mitarbeiter zur Stelle.",
    "wikidata": "Q186309",
    "wikipedia": "en:Madame Tussauds London"
  }
},
{
  "type": "node",
  "id": 192128728,
  "lat": 51.3922930,
  "lon": 0.5375928,
  "tags": {
    "name": "Royal Engineers Museum",
    "source": "os_street_view",
    "tourism": "museum",
    "wikidata": "Q7374153",
    "wikipedia": "en:Royal Engineers Museum"
  }
},
{
  "type": "node",
  "id": 261700004,
  "lat": 51.4736073,
  "lon": -0.1155806,
  "tags": {
    "name": "The Type Museum",
    "tourism": "museum",
    "wikidata": "Q7860886",
    "wikipedia": "en:Type Museum"
  }
},
{
  "type": "node",
  "id": 270420473,
  "lat": 51.5062310,
  "lon": -0.0372858,
  "tags": {
    "name": "Pumphouse Educational Museum",
    "tourism": "museum"
  }
},
{
  "type": "node",
  "id": 311162857,
  "lat": 51.2713806,
  "lon": 0.5221983,
  "tags": {
    "name": "Museum of Carriages",
    "tourism": "museum",
    "wikidata": "Q17964487"
  }
},
{
  "type": "node",
  "id": 334631276,
  "lat": 51.5233722,
  "lon": -0.1162091,
  "tags": {
    "addr:housenumber": "48",
    "addr:street": "Doughty Street",
    "comment": "Last admission is at 16:30. Tickets: adult — £6, concession — £4.50, child — £3, family — £15.",
    "name": "Dickens Museum",
    "opening_hours": "10:00-17:00",
    "toilets:wheelchair": "yes",
    "tourism": "museum",
    "wheelchair": "yes",
    "wikidata": "Q2723633"
  }
},
{
  "type": "node",
  "id": 336347265,
  "lat": 51.5566742,
  "lon": -0.1081434,
  "tags": {
    "name": "Arsenal Museum",
    "name:fa": "موزه آرسنال",
    "tourism": "museum",
    "wikidata": "Q4796396",
    "wikipedia": "en:Arsenal Football Club Museum"
  }
},
{
  "type": "node",
  "id": 435508639,
  "lat": 51.6926080,
  "lon": -0.0104403,
  "tags": {
    "name": "Royal Gunpowder Mills",
    "tourism": "museum",
    "wikidata": "Q7966594"
  }
},
{
  "type": "node",
  "id": 441294238,
  "lat": 51.4863215,
  "lon": 0.0959941,
  "tags": {
    "name": "Borough Museum",
    "tourism": "museum"
  }
},
{
  "type": "node",
  "id": 472152158,
  "lat": 51.5048027,
  "lon": -0.1156513,
  "tags": {
    "name": "Topolski Century",
    "tourism": "museum",
    "website": "http://www.topolskicentury.org.uk/",
    "wikidata": "Q7825056",
    "wikipedia": "en:Topolski Century"
  }
},
{
  "type": "node",
  "id": 510786764,
  "lat": 51.5236108,
  "lon": -0.1328732,
  "tags": {
    "name": "Petrie Museum of Egyptian Archeology",
    "opening_hours": "Tu-Sa 13:00-17:00",
    "tourism": "museum",
    "website": "http://www.ucl.ac.uk/museums/petrie",
    "wheelchair": "limited",
    "wikidata": "Q2002512"
  }
},
{
  "type": "node",
  "id": 596592105,
  "lat": 51.5344736,
  "lon": 0.0993936,
  "tags": {
    "name": "Eastbury Manor House",
    "tourism": "museum",
    "wikidata": "Q5329849",
    "wikipedia": "en:Eastbury Manor House"
  }
},
{
  "type": "node",
  "id": 672741997,
  "lat": 51.4901511,
  "lon": -0.1293639,
  "tags": {
    "name": "Chelsea Space",
    "tourism": "museum"
  }
},
{
  "type": "node",
  "id": 677605909,
  "lat": 51.4655591,
  "lon": -0.1023901,
  "tags": {
    "name": "Redgate Gallery",
    "tourism": "museum"
  }
},
{
  "type": "node",
  "id": 700428265,
  "lat": 51.5250837,
  "lon": 0.5565805,
  "tags": {
    "name": "Dutch Cottage Museum",
    "source": "OS OpenData StreetView",
    "source:name": "http://www.geograph.org.uk/photo/246513",
    "tourism": "museum"
  }
},
{
  "type": "node",
  "id": 700428300,
  "lat": 51.5207979,
  "lon": 0.5627604,
  "tags": {
    "source": "OS OpenData StreetView",
    "tourism": "museum"
  }
},
{
  "type": "node",
  "id": 724398596,
  "lat": 51.5580880,
  "lon": 0.0753810,
  "tags": {
    "amenity": "library",
    "name": "Redbridge Museum",
    "source": "Personal knowledge",
    "tourism": "museum"
  }
},
{
  "type": "node",
  "id": 734057156,
  "lat": 51.5238169,
  "lon": -0.0865519,
  "tags": {
    "name": "Museum of Methodism",
    "tourism": "museum"
  }
},
{
  "type": "node",
  "id": 910356813,
  "lat": 51.4790917,
  "lon": -0.0079655,
  "tags": {
    "addr:city": "London",
    "addr:country": "GB",
    "addr:housenumber": "12",
    "addr:postcode": "SE10 8ER",
    "addr:street": "Crooms Hill",
    "name": "The Fan Museum",
    "opening_hours": "Tu-Sa 11:00-17:00; Su 12:00-17:00",
    "tourism": "museum",
    "wikidata": "Q5433566",
    "wikipedia": "en:Fan Museum"
  }
},
{
  "type": "node",
  "id": 1043510888,
  "lat": 51.5246649,
  "lon": -0.1335300,
  "tags": {
    "name": "The Octagon Gallery",
    "toilets:wheelchair": "no",
    "tourism": "museum",
    "website": "http://www.ucl.ac.uk/museums/visit/highlights/octagon",
    "wheelchair": "yes"
  }
},
{
  "type": "node",
  "id": 1045455152,
  "lat": 51.5323922,
  "lon": 0.7159202,
  "tags": {
    "layer": "1",
    "name": "Southend Pier Museum",
    "tourism": "museum",
    "wheelchair": "no"
  }
},
{
  "type": "node",
  "id": 1110807820,
  "lat": 51.4433745,
  "lon": 0.3696959,
  "tags": {
    "source": "OS OpenData StreetView",
    "tourism": "museum"
  }
},
{
  "type": "node",
  "id": 1110807822,
  "lat": 51.4438598,
  "lon": 0.3765862,
  "tags": {
    "name": "Milton Chantry",
    "source": "OS OpenData StreetView",
    "source:name": "local_knowledge",
    "tourism": "museum",
    "wikidata": "Q17361858"
  }
},
{
  "type": "node",
  "id": 1216160782,
  "lat": 51.5237470,
  "lon": -0.1342703,
  "tags": {
    "name": "Grant Museum of Zoology",
    "tourism": "museum",
    "website": "http://www.ucl.ac.uk/museums/zoology",
    "wheelchair": "limited",
    "wikidata": "Q5596372"
  }
},
{
  "type": "node",
  "id": 1288877546,
  "lat": 51.5021025,
  "lon": -0.0980994,
  "tags": {
    "name": "London Fire Brigade Museum",
    "tourism": "museum",
    "wikidata": "Q6670413"
  }
},
{
  "type": "node",
  "id": 1289223308,
  "lat": 51.4998279,
  "lon": -0.1425510,
  "tags": {
    "name": "Queen's Gallery",
    "tourism": "museum",
    "wheelchair": "yes",
    "wikidata": "Q1434767",
    "wikipedia": "en:Queen's Gallery"
  }
},
{
  "type": "node",
  "id": 1493424622,
  "lat": 51.5129421,
  "lon": -0.1458842,
  "tags": {
    "addr:housenumber": "25",
    "addr:street": "Brook Street",
    "name": "Handel & Hendrix",
    "tourism": "museum",
    "website": "https://handelhendrix.org/"
  }
},
{
  "type": "node",
  "id": 1558137005,
  "lat": 51.5445834,
  "lon": -0.0560328,
  "tags": {
    "name": "Hackney Museum",
    "note": "On ground floor of Hackney Central Library building",
    "operator": "Hackney Council",
    "source": "survey",
    "tourism": "museum",
    "website": "http://www.hackney.gov.uk/cm-museum.htm",
    "wikidata": "Q18748758"
  }
},
{
  "type": "node",
  "id": 1588957563,
  "lat": 51.5264897,
  "lon": -0.1045003,
  "tags": {
    "fee": "no",
    "level": "-1",
    "name": "Islington Museum",
    "note": "In basement of Finsbury Library",
    "operator": "Islington Council",
    "tourism": "museum",
    "website": "https://www.islington.gov.uk/islington/history-heritage/heritage_museum/Pages/default.aspx",
    "wheelchair": "yes",
    "wikidata": "Q6084382",
    "wikipedia": "en:Islington Museum"
  }
},
{
  "type": "node",
  "id": 1686474834,
  "lat": 51.5220060,
  "lon": -0.1025564,
  "tags": {
    "addr:city": "London",
    "addr:housename": "St John's Gate",
    "addr:postcode": "EC1M 4DA",
    "addr:street": "St John's Lane",
    "name": "Museum of the Order of St John",
    "opening_hours": "Mo-Sa 10:00-17:00",
    "operator": "Order of St John",
    "phone": "+4420 7324 4005",
    "source": "photograph",
    "tourism": "museum",
    "website": "http://museumstjohn.org.uk/",
    "wheelchair": "no",
    "wikidata": "Q6941110",
    "wikipedia": "en:Museum of the Order of St John"
  }
},
{
  "type": "node",
  "id": 1693796694,
  "lat": 51.6090470,
  "lon": 0.2973171,
  "tags": {
    "name": "Brentwood Museum",
    "tourism": "museum"
  }
},
{
  "type": "node",
  "id": 1731830617,
  "lat": 51.5217693,
  "lon": -0.1286816,
  "tags": {
    "addr:city": "London",
    "addr:postcode": "WC1H 0XG",
    "addr:street": "Thornhaugh Street",
    "name": "Brunei Gallery, SOAS",
    "tourism": "museum",
    "website": "https://www.soas.ac.uk/gallery/"
  }
},
{
  "type": "node",
  "id": 1832087538,
  "lat": 51.4311371,
  "lon": 0.3642715,
  "tags": {
    "bunker_type": "civil_defence",
    "location": "underground",
    "military": "bunker",
    "name": "Cold War Bunker",
    "tourism": "museum",
    "website": "https://www.gravesham.gov.uk/home/community-and-leisure/arts-and-heritage/cold-war-bunker"
  }
},
{
  "type": "node",
  "id": 1926714581,
  "lat": 51.5179214,
  "lon": 0.1907566,
  "tags": {
    "name": "Rainham Hall",
    "tourism": "museum",
    "wikidata": "Q7284889"
  }
},
{
  "type": "node",
  "id": 2028840405,
  "lat": 51.4952880,
  "lon": -0.0121518,
  "tags": {
    "addr:city": "London",
    "addr:housenumber": "37-43",
    "addr:postcode": "E14 3NE",
    "addr:street": "Glengall Grove",
    "name": "Friends of Island History Trust",
    "tourism": "museum",
    "website": "https://www.islandhistory.co.uk/"
  }
},
{
  "type": "node",
  "id": 2043098448,
  "lat": 51.3720528,
  "lon": -0.0992517,
  "tags": {
    "name": "Museum of Croydon",
    "tourism": "museum",
    "website": "www.museumofcroydon.com",
    "wikidata": "Q6940827"
  }
},
{
  "type": "node",
  "id": 2102604123,
  "lat": 51.5197930,
  "lon": -0.0724844,
  "tags": {
    "name": "The Museum of Immigration and Diversity at 19 Princelet Street",
    "tourism": "museum"
  }
},
{
  "type": "node",
  "id": 2114963016,
  "lat": 51.3387800,
  "lon": 0.7434355,
  "tags": {
    "name": "Sittingbourne Heritage Museum",
    "source": "Local Knowledge",
    "tourism": "museum"
  }
},
{
  "type": "node",
  "id": 2244751330,
  "lat": 51.5208921,
  "lon": -0.0778038,
  "tags": {
    "name": "Dennis Severs' House",
    "opening_hours": "Mo, We, Fr 17:00-21:00; Su 12:00-15:00",
    "source": "+44 20 7247 4013",
    "tourism": "museum",
    "wikidata": "Q3313296"
  }
},
{
  "type": "node",
  "id": 2336628703,
  "lat": 51.3339301,
  "lon": 0.1773581,
  "tags": {
    "name": "Shoreham Aircraft Museum",
    "tourism": "museum",
    "website": "http://www.shoreham-aircraft-museum.co.uk/",
    "wikidata": "Q7501419"
  }
},
{
  "type": "node",
  "id": 2376560703,
  "lat": 51.7135938,
  "lon": 0.1552287,
  "tags": {
    "name": "North Weald Airfield Museum",
    "tourism": "museum"
  }
},
{
  "type": "node",
  "id": 2606221073,
  "lat": 51.5043092,
  "lon": -0.0761761,
  "tags": {
    "name": "Tower Bridge Engine Rooms",
    "toilets:wheelchair": "yes",
    "tourism": "museum",
    "wheelchair": "limited"
  }
},
{
  "type": "node",
  "id": 2617232245,
  "lat": 51.5295982,
  "lon": -0.1281295,
  "tags": {
    "addr:housenumber": "96",
    "addr:street": "Euston Road",
    "name": "British Library Exhibition Space",
    "opening_hours": "Jan-Dec: Mo, We-Fr 10:00-18:00; Jan-Dec: Tu 10:00-20:00; Sa 11:00-17:00; Su, PH off",
    "phone": "+44 1937546546",
    "toilets:wheelchair": "yes",
    "tourism": "museum",
    "wheelchair": "yes"
  }
},
{
  "type": "node",
  "id": 2617821322,
  "lat": 51.5259739,
  "lon": -0.1340195,
  "tags": {
    "addr:housenumber": "183",
    "addr:street": "Euston Road",
    "entrance": "main",
    "name": "Wellcome Collection",
    "opening_hours": "Tu-We 10:00-18:00; Th 10:00-22:00; Fr-Sa 10:00-18:00; Su 11:00-18:00",
    "phone": "+44 20 7611 2222",
    "source": "unknown;survey",
    "toilets:wheelchair": "yes",
    "tourism": "museum",
    "website": "http://www.wellcomecollection.org",
    "wheelchair": "yes",
    "wikidata": "Q7981191",
    "wikipedia": "en:Wellcome Collection"
  }
},
{
  "type": "node",
  "id": 2994756833,
  "lat": 51.7114682,
  "lon": 0.1642127,
  "tags": {
    "name": "Epping And Ongar Railway",
    "tourism": "museum"
  }
},
{
  "type": "node",
  "id": 3059089468,
  "lat": 51.5355751,
  "lon": -0.1239722,
  "tags": {
    "name": "House of Illustration",
    "tourism": "museum"
  }
},
{
  "type": "node",
  "id": 3067333452,
  "lat": 51.3314240,
  "lon": 0.2849721,
  "tags": {
    "addr:postcode": "TN15 7EG",
    "addr:street": "Ash Lane",
    "name": "Kent Firefighting Museum",
    "tourism": "museum",
    "website": "http://www.kentfirefightingmuseum.org.uk"
  }
},
{
  "type": "node",
  "id": 3498748654,
  "lat": 51.5124599,
  "lon": -0.1210881,
  "tags": {
    "addr:city": "London",
    "addr:housenumber": "45",
    "addr:postcode": "WC2E 7BN",
    "addr:street": "Wellington Street",
    "name": "London Film Museum",
    "opening_hours": "Mo-Su 10:00-18:00",
    "tourism": "museum",
    "website": "http://londonfilmmuseum.com/",
    "wikidata": "Q6670408",
    "wikipedia": "en:London Film Museum"
  }
},
{
  "type": "node",
  "id": 3680632656,
  "lat": 51.5172894,
  "lon": -0.0602067,
  "tags": {
    "fee": "no",
    "name": "The Royal London Hospital Museum",
    "opening_hours": "Tu-Fr 10:00-16:00",
    "tourism": "museum",
    "website": "https://www.bartshealth.nhs.uk/the-royal-london-hospital-museum-and-archives"
  }
},
{
  "type": "node",
  "id": 3761601091,
  "lat": 51.5616517,
  "lon": -0.0826800,
  "tags": {
    "name": "The Gallery",
    "source": "survey",
    "tourism": "museum"
  }
},
{
  "type": "node",
  "id": 4001177761,
  "lat": 51.5130887,
  "lon": 0.5878623,
  "tags": {
    "addr:city": "Canvey Island",
    "addr:housename": "The Old Degausing Station",
    "addr:postcode": "SS8 0AY",
    "addr:street": "Western Esplanade",
    "name": "The Bay Museum",
    "opening_hours": "Su,BH 10:00-16:00",
    "tourism": "museum"
  }
},
{
  "type": "node",
  "id": 4354554594,
  "lat": 51.5176629,
  "lon": -0.1004708,
  "tags": {
    "name": "St Bartholomew's Hospital museum",
    "opening_hours": "Tu-Fr 10:00-16:00",
    "tourism": "museum"
  }
},
{
  "type": "node",
  "id": 4359087289,
  "lat": 51.5201349,
  "lon": -0.0713801,
  "tags": {
    "internet_access": "wlan",
    "name": "Museum Of Happiness",
    "name:en": "Museum Of Happiness",
    "tourism": "museum"
  }
},
{
  "type": "node",
  "id": 4384901986,
  "lat": 51.4639484,
  "lon": -0.1163525,
  "tags": {
    "addr:city": "London",
    "addr:housenumber": "187",
    "addr:postcode": "SW9 8BA",
    "addr:street": "Ferndale Road",
    "name": "The Chocolate Museum",
    "opening_hours": "We-Fr 14:00-19:00; Sa 11:00-18:00",
    "phone": "+44 7723434235",
    "tourism": "museum",
    "website": "https://www.thechocolatemuseum.co.uk/"
  }
},
{
  "type": "node",
  "id": 4458520549,
  "lat": 51.2470274,
  "lon": 0.6306638,
  "tags": {
    "name": "Dog collar museum",
    "tourism": "museum",
    "website": "https://www.leeds-castle.com/Attractions/The+Castle+%26amp%3B+Exhibitions?id=p3"
  }
},
{
  "type": "node",
  "id": 4513341393,
  "lat": 51.5141815,
  "lon": -0.0876652,
  "tags": {
    "description": "The entrance is on Bartholomew Lane, on the eastern edge of the Bank of England. You can’t access the museum through the main Bank entrance.",
    "fee": "no",
    "name": "Bank of England",
    "name:en": "Bank of England",
    "opening_hours": "Mo-Fr 10:00-17:00",
    "tourism": "museum",
    "website": "https://www.bankofengland.co.uk/museum",
    "wikidata": "Q1893754"
  }
},
{
  "type": "node",
  "id": 4701264956,
  "lat": 51.5400447,
  "lon": 0.6506280,
  "tags": {
    "name": "Leigh Heritage Centre",
    "tourism": "museum"
  }
},
{
  "type": "node",
  "id": 4712977392,
  "lat": 51.5392769,
  "lon": -0.1010821,
  "tags": {
    "addr:housenumber": "1",
    "addr:street": "Shillingford Street",
    "name": "Lie Lie Land",
    "opening_hours": "24/7",
    "tourism": "museum"
  }
},
{
  "type": "node",
  "id": 4737629421,
  "lat": 51.5341831,
  "lon": -0.1202595,
  "tags": {
    "level": "-1",
    "name": "London Canal Museum",
    "name:ca": "Museu del Canal de Londres",
    "name:en": "King's Cross Ice Well",
    "tourism": "museum"
  }
},
{
  "type": "node",
  "id": 4749096025,
  "lat": 51.5000475,
  "lon": -0.1361252,
  "tags": {
    "email": "guardsmuseum@aol.com",
    "name": "The Guards Museum",
    "name:hu": "Királyi Testőrség Múueuma",
    "opening_hours": "Mo-Su 10:00-16:00",
    "tourism": "museum",
    "website": "http://theguardsmuseum.com/",
    "wikidata": "Q3521171"
  }
},
{
  "type": "node",
  "id": 4838849525,
  "lat": 51.4172403,
  "lon": 0.7425256,
  "tags": {
    "name": "Queenborough Guildhall Museum",
    "opening_hours": "Sa 14:00-17:00",
    "tourism": "museum"
  }
},
{
  "type": "node",
  "id": 4840751465,
  "lat": 51.4795206,
  "lon": 0.3246152,
  "tags": {
    "name": "Thurrock Museum",
    "tourism": "museum"
  }
},
{
  "type": "node",
  "id": 4973585223,
  "lat": 51.5247243,
  "lon": -0.1139982,
  "tags": {
    "addr:city": "London",
    "addr:housenumber": "15-20",
    "addr:postcode": "WC1X 0DA",
    "addr:street": "Phoenix Place",
    "name": "The Postal Museum",
    "opening_hours": "10:00-17:00",
    "operator": "Postal Heritage Trust",
    "phone": "+44 300 0300 700",
    "toilets:wheelchair": "yes",
    "tourism": "museum",
    "website": "https://www.postalmuseum.org/",
    "wheelchair": "yes",
    "wheelchair:description": "Slight ramp from street, wide automatic door. Museum is on a single level. Lift to 1st floor discovery centre. Accessible WC without RADAR key. Step-free to Mail Rail."
  }
},
{
  "type": "node",
  "id": 4973886525,
  "lat": 51.5346988,
  "lon": -0.0576431,
  "tags": {
    "addr:housenumber": "11",
    "addr:postcode": "E8 4RP",
    "addr:street": "Mare Street",
    "email": "info@thelasttuesdaysociety.org",
    "name": "The Viktor Wynd Museum of Curiosities",
    "name:en": "The Viktor Wynd Museum of Curiosities",
    "opening_hours": "We-Su 12:00-11:00",
    "operator": "The Last Tuesday Society",
    "phone": "+44 20 79983617",
    "tourism": "museum",
    "website": "http://www.thelasttuesdaysociety.org/museum-curiosities/"
  }
},
{
  "type": "node",
  "id": 5029665757,
  "lat": 51.5316690,
  "lon": -0.1279676,
  "tags": {
    "name": "Crick Exhibition",
    "opening_hours": "Fr, Sa 10:00-17:00; We 10:00-20:00; Th 10:00-15:00",
    "tourism": "museum"
  }
},
{
  "type": "node",
  "id": 5071252726,
  "lat": 51.5049487,
  "lon": -0.1271564,
  "tags": {
    "name": "Household Cavalry Museum",
    "tourism": "museum"
  }
},
{
  "type": "node",
  "id": 5078803319,
  "lat": 51.5409797,
  "lon": 0.2147365,
  "tags": {
    "name": "Memory Booth",
    "tourism": "museum"
  }
},
{
  "type": "node",
  "id": 5207251549,
  "lat": 51.5243450,
  "lon": -0.1129356,
  "tags": {
    "addr:city": "London",
    "addr:street": "Phoenix Place",
    "name": "Mail Rail Museum",
    "name:zh": "郵政博物馆",
    "tourism": "museum",
    "website": "https://www.postalmuseum.org/",
    "wheelchair": "yes",
    "wheelchair:description": "RADAR key Changing Places toilet not checked today. Lift (reverse in/out, no mirror) down to exhibition area with wide level aisles. Street entrance has automatic sliding door.",
    "wikidata": "Q3520122",
    "wikipedia": "en:Postal Museum, London"
  }
},
{
  "type": "node",
  "id": 5218910021,
  "lat": 51.5161425,
  "lon": -0.0927861,
  "tags": {
    "email": "colpolicemuseum@london.co.uk",
    "name": "City Police Museum",
    "name:zh": "市警察博物馆",
    "opening_hours": "Mo-Fr 09:30-17:00",
    "tourism": "museum",
    "website": "https://cityoflondon.police.uk/about-us/history/museum/Pages/default.aspx"
  }
},
{
  "type": "node",
  "id": 5247197725,
  "lat": 51.5214637,
  "lon": -0.0997845,
  "tags": {
    "admission": "free",
    "name": "The Charterhouse",
    "opening_hours": "Tu-Su 11:00-16:45",
    "tourism": "museum",
    "website": "http://www.thecharterhouse.org/",
    "wikidata": "Q6670230",
    "wikipedia": "en:London Charterhouse"
  }
},
{
  "type": "node",
  "id": 5323721988,
  "lat": 51.5078919,
  "lon": -0.1253919,
  "tags": {
    "level": "-1",
    "name": "British Optical Association Museum",
    "note": "Open weekdays, by appointment only (also may be open on Open House London weekend).",
    "operator": "The College of Optometrists",
    "phone": "+44 20 7766 4353",
    "tourism": "museum",
    "wheelchair": "no",
    "wikidata": "Q14993329"
  }
},
{
  "type": "node",
  "id": 5610431353,
  "lat": 51.4676358,
  "lon": -0.0885088,
  "tags": {
    "contact:instagram": "https://instagram.com/salvarmyarchive/",
    "contact:twitter": "https://twitter.com/salvarmyarchive/",
    "email": "heritage@salvationarmy.org.uk",
    "name": "International Heritage Centre",
    "opening_hours": "Tu-Fr 09:30-16:00",
    "operator": "Salvation Army",
    "phone": "+442073267800",
    "tourism": "museum",
    "website": "https://www.salvationarmy.org.uk/international-heritage-centre"
  }
},
{
  "type": "node",
  "id": 5656403457,
  "lat": 51.5175548,
  "lon": -0.1248012,
  "tags": {
    "name": "Museum of Comedy",
    "tourism": "museum"
  }
},
{
  "type": "node",
  "id": 5741257603,
  "lat": 51.5000072,
  "lon": -0.1176697,
  "tags": {
    "addr:housename": "Gassiot House",
    "addr:housenumber": "252",
    "addr:postcode": "SE1 7PD",
    "addr:street": "Westminster Bridge Road",
    "name": "The Florence Nightingale Museum",
    "tourism": "museum",
    "wikidata": "Q5460739",
    "wikipedia": "en:Florence Nightingale Museum"
  }
},
{
  "type": "node",
  "id": 6307248821,
  "lat": 51.5257779,
  "lon": -0.1447883,
  "tags": {
    "name": "Royal College of Physicians Museum",
    "operator": "Royal College of Physicians",
    "tourism": "museum"
  }
},
{
  "type": "node",
  "id": 6414630967,
  "lat": 51.5233717,
  "lon": -0.1522712,
  "tags": {
    "name": "Royal Academy of Music Museum",
    "tourism": "museum"
  }
},
{
  "type": "node",
  "id": 6513574233,
  "lat": 51.4779618,
  "lon": -0.0016737,
  "tags": {
    "name": "Royal Observatory",
    "name:zh": "皇家天文台",
    "opening_hours": "Mo-Sa 10:00-17:00",
    "tourism": "museum"
  }
},
{
  "type": "node",
  "id": 6515250885,
  "lat": 51.5102367,
  "lon": -0.1340946,
  "tags": {
    "name": "Body world",
    "name:en": "Body worlds london",
    "tourism": "museum"
  }
},
{
  "type": "node",
  "id": 6857193346,
  "lat": 51.5088714,
  "lon": -0.1286594,
  "tags": {
    "name": "National Gallery",
    "tourism": "museum"
  }
},
{
  "type": "node",
  "id": 7046046492,
  "lat": 51.5175094,
  "lon": -0.1530662,
  "tags": {
    "name": "The",
    "name:en": "The wallace collection",
    "name:zh": "华勒斯典藏馆",
    "tourism": "museum"
  }
},
{
  "type": "node",
  "id": 7057055685,
  "lat": 51.4905939,
  "lon": -0.1587442,
  "tags": {
    "name": "Saatchi gallery",
    "name:zh": "萨奇画廊",
    "tourism": "museum"
  }
},
{
  "type": "way",
  "id": 4960905,
  "nodes": [
    32845894,
    1379828958,
    32845895,
    32845896,
    32845897,
    32845898,
    2194596718,
    2194596713,
    2194596720,
    2194596724,
    1267657129,
    1267657274,
    32845899,
    32845894
  ],
  "tags": {
    "addr:city": "Crystal Palace",
    "addr:postcode": "SE19 2BA",
    "addr:street": "Anerley Hill",
    "building": "yes",
    "building:levels": "2",
    "name": "Crystal Palace Museum",
    "phone": "+44 20 8676 0700",
    "tourism": "museum",
    "website": "http://www.crystalpalacemuseum.org.uk/",
    "wikipedia": "en:The Crystal Palace"
  }
},
{
  "type": "way",
  "id": 5095245,
  "nodes": [
    32869229,
    32869228,
    34779695,
    32869227,
    33778452,
    32869226,
    32869225,
    2205062092,
    2205062093,
    32869129,
    32869237,
    2205062123,
    32869236,
    2205062169,
    936793533,
    275531123,
    32869235,
    936793504,
    936793523,
    936793724,
    32869234,
    32869233,
    416451217,
    2205062181,
    2205062179,
    34775511,
    34775514,
    34775517,
    34775521,
    34775523,
    32869229
  ],
  "tags": {
    "leisure": "park",
    "name": "Horniman Museum and Gardens",
    "tourism": "museum",
    "wikipedia": "en:Horniman Museum and Gardens"
  }
},
{
  "type": "way",
  "id": 8614496,
  "nodes": [
    986832369,
    986832237,
    986831867,
    986832461,
    986832026,
    986831375,
    986832070,
    986832142,
    986831576,
    986832016,
    61328920,
    986832321,
    986832384,
    61328981,
    986831960,
    986831397,
    61328912,
    3249021690,
    986832369
  ],
  "tags": {
    "addr:city": "London",
    "addr:postcode": "SE1 6HZ",
    "addr:street": "Lambeth Road",
    "building": "museum",
    "name": "Imperial War Museum",
    "name:zh": "帝国军事博物馆",
    "note": "IWM London tells the story of those whose lives have been shaped by war from the First World War to the present day. Find out more about the First World War in our brand new First World War Galleries.",
    "old_name": "Bethlem Royal Hospital",
    "opening_hours": "Mo-Su 10:00-18:00",
    "phone": "+44 20 7416 5000",
    "tourism": "museum",
    "website": "https://www.iwm.org.uk/visits/iwm-london",
    "wheelchair": "yes",
    "wikidata": "Q749808",
    "wikipedia": "en:Imperial War Museum"
  }
},
{
  "type": "way",
  "id": 10790633,
  "nodes": [
    96006680,
    1213564003,
    96006681,
    96006682,
    96006684,
    3065516800,
    96006680
  ],
  "tags": {
    "building": "yes",
    "changing_table": "yes",
    "changing_table:location": "male_toilet;female_toilet",
    "fee": "no",
    "internet_access": "wlan",
    "internet_access:fee": "no",
    "name": "V&A Museum of Childhood",
    "toilets": "yes",
    "toilets:access": "customers",
    "toilets:wheelchair": "designated",
    "tourism": "museum",
    "wheelchair": "yes",
    "wikidata": "Q644281",
    "wikipedia": "en:V&A Museum of Childhood"
  }
},
{
  "type": "way",
  "id": 10807015,
  "nodes": [
    96071858,
    1851327958,
    1851328085,
    1851328151,
    96071860,
    96071861,
    96071858
  ],
  "tags": {
    "building": "yes",
    "name": "National Army Museum",
    "tourism": "museum",
    "wikidata": "Q731616",
    "wikipedia": "en:National Army Museum"
  }
},
{
  "type": "way",
  "id": 22726768,
  "nodes": [
    2458271205,
    2557779304,
    2458271225,
    2458271230,
    2458271238,
    2458271229,
    2458271250,
    2458271244,
    243773256,
    2458271258,
    2458271272,
    2613007352,
    2458271278,
    2458271276,
    243773261,
    2458271281,
    2458271289,
    3621926155,
    3621926160,
    3621926159,
    3621926158,
    3621926157,
    3621926161,
    3621926162,
    3621926156,
    243773260,
    243773259,
    2458271242,
    2458271246,
    2458271232,
    2458271213,
    2458271205
  ],
  "tags": {
    "building": "yes",
    "tourism": "museum"
  }
},
{
  "type": "way",
  "id": 23941901,
  "nodes": [
    259512425,
    259512426,
    1722798333,
    1722798337,
    1722798343,
    1722798341,
    1722798335,
    259512428,
    1436348061,
    1436348054,
    259512425
  ],
  "tags": {
    "addr:country": "GB",
    "addr:housenumber": "2",
    "addr:postcode": "E17 9NH",
    "addr:street": "Vestry Road",
    "building": "yes",
    "name": "Vestry House Museum",
    "tourism": "museum",
    "website": "https://vestryhousemuseum.org.uk/",
    "wikidata": "Q7923505",
    "wikipedia": "en:Vestry House Museum"
  }
},
{
  "type": "way",
  "id": 24642569,
  "nodes": [
    281135653,
    5972141401,
    1373665464,
    1373665456,
    20626320,
    5972141396,
    1334645227,
    1334645268,
    1334645265,
    1334645257,
    267871957,
    1240169407,
    5242652630,
    1373665459,
    1373665457,
    1373665458,
    4445327808,
    5088233640,
    5242652623,
    1738069461,
    5088233655,
    5088233407,
    5241436272,
    5241436267,
    5241984737,
    5241436269,
    281135653
  ],
  "tags": {
    "addr:city": "London",
    "addr:postcode": "SE1 9TG",
    "addr:street": "Bankside",
    "amenity": "arts_centre",
    "building": "yes",
    "building:part": "no",
    "name": "Tate Modern",
    "name:he": "מוזיאון טייט מודרן",
    "name:ko": "테이트 모던",
    "name:ru": "Тейт Модерн",
    "name:zh": "泰特现代美术馆",
    "old_name": "Bankside Power Station",
    "opening_hours": "Su-Th 10:00-18:00; Fr-Sa 10:00-22:00",
    "source:addr": "website",
    "toilets:wheelchair": "yes",
    "tourism": "museum",
    "website": "https://www.tate.org.uk/modern",
    "wheelchair": "yes",
    "wheelchair:description": "Step-free entrances, ramp down to Turbine Hall. Lifts to all levels including Switch House panorama level 10. Many accessible toilets.",
    "wikidata": "Q193375",
    "wikipedia": "en:Tate Modern"
  }
},
{
  "type": "way",
  "id": 28269975,
  "nodes": [
    310453805,
    1455586033,
    310453806,
    1455586036,
    310453807,
    310453808,
    310453805
  ],
  "tags": {
    "addr:city": "London",
    "addr:housenumber": "40",
    "addr:postcode": "WC1N 1AZ",
    "addr:street": "Brunswick Square",
    "building": "museum",
    "building:levels": "2",
    "name": "Foundling Museum",
    "tourism": "museum",
    "wikidata": "Q5474645"
  }
},
{
  "type": "way",
  "id": 31510288,
  "nodes": [
    352672454,
    2271782273,
    352672455,
    2271782277,
    2271778997,
    2271782270,
    2271778992,
    2271778994,
    352672456,
    352672457,
    2271778985,
    2271778987,
    2271778967,
    2271778965,
    2271778963,
    3060888053,
    352672458,
    352672459,
    4386384410,
    352672460,
    352672461,
    2271778937,
    2271778941,
    2271778936,
    2271778947,
    2271778943,
    2271778939,
    2271778934,
    2271778924,
    352672463,
    352672454
  ],
  "tags": {
    "addr:city": "London",
    "addr:housename": "Burlington House",
    "addr:postcode": "W1J 0BD",
    "addr:street": "Piccadilly",
    "alt_name": "RA",
    "area": "yes",
    "description": "The Royal Academy of Arts is one of Britain's foremost cultural institutions and a major attraction located in the heart of Piccadilly. Established in 1768 and run to this day by eminent artists, the Academy is home to a world renowned exhibition program.",
    "name": "Royal Academy of Arts",
    "phone": "+44 20 7300 8000",
    "tourism": "museum",
    "website": "https://www.royalacademy.org.uk",
    "wheelchair": "yes",
    "wikidata": "Q270920",
    "wikipedia": "en:Royal Academy of Arts"
  }
},
{
  "type": "way",
  "id": 42003475,
  "nodes": [
    520925843,
    520925876,
    520925879,
    520925881,
    520925843
  ],
  "tags": {
    "building": "yes",
    "name": "Bruce Castle Museum",
    "tourism": "museum",
    "wikidata": "Q991572",
    "wikipedia": "en:Bruce Castle"
  }
},
{
  "type": "way",
  "id": 43706245,
  "nodes": [
    747591277,
    553073410,
    747591279,
    758770221,
    747591277
  ],
  "tags": {
    "addr:city": "London",
    "addr:country": "GB",
    "addr:housename": "Dr Johnson's House",
    "addr:housenumber": "17",
    "addr:postcode": "EC4A 3DE",
    "addr:street": "Gough Square",
    "building": "yes",
    "building:levels": "3",
    "contact:phone": "+44 20 73533745",
    "contact:website": "http://www.drjohnsonshouse.org/",
    "historic": "building",
    "name": "Dr Johnson's House",
    "opening_hours": "Oct-Apr: Mo-Sa 11:00-17:00; May-Sep: Mo-Sa 11:00-17:30",
    "roof:levels": "1",
    "toilets": "yes",
    "toilets:access": "customers",
    "tourism": "museum",
    "wheelchair": "no",
    "wikidata": "Q5304210",
    "wikipedia": "en:Dr Johnson's House"
  }
},
{
  "type": "way",
  "id": 43917586,
  "nodes": [
    390986734,
    390986729,
    558550338,
    558550340,
    390986732,
    390986731,
    390986734
  ],
  "tags": {
    "amenity": "library",
    "building": "yes",
    "name": "Dartford Borough Museum and Library",
    "tourism": "museum",
    "wheelchair": "yes"
  }
},
{
  "type": "way",
  "id": 44599803,
  "nodes": [
    2628565075,
    2628565081,
    2628565085,
    2628565087,
    2628565089,
    2628565094,
    2628565098,
    2628565100,
    2628565091,
    2628565083,
    2628565071,
    2628565064,
    2628565063,
    5397035914,
    566313930,
    5397035912,
    566313931,
    5397035903,
    3635192295,
    5397035904,
    566313932,
    2628565075
  ],
  "tags": {
    "addr:city": "London",
    "addr:postcode": "WC2E 7BB",
    "addr:street": "Covent Garden Piazza",
    "building": "yes",
    "building:levels": "2",
    "building:material": "brick",
    "contact:phone": "+44 20 73796344",
    "contact:website": "http://www.ltmuseum.co.uk/",
    "fee": "yes",
    "name": "London Transport Museum",
    "name:fr": "Musée du transport de Londres",
    "opening_hours": "Mo-Su 10:00-17:15; Fr 11:00-17:15",
    "operator": "Transport for London (TfL)",
    "roof:colour": "dark_grey",
    "toilets:wheelchair": "yes",
    "tourism": "museum",
    "website": "https://www.ltmuseum.co.uk/",
    "wheelchair": "yes",
    "wikidata": "Q1541098",
    "wikipedia": "en:London Transport Museum"
  }
},
{
  "type": "way",
  "id": 50831146,
  "nodes": [
    648260408,
    648260334,
    648260425,
    648260420,
    648260424,
    648260418,
    648260422,
    648260416,
    648260408
  ],
  "tags": {
    "addr:city": "Southend-on-Sea",
    "addr:housename": "Southend Central Museum",
    "addr:postcode": "SS2 6EW",
    "addr:street": "Victoria Avenue",
    "building": "yes",
    "name": "Southend Central Museum",
    "tourism": "museum",
    "website": "http://www.southendmuseums.co.uk/",
    "wheelchair": "no",
    "wikidata": "Q7569537"
  }
},
{
  "type": "way",
  "id": 61453261,
  "nodes": [
    767083767,
    767083761,
    767083759,
    767083757,
    767083758,
    767083767
  ],
  "tags": {
    "addr:city": "London",
    "addr:housenumber": "13",
    "addr:postcode": "WC2A 3BP",
    "addr:street": "Lincoln's Inn Fields",
    "building": "yes",
    "name": "Sir John Soane's Museum",
    "opening_hours": "Tu-Sa 10:00-16:30",
    "tourism": "museum",
    "website": "https://www.soane.org/",
    "wikidata": "Q2060860",
    "wikipedia": "en:Sir John Soane's Museum"
  }
},
{
  "type": "way",
  "id": 69939548,
  "nodes": [
    835874489,
    835874410,
    835874324,
    835874496,
    835874489
  ],
  "tags": {
    "building": "yes",
    "tourism": "museum"
  }
},
{
  "type": "way",
  "id": 80278329,
  "nodes": [
    936982814,
    936982852,
    936982553,
    936982497,
    936982583,
    936982682,
    936982473,
    936982532,
    936982814
  ],
  "tags": {
    "addr:housename": "Old Walworth Town Hall",
    "addr:housenumber": "151",
    "addr:postcode": "SE17 1RY",
    "addr:street": "Walworth Road",
    "building": "yes",
    "name": "The Cuming Museum",
    "note": "Building gutted in fire, early 2013.",
    "tourism": "museum",
    "website": "https://www.southwark.gov.uk/DiscoverSouthwark/heritageandhistory/TheCumingMuseum/",
    "wheelchair": "limited",
    "wikidata": "Q5194089",
    "wikipedia": "en:Cuming Museum"
  }
},
{
  "type": "way",
  "id": 82459230,
  "nodes": [
    959764793,
    959765366,
    959765289,
    959764787,
    959764793
  ],
  "tags": {
    "addr:housenumber": "99",
    "addr:postcode": "SE1 0JF",
    "addr:street": "Southwark Street",
    "building": "office",
    "name": "Kirkaldy Testing Museum",
    "tourism": "museum",
    "wikidata": "Q6415564"
  }
},
{
  "type": "way",
  "id": 82770797,
  "nodes": [
    963510133,
    3414138035,
    6738943279,
    963509334,
    1261877044,
    963509692,
    1261876978,
    963509630,
    6483555670,
    963509879,
    963510133
  ],
  "tags": {
    "building": "yes",
    "layer": "1",
    "name": "The Clink",
    "phone": "+44 20 7403 5813",
    "tourism": "museum",
    "website": "https://www.clink.co.uk/",
    "wheelchair": "no",
    "wheelchair:description": "Only entrance appears to be down steep stairs.",
    "wikidata": "Q7723415",
    "wikipedia": "en:The Clink"
  }
},
{
  "type": "way",
  "id": 82785023,
  "nodes": [
    4561611306,
    963575639,
    963575679,
    4561611338,
    4561611339,
    4561611307,
    4561611306
  ],
  "tags": {
    "addr:city": "London",
    "addr:housenumber": "20",
    "addr:postcode": "E17 8AX",
    "addr:street": "South Access Road",
    "name": "Pump House Museum",
    "opening_hours": "Su 11:00-16:00",
    "tourism": "museum",
    "wikidata": "Q7966632",
    "wikipedia": "en:Walthamstow Pump House Museum"
  }
},
{
  "type": "way",
  "id": 83156108,
  "nodes": [
    878785691,
    2982566254,
    1325891835,
    967693841,
    967693836,
    967693852,
    2982566253,
    967693811,
    967693873,
    2982566251,
    878785691
  ],
  "tags": {
    "building": "yes",
    "castle_type": "defensive",
    "historic": "castle",
    "name": "Tonbridge Castle Gatehouse",
    "source:building": "OS_OpenData_StreetView",
    "tourism": "museum",
    "website": "https://www.tonbridgecastle.org/",
    "wikidata": "Q7820768",
    "wikipedia": "en:Tonbridge Castle"
  }
},
{
  "type": "way",
  "id": 90404358,
  "nodes": [
    1048822042,
    1048822490,
    1048821728,
    1048823093,
    1048822196,
    1048821863,
    1048821761,
    1048821618,
    1048822042
  ],
  "tags": {
    "addr:housenumber": "9a",
    "addr:postcode": "SE1 9RY",
    "addr:street": "St. Thomas Street",
    "alt_name": "Old Operating Theatre Museum and Herb Garret",
    "building": "yes",
    "name": "Old Operating Theatre Museum",
    "opening_hours": "Mo-Su 10:30-17:00",
    "tourism": "museum",
    "website": "http://www.thegarret.org.uk",
    "wheelchair": "no",
    "wikidata": "Q7084660",
    "wikipedia": "en:Old Operating Theatre Museum and Herb Garret"
  }
},
{
  "type": "way",
  "id": 90651048,
  "nodes": [
    1052111403,
    1509979786,
    1509979789,
    1509979794,
    1509979783,
    1052111399,
    1509979792,
    1509979797,
    1509979814,
    1509979809,
    1052111396,
    1052111401,
    1052111403
  ],
  "tags": {
    "building": "yes",
    "name": "Southchurch Hall",
    "tourism": "museum",
    "wikidata": "Q7569243"
  }
},
{
  "type": "way",
  "id": 91321943,
  "nodes": [
    1060168844,
    1060168146,
    1060168572,
    1060169139,
    1060168844
  ],
  "tags": {
    "addr:city": "Chelmsford",
    "addr:country": "GB",
    "building": "yes",
    "name": "Peter Edwards Library & Museum",
    "source": "Bing",
    "tourism": "museum"
  }
},
{
  "type": "way",
  "id": 92642894,
  "nodes": [
    1074606876,
    1074606591,
    1074606548,
    1074606979,
    1074606928,
    1074606746,
    1074606562,
    4843184755,
    3570040994,
    4843184763,
    4843184760,
    4843184761,
    4843184762,
    4843184759,
    4843184769,
    4843184770,
    4843184758,
    4843184757,
    4843184756,
    4843184754,
    1074606652,
    1074606876
  ],
  "tags": {
    "addr:city": "Chelmsford",
    "addr:housename": "Oaklands Park",
    "addr:street": "Moulsham Street",
    "name": "Chelmsford Museum",
    "operator": "Chelmsford City Council",
    "tourism": "museum",
    "wheelchair": "yes",
    "wikidata": "Q5089964"
  }
},
{
  "type": "way",
  "id": 94665228,
  "nodes": [
    5071144882,
    5071144849,
    6259006780,
    5071144841,
    1098880819,
    4354711203,
    4354711205,
    1098880820,
    1098880816,
    1098880817,
    1098880818,
    6259006577,
    6259006576,
    1098880814,
    1098880815,
    1098880821,
    5071144882
  ],
  "tags": {
    "addr:city": "Rochester",
    "addr:country": "GB",
    "addr:housenumber": "17",
    "addr:street": "High Street",
    "building": "yes",
    "name": "Guildhall Museum",
    "source": "local_knowledge",
    "source:shape": "Bing",
    "tourism": "museum"
  }
},
{
  "type": "way",
  "id": 96237005,
  "nodes": [
    1115501055,
    1115501056,
    1115501059,
    2271778996,
    2271778995,
    1115501060,
    2271778998,
    2271779000,
    2271779002,
    2271779001,
    2271779003,
    2271779004,
    2271779005,
    2271779006,
    2271779008,
    2271779007,
    1115501055
  ],
  "tags": {
    "addr:housenumber": "6",
    "addr:street": "Burlington Gardens",
    "amenity": "college",
    "building": "yes",
    "fixme": "Check the split between this (which is marked museum on OS) and the gallery to the south (marked Acad on OS).",
    "name": "Royal Academy",
    "name:es": "Academia Real de las Artes.",
    "source": "local_knowledge;OS",
    "tourism": "museum",
    "wikidata": "Q4642494",
    "wikipedia": "en:6 Burlington Gardens"
  }
},
{
  "type": "way",
  "id": 98485763,
  "nodes": [
    1139387827,
    1139387224,
    1139387413,
    1139387906,
    1139387462,
    1139387420,
    1139387646,
    1139387827
  ],
  "tags": {
    "building": "yes",
    "name": "Two Temple Place",
    "tourism": "museum",
    "wikidata": "Q7859280"
  }
},
{
  "type": "way",
  "id": 101154182,
  "nodes": [
    1167771501,
    1167771396,
    1167771365,
    1167771475,
    1167771345,
    1167771501
  ],
  "tags": {
    "addr:city": "London",
    "addr:housenumber": "83",
    "addr:postcode": "SE1 3XF",
    "addr:street": "Bermondsey Street",
    "building": "yes",
    "building:colour": "#e8a812",
    "building:levels": "4",
    "building:material": "plaster",
    "contact:email": "info@ftmlondon.org",
    "contact:phone": "+44 20 74078664",
    "contact:website": "http://www.ftmlondon.org",
    "fee": "yes",
    "name": "Fashion and Textile Museum",
    "opening_hours": "Tu-We, Fr-Sa 11:00-18:00; Th 11:00-20:00; Su 11:00-17:00",
    "operator": "Newham College of Further Education",
    "roof:colour": "silver",
    "roof:shape": "flat",
    "start_date": "2003",
    "tourism": "museum",
    "wikidata": "Q5436764",
    "wikipedia": "en:Fashion and Textile Museum"
  }
},
{
  "type": "way",
  "id": 104081033,
  "nodes": [
    1201169846,
    1201169621,
    1201169706,
    5323722141,
    1201169759,
    1201169782,
    1201169498,
    1201169593,
    4813058490,
    1201169846
  ],
  "tags": {
    "addr:housename": "Craven Street",
    "addr:housenumber": "36",
    "addr:postcode": "WC2N 5NF",
    "building": "yes",
    "building:colour": "brown",
    "building:levels": "4",
    "building:material": "brick",
    "name": "Benjamin Franklin House",
    "roof:colour": "dark_grey",
    "source": "bing",
    "tourism": "museum",
    "website": "https://benjaminfranklinhouse.org/",
    "wikidata": "Q4888645",
    "wikipedia": "en:Benjamin Franklin House"
  }
},
{
  "type": "way",
  "id": 115554282,
  "nodes": [
    1305157762,
    1305157754,
    1305157750,
    1334537230,
    1334537154,
    1334537124,
    1334537242,
    1305157762
  ],
  "tags": {
    "building": "yes",
    "name": "Markfield Beam Engine & Museum",
    "tourism": "museum",
    "wikidata": "Q6770967",
    "wikipedia": "en:Markfield Beam Engine"
  }
},
{
  "type": "way",
  "id": 117047225,
  "nodes": [
    1318614689,
    1318614704,
    1318614707,
    1132182377,
    1132182381,
    1132182382,
    1318614689
  ],
  "tags": {
    "name": "Garden Museum",
    "opening_hours": "Su-Fr 10:30-17:00; Sa 10:30-16:00; Mo[1] off",
    "tourism": "museum",
    "website": "https://www.gardenmuseum.org.uk/",
    "wikidata": "Q15221398",
    "wikipedia": "en:Garden Museum"
  }
},
{
  "type": "way",
  "id": 120316250,
  "nodes": [
    20947351,
    1961872713,
    1973754625,
    1973754624,
    1973754626,
    1973754628,
    1961939945,
    1973754630,
    1973754631,
    1973754635,
    1973754636,
    1349324847,
    1720872025,
    1720872027,
    1720872021,
    1720872017,
    1349324845,
    20947351
  ],
  "tags": {
    "addr:housename": "Apsley House",
    "addr:housenumber": "149",
    "addr:postcode": "W1J 7NT",
    "addr:street": "Piccadilly",
    "alt_name": "Number One, London",
    "building": "yes",
    "name": "Apsley House",
    "name:es": "Apsley House.",
    "name:zh": "阿普斯利大屋（惠灵顿公爵）",
    "old_name": "Wellington Museum",
    "opening_hours": "We-Su 11:00-17:00",
    "tourism": "museum",
    "wikidata": "Q622206"
  }
},
{
  "type": "way",
  "id": 123104922,
  "nodes": [
    1373882744,
    1373882746,
    1373882748,
    1373882747,
    1373882743,
    1373882745,
    1373882744
  ],
  "tags": {
    "building": "yes",
    "name": "Minster Abbey Gatehouse Museum",
    "source": "survey",
    "source:shape": "Bing",
    "tourism": "museum"
  }
},
{
  "type": "way",
  "id": 128812567,
  "nodes": [
    1422466344,
    1422466336,
    1422466339,
    2936174036,
    2936174038,
    2936174043,
    2936174047,
    1422466335,
    1422466344
  ],
  "tags": {
    "addr:housename": "The Royal Institution of Great Britain",
    "addr:housenumber": "21",
    "addr:postcode": "W1S 4BS",
    "addr:street": "Albemarle Street",
    "alt_name": "Ri",
    "building": "public",
    "building:levels": "3",
    "building:material": "stone",
    "int_name": "The Royal Institution of Great Britain",
    "name": "Royal Institution and Faraday Museum",
    "tourism": "museum",
    "website": "http://www.rigb.org",
    "wikidata": "Q2171086",
    "wikipedia": "en:Royal Institution"
  }
},
{
  "type": "way",
  "id": 138226831,
  "nodes": [
    1515304202,
    1515304188,
    1515304186,
    1515304190,
    1515304189,
    1515304192,
    1515304193,
    1515304195,
    1515304198,
    1515304201,
    1515304205,
    1515304199,
    1515304202
  ],
  "tags": {
    "building": "yes",
    "name": "Motorboat Museum",
    "tourism": "museum"
  }
},
{
  "type": "way",
  "id": 140144139,
  "nodes": [
    1535410241,
    1535410281,
    1535410302,
    1535410253,
    1535410306,
    1535410273,
    1535410255,
    1535410243,
    2204906387,
    1535410254,
    1535410236,
    258141466,
    1535410290,
    1535410274,
    258141467,
    258141468,
    258141469,
    2204906414,
    1535410241
  ],
  "tags": {
    "addr:city": "London",
    "addr:country": "GB",
    "addr:housename": "No. 1 Warehouse",
    "addr:housenumber": "No1 Warehouse",
    "addr:postcode": "E14 4AL",
    "addr:street": "Hertsmere Road",
    "building": "yes",
    "building:levels": "4",
    "building:material": "brick",
    "fee": "no",
    "name": "Museum of London Docklands",
    "note": "Building is 4 storeys tall facing the quay, and 5 storeys tall facing Hertsmere Rd",
    "old_name": "Museum in Docklands",
    "opening_hours": "Mo-Su 10:00-18:00",
    "operator": "Museum of London",
    "phone": "‎+44 20 7001 9844",
    "roof:colour": "#899093",
    "tourism": "museum",
    "website": "https://www.museumoflondon.org.uk/docklands/",
    "wheelchair": "yes",
    "wikidata": "Q2904846",
    "wikipedia": "en:Museum of London Docklands"
  }
},
{
  "type": "way",
  "id": 143558941,
  "nodes": [
    1570987950,
    1570988046,
    1570988173,
    1570988197,
    1570988130,
    1570987969,
    1570987998,
    1570988151,
    1570988011,
    1570987970,
    1570987942,
    1570988003,
    1570987950
  ],
  "tags": {
    "building": "yes",
    "name": "Sandford Mill Museum",
    "tourism": "museum",
    "website": "http://www.chelmsford.gov.uk/sandfordmill",
    "wheelchair": "yes"
  }
},
{
  "type": "way",
  "id": 146412243,
  "nodes": [
    1596837877,
    1596837875,
    1596837857,
    1596837887,
    6725275997,
    1596837877
  ],
  "tags": {
    "building": "yes",
    "name": "Brunel Museum",
    "tourism": "museum",
    "wheelchair": "yes"
  }
},
{
  "type": "way",
  "id": 146412246,
  "nodes": [
    2921402532,
    2921402533,
    1596837882,
    1596837899,
    1596837878,
    1596837879,
    1596837858,
    1596837895,
    1596837898,
    2921402529,
    2921402530,
    2921402531,
    1596837861,
    1596837900,
    1596837880,
    1596837870,
    1596837891,
    1596837866,
    1596837865,
    2921402532
  ],
  "tags": {
    "addr:housename": "Brunel Engine House",
    "building": "yes",
    "description": "First shaft sunk by Marc Brunel to construct the Thames Tunnel",
    "name": "Brunel Museum",
    "tourism": "museum",
    "website": "https://www.brunel-museum.org.uk/",
    "wikidata": "Q12053739",
    "wikipedia": "en:Brunel Museum"
  }
},
{
  "type": "way",
  "id": 149913507,
  "nodes": [
    1628480712,
    1628480709,
    1628480719,
    1628480722,
    1628480712
  ],
  "tags": {
    "building": "yes",
    "fee": "no",
    "name": "Otford Heritage Centre",
    "tourism": "museum"
  }
},
{
  "type": "way",
  "id": 156172966,
  "nodes": [
    1312264659,
    1312264560,
    1684549824,
    1312264626,
    794003482,
    1718566768,
    1312264530,
    1312264588,
    1312264655,
    5218910024,
    1312264553,
    1312264612,
    1312264523,
    1293215612,
    794003484,
    5218910023,
    1684549833,
    1684549832,
    1684549831,
    1312264659
  ],
  "tags": {
    "addr:postcode": "EC2V 5AE",
    "addr:street": "Guildhall Yard",
    "building": "yes",
    "name": "Guildhall Art Gallery",
    "opening_hours": "Tu-Sa 10:00-17:00; Su 12:00-16:00",
    "operator": "City of London Corporation",
    "start_date": "1999",
    "tourism": "museum",
    "wikidata": "Q4968030",
    "wikipedia": "en:Guildhall Art Gallery"
  }
},
{
  "type": "way",
  "id": 161420186,
  "nodes": [
    1733914729,
    1417256202,
    1733914717,
    1733914671,
    4689775134,
    1733914686,
    7008420630,
    1733914691,
    1733914729
  ],
  "tags": {
    "building": "yes",
    "name": "Prince Henry's Room",
    "operator": "City of London Corporation",
    "source": "Bing;survey",
    "tourism": "museum",
    "website": "https://www.cityoflondon.gov.uk/Corporation/LGNL_Services/Leisure_and_culture/Local_history_and_heritage/Buildings_within_the_City/prince_henrys.htm",
    "wikidata": "Q7244068",
    "wikipedia": "en:Prince Henry's Room"
  }
},
{
  "type": "way",
  "id": 170081292,
  "nodes": [
    1849822229,
    1812313580,
    1812313595,
    3248060136,
    3248060144,
    1849822229
  ],
  "tags": {
    "building:height": "9",
    "building:part": "yes",
    "name": "Emirates Aviation Experience",
    "phone": "+44 20 3440 7021",
    "tourism": "museum",
    "website": "https://www.aviation-experience.com/"
  }
},
{
  "type": "way",
  "id": 170386148,
  "nodes": [
    1815318350,
    1815318242,
    1815318237,
    1815318244,
    1815318250,
    1815318243,
    1815318328,
    1815318411,
    1815318350
  ],
  "tags": {
    "addr:city": "London",
    "addr:housenumber": "26",
    "addr:postcode": "SE1 7AG",
    "addr:street": "Lambeth High Street",
    "building": "yes",
    "name": "London Fire Brigade Pop-up Museum",
    "opening_hours": "We-Su 10:00-16:00",
    "tourism": "museum",
    "website": "https://london-fire.gov.uk/museum/",
    "wheelchair": "limited",
    "wheelchair:description": "Ground floor areas only. Temporarily exhibitions on upper floor via stairs, no lift."
  }
},
{
  "type": "way",
  "id": 174651219,
  "nodes": [
    1853048566,
    1853048535,
    1853048430,
    1853048456,
    1853048566
  ],
  "tags": {
    "building": "yes",
    "name": "Dairy Wing",
    "source": "survey",
    "tourism": "museum"
  }
},
{
  "type": "way",
  "id": 176307483,
  "nodes": [
    1868528602,
    3548900341,
    735146250,
    3548900345,
    3548900347,
    1868528606,
    2573598088,
    3548900344,
    1868528604,
    1868528602
  ],
  "tags": {
    "addr:housenumber": "1",
    "addr:postcode": "W1T 2HL",
    "addr:street": "Scala Street",
    "building": "yes",
    "email": "pollockstoymuseum@gmail.com",
    "name": "Pollock's Toy Museum",
    "opening_hours": "Mo-Sa 10:00-17:00",
    "phone": "+44 0207 636 3452",
    "source": "OS OpenData StreetView",
    "tourism": "museum",
    "website": "http://pollockstoys.com/",
    "wikidata": "Q4981056"
  }
},
{
  "type": "way",
  "id": 181770911,
  "nodes": [
    3825195485,
    3825195486,
    3825195484,
    3825195472,
    3825195471,
    3825195473,
    3825195474,
    3825195475,
    3825195487,
    3825195476,
    1436322936,
    4670749784,
    3825195492,
    3825195493,
    1436322949,
    1922000425,
    4670749783,
    3825195489,
    3825195490,
    3825195477,
    3825195478,
    3825195479,
    3825195480,
    3825195482,
    3825195483,
    3825195481,
    4672402755,
    4672402742,
    4672402748,
    3825195485
  ],
  "tags": {
    "addr:city": "London",
    "addr:country": "GB",
    "addr:postcode": "E17 4PP",
    "addr:street": "Forest Road",
    "alt_name": "Water House",
    "building": "yes",
    "name": "William Morris Gallery",
    "source": "bing;survey",
    "tourism": "museum",
    "wikidata": "Q8015837"
  }
},
{
  "type": "way",
  "id": 183090506,
  "nodes": [
    2460574214,
    1934478983,
    123643008,
    123643010,
    123643011,
    123643013,
    123643015,
    2541359479,
    123643016,
    123643017,
    2460574239,
    2460574240,
    123643018,
    123643020,
    123643021,
    2460574244,
    2460574243,
    2460574237,
    2460574238,
    2460574236,
    2460574235,
    123643022,
    123643038,
    2460574226,
    2460574227,
    123643039,
    123643041,
    2460574216,
    2460574218,
    123643042,
    2460574223,
    2460574221,
    2460574210,
    2460574206,
    2460574198,
    2460574201,
    123643044,
    2460574204,
    2460574199,
    1934478979,
    2323768981,
    2323768992,
    2323769023,
    2323769013,
    1934478985,
    1934478981,
    1934478984,
    2460574208,
    2460574214
  ],
  "tags": {
    "building": "yes",
    "name": "National Maritime Museum",
    "tourism": "museum",
    "wheelchair": "yes",
    "wikipedia": "en:National Maritime Museum"
  }
},
{
  "type": "way",
  "id": 183090507,
  "nodes": [
    1934478983,
    5582357764,
    5582357765,
    5582357763,
    416327015,
    416327019,
    27482429,
    4213477735,
    416327025,
    2541381310,
    2541381305,
    2541381270,
    496130429,
    2541381296,
    2541381276,
    2541375251,
    2541375271,
    2541381330,
    2541381286,
    1934478983
  ],
  "tags": {
    "name": "Royal Museums Greenwich",
    "tourism": "museum",
    "wikidata": "Q7374509",
    "wikipedia": "en:Royal Museums Greenwich"
  }
},
{
  "type": "way",
  "id": 190831613,
  "nodes": [
    2014389710,
    2014389717,
    2014389713,
    2014389715,
    2014389710
  ],
  "tags": {
    "addr:city": "London",
    "addr:housenumber": "12-13",
    "addr:postcode": "N1 9RT",
    "addr:street": "New Wharf Road",
    "building": "yes",
    "name": "London Canal Museum",
    "opening_hours": "Tu-Su 10:00-16:30",
    "phone": "+44 20 7713 0836",
    "tourism": "museum",
    "website": "http://canalmuseum.org.uk",
    "website:mobile": "www.canalmuseum.mobi",
    "wikidata": "Q6670203",
    "wikipedia": "en:London Canal Museum"
  }
},
{
  "type": "way",
  "id": 193463784,
  "nodes": [
    3729525314,
    3729525315,
    3729525316,
    3729525311,
    3729525312,
    3729525310,
    3729525309,
    3729525308,
    3729525307,
    3729525305,
    3729525306,
    3729525304,
    3729525303,
    3729525302,
    3729525301,
    3729525298,
    3729525294,
    3729525295,
    3729525293,
    3729525292,
    3729525291,
    3729525290,
    3729525288,
    3729525289,
    3729525287,
    3729525286,
    3729525285,
    3729525284,
    3729525283,
    3729525282,
    3729525296,
    3729525297,
    3729525300,
    3729543855,
    3729525299,
    3729543858,
    3729525313,
    3729588357,
    3729525314
  ],
  "tags": {
    "building": "castle",
    "name": "Fusiliers Museum",
    "tourism": "museum",
    "wikidata": "Q26318776"
  }
},
{
  "type": "way",
  "id": 197206542,
  "nodes": [
    2074869393,
    2074869386,
    2074869391,
    2074869395,
    2074869393
  ],
  "tags": {
    "access": "customers",
    "addr:city": "London",
    "addr:postcode": "SW1A 2AQ",
    "addr:street": "King Charles Street",
    "name": "Churchill Museum and Cabinet War Rooms",
    "name:en": "Churchill Museum and Cabinet War Rooms",
    "name:es": "Museo Churchill",
    "note": "Visit Churchill War Rooms, part of Imperial War Museums, to discover the original Cabinet War Rooms, the wartime bunker which sheltered Churchill and his staff during the Blitz.",
    "opening_hours:url": "http://www.iwm.org.uk/visits/churchill-war-rooms/directions",
    "phone": "+44 20 7930 6961",
    "tourism": "museum",
    "website": "http://cwr.iwm.org.uk",
    "wheelchair": "yes",
    "wikidata": "Q1024854",
    "wikipedia": "en:Churchill Museum and Cabinet War Rooms"
  }
},
{
  "type": "way",
  "id": 203708843,
  "nodes": [
    364362007,
    2137079717,
    4559315024,
    2137079706,
    364362009,
    364362007
  ],
  "tags": {
    "building": "yes",
    "name": "HMS Belfast ticket office",
    "operator": "Imperial War Museum",
    "tourism": "museum",
    "wheelchair": "limited"
  }
},
{
  "type": "way",
  "id": 206348902,
  "nodes": [
    2163562517,
    2163562514,
    2163562516,
    2163562515,
    2163562517
  ],
  "tags": {
    "building": "yes",
    "name": "Upminster Tithe Barn",
    "name_1": "Museum of Nostalgia",
    "tourism": "museum",
    "wikidata": "Q7898390"
  }
},
{
  "type": "way",
  "id": 209281563,
  "nodes": [
    2195035779,
    2799373301,
    2195035791,
    2195035788,
    2195035786,
    2195035790,
    2195035783,
    2195035785,
    2195035780,
    2195035789,
    2195035793,
    2195035782,
    2195035792,
    2195035784,
    2195035781,
    2195035779
  ],
  "tags": {
    "addr:housename": "Red House",
    "addr:postcode": "DA6 8JF",
    "addr:street": "Red House Lane",
    "building": "house",
    "historic": "house",
    "listed_status": "Grade I",
    "name": "Red House",
    "operator": "National Trust",
    "tourism": "museum",
    "wikidata": "Q3422736",
    "wikipedia": "en:Red House, Bexleyheath"
  }
},
{
  "type": "way",
  "id": 210442848,
  "nodes": [
    848505073,
    34776769,
    2205062072,
    2205062077,
    2205062076,
    2205062073,
    2205062071,
    2205062070,
    34776770,
    34776771,
    34776772,
    2205062102,
    2205062103,
    34776773,
    848505067,
    2924625641,
    2205062104,
    2205062105,
    34776774,
    34776775,
    2205062096,
    34776766,
    848505073
  ],
  "tags": {
    "addr:city": "Forest Hill",
    "addr:country": "GB",
    "addr:housenumber": "100",
    "addr:postcode": "SE23 3PQ",
    "addr:street": "London Road",
    "building": "yes",
    "building:material": "brick",
    "contact:phone": "+44 20 86991872",
    "contact:website": "http://www.horniman.ac.uk/",
    "fhrs:id": "255177",
    "name": "Horniman Museum",
    "tourism": "museum",
    "wikipedia": "en:Horniman Museum"
  }
},
{
  "type": "way",
  "id": 212452014,
  "nodes": [
    2222996641,
    2222996634,
    2222996632,
    2222996640,
    3141455338,
    2222996651,
    2222996650,
    2222996652,
    2222996635,
    2222996639,
    2222996645,
    2222996641
  ],
  "tags": {
    "building": "yes",
    "name": "Prittlewell Priory",
    "tourism": "museum",
    "website": "http://www.southendmuseums.co.uk/prittlewell/",
    "wheelchair": "limited",
    "wikidata": "Q7245990",
    "wikipedia": "en:Prittlewell Priory"
  }
},
{
  "type": "way",
  "id": 227833231,
  "nodes": [
    2364729554,
    2364729611,
    2364729895,
    2364729740,
    2364729554
  ],
  "tags": {
    "building": "yes",
    "name": "Biggin Hill Memorial Museum",
    "operator": "Biggin Hill Memorial Museum Trust",
    "operator:type": "private",
    "tourism": "museum",
    "website": "https://bhmm.org.uk/"
  }
},
{
  "type": "way",
  "id": 232592410,
  "nodes": [
    2409376693,
    2409376685,
    2409376681,
    2409376683,
    2409376687,
    2409376688,
    2409376693
  ],
  "tags": {
    "building": "yes",
    "name": "The Jewish Museum",
    "tourism": "museum",
    "website": "http://www.jewishmuseum.org.uk/",
    "wikidata": "Q154414",
    "wikipedia": "en:Jewish Museum London"
  }
},
{
  "type": "way",
  "id": 238208209,
  "nodes": [
    123643027,
    123643034,
    123643035,
    123643036,
    123643037,
    123643024,
    3621920743,
    123643025,
    3621920735,
    123643026,
    123643027
  ],
  "tags": {
    "addr:city": "Greenwich",
    "addr:housename": "The Queen's House",
    "addr:postcode": "SE10 9NF",
    "building": "yes",
    "name": "Queen's House",
    "name:zh": "王后行宫",
    "note": "Explore an internationally renowned art collection set amidst the history and beauty of the 17th-century Queen’s House, originally the retreat of Charles I's queen, Henrietta Maria, and one of the most important buildings in English architecture.",
    "operator": "Royal Museums, Greenwich.",
    "phone": "+44 20 8858 4422",
    "tourism": "museum",
    "website": "https://www.rmg.co.uk/queens-house",
    "wheelchair": "yes",
    "wikidata": "Q564981"
  }
},
{
  "type": "way",
  "id": 238208210,
  "nodes": [
    123643027,
    123643028,
    2460574253,
    2460574254,
    2460574262,
    2460574261,
    123643029,
    123643030,
    2460574264,
    2460574263,
    2460574259,
    2460574260,
    2460574258,
    2460574257,
    2460574255,
    2460574256,
    2460574252,
    2460574251,
    2460574249,
    2460574250,
    2460574248,
    2460574247,
    2460574245,
    2460574246,
    123643031,
    123643032,
    2460574241,
    2460574242,
    123643033,
    123643034,
    123643027
  ],
  "tags": {
    "building": "yes",
    "name": "National Maritime Museum",
    "tourism": "museum"
  }
},
{
  "type": "way",
  "id": 252113538,
  "nodes": [
    2582226358,
    2582226361,
    2582226363,
    5713143828,
    5713143829,
    1142858130,
    1142858122,
    5713143830,
    5713143831,
    2582226374,
    2582226376,
    2582226378,
    2582226381,
    2582226383,
    2582226385,
    2582226387,
    2582226358
  ],
  "tags": {
    "building": "yes",
    "name": "Maidstone Museum",
    "tourism": "museum",
    "wikidata": "Q6735528"
  }
},
{
  "type": "way",
  "id": 255871351,
  "nodes": [
    2615865671,
    2615865672,
    2842521521,
    2615865673,
    2615865674,
    2615865671
  ],
  "tags": {
    "addr:city": "Westerham",
    "building": "yes",
    "historic": "house",
    "name": "Quebec House",
    "operator": "National Trust",
    "start_date": "1630",
    "tourism": "museum",
    "website": "https://www.nationaltrust.org.uk/quebec-house/",
    "wheelchair:description": "Sloped access from Town car park (4 blue badge bays - free).",
    "wikidata": "Q7269776",
    "wikipedia": "en:Quebec House"
  }
},
{
  "type": "way",
  "id": 257192112,
  "nodes": [
    2627866084,
    2627866085,
    2627866086,
    2628704456,
    2627866084
  ],
  "tags": {
    "addr:city": "London",
    "addr:housenumber": "12",
    "addr:postcode": "E1 8JG",
    "addr:street": "Cable Street",
    "building": "yes",
    "name": "Jack the Ripper Museum",
    "note": "really an exploitative tourist trap",
    "source": "East London Advertiser story",
    "source:url": "http://www.eastlondonadvertiser.co.uk/news/heritage/museum_in_cable_st_about_women_and_suffragettes_turns_out_to_be_jack_the_ripper_1_4172863",
    "tourism": "museum",
    "wikidata": "Q21585359"
  }
},
{
  "type": "way",
  "id": 268533441,
  "nodes": [
    2738840815,
    2738840814,
    2738840806,
    2738840807,
    2738840797,
    2738840798,
    2738840789,
    2738840790,
    2738840792,
    2738840799,
    2738840800,
    2738840809,
    2738840808,
    2738840817,
    2738840816,
    2738840823,
    2738840821,
    2738840819,
    2738840815
  ],
  "tags": {
    "building": "civic",
    "name": "Altazimuth Pavilion",
    "tourism": "museum",
    "wikidata": "Q26283251"
  }
},
{
  "type": "way",
  "id": 268533442,
  "nodes": [
    2738840487,
    2738840516,
    2738840525,
    2738840515,
    2738840558,
    2738840557,
    2738840556,
    2738840570,
    2738840567,
    2738840565,
    2738840566,
    2738840563,
    2738840555,
    2738840554,
    2738840553,
    2738840514,
    2738840512,
    2738840510,
    2738840486,
    2738840484,
    2738840485,
    2738840482,
    2738840453,
    2738840460,
    2738840462,
    2738840427,
    2738840463,
    2738840429,
    2738840401,
    2738840430,
    2738840388,
    2738840389,
    2738840378,
    2738840379,
    2738840381,
    2738840390,
    2738840391,
    2738840431,
    2738840402,
    2738840433,
    2738840436,
    2738840464,
    2738840471,
    2738840465,
    2738840469,
    2738840466,
    2738840489,
    2738840493,
    2738840494,
    2738840487
  ],
  "tags": {
    "building": "civic",
    "name": "Astronomy Centre",
    "name:zh": "天文中心",
    "old_name": "South Building",
    "tourism": "museum",
    "wikidata": "Q27081920"
  }
},
{
  "type": "way",
  "id": 268533444,
  "nodes": [
    2738841185,
    2738841183,
    2738841179,
    2738841160,
    2738841161,
    2738841146,
    2738841135,
    2738841077,
    2738841080,
    2738841081,
    2738841082,
    2738841221,
    2738841243,
    2738841220,
    3378277337,
    2738841203,
    2738841202,
    2738841218,
    2738841241,
    2738841217,
    2738841234,
    2738841213,
    2738841199,
    2738841200,
    2738841201,
    2738841185
  ],
  "tags": {
    "building": "civic",
    "name": "Flamsteed House",
    "name:zh": "弗拉姆斯蒂德屋",
    "tourism": "museum",
    "website": "https://www.rmg.co.uk/royal-observatory/flamsteed-house-and-meridian/flamsteed-house",
    "wikidata": "Q54556220"
  }
},
{
  "type": "way",
  "id": 268533446,
  "nodes": [
    2738841044,
    2738840975,
    3556268971,
    2738840976,
    2738841010,
    2738841061,
    2738841060,
    2738841059,
    2738841044
  ],
  "tags": {
    "building": "civic",
    "name": "The Transit House",
    "tourism": "museum",
    "website": "https://www.rmg.co.uk/explore/astronomy-and-time/astronomy-facts/history/the-prime-meridian-at-greenwich",
    "wikidata": "Q17527585"
  }
},
{
  "type": "way",
  "id": 268533448,
  "nodes": [
    2738841082,
    3378277324,
    2795618227,
    2795618182,
    2738840889,
    2738840859,
    2738840858,
    2738840872,
    2738840902,
    2738840884,
    2738840869,
    2738840857,
    2738840856,
    2738840852,
    2738840839,
    2738840804,
    2738840787,
    2738840732,
    2738840584,
    2738840551,
    2738840502,
    2738840504,
    2738840403,
    2738840396,
    2738840365,
    2738840367,
    2738840364,
    2738840358,
    2738840359,
    2738840385,
    2738840393,
    2738840397,
    2738840408,
    2738840410,
    2738840415,
    2738840508,
    3378277310,
    2738840523,
    3378277311,
    2738840562,
    2738840640,
    2738840668,
    2738840670,
    2738840673,
    2738840709,
    2738840840,
    2738840842,
    2738840843,
    2738840849,
    2738840861,
    2738840894,
    2738840928,
    2738840964,
    2738840967,
    2738841007,
    2738841008,
    2738841009,
    2738841055,
    2738841040,
    2738841041,
    2738841083,
    3378277325,
    3378277326,
    3378277327,
    2738841084,
    2738841125,
    4951382375,
    4951357455,
    3378277330,
    3378277332,
    3378277334,
    3378277333,
    3378277335,
    2738841162,
    2738841188,
    2738841222,
    2738852660,
    2738841245,
    3378277348,
    3378277349,
    3378277356,
    2738841249,
    2738841251,
    2738841243,
    2738841221,
    2738841082
  ],
  "tags": {
    "addr:city": "Greenwich",
    "addr:housename": "Royal Observatory",
    "addr:postcode": "SE10 8XJ",
    "addr:street": "Blackheath Avenue",
    "email": "bookings@rmg.co.uk",
    "name": "Royal Observatory Greenwich",
    "name:es": "Real Observatorio de Greenwich",
    "name:fr": "Observatoire royal de Greenwich",
    "name:hu": "Greenwichi obszervatórium",
    "name:pl": "Królewskie Obserwatorium Astronomiczne w Greenwich",
    "name:ru": "Гринвичская обсерватория",
    "name:uk": "Гринвіцька обсерваторія",
    "old_name": "Old Royal Observatory",
    "opening_hours": "10:00-17:00; Dec 24-26 off",
    "operator": "Royal Museums Greenwich",
    "phone": "+44 20 8312 6565",
    "tourism": "museum",
    "website": "https://www.rmg.co.uk/royal-observatory",
    "wheelchair": "yes",
    "wikidata": "Q192988",
    "wikipedia": "en:Royal Observatory, Greenwich"
  }
},
{
  "type": "way",
  "id": 268533454,
  "nodes": [
    2738841062,
    2738841061,
    2738841010,
    2738841011,
    2738841012,
    2738841014,
    2738841016,
    2738841021,
    2738841064,
    2738841063,
    2738841105,
    2738841101,
    2738841097,
    2738841062
  ],
  "tags": {
    "building": "civic",
    "name": "Telescope Gallery",
    "tourism": "museum"
  }
},
{
  "type": "way",
  "id": 268533517,
  "nodes": [
    2738840966,
    2738840929,
    2738840930,
    2738840896,
    2738840897,
    2738840895,
    2738840875,
    2738840874,
    2738840877,
    2738840876,
    2738840867,
    2738840878,
    2738840879,
    2738840880,
    2738840881,
    2738840898,
    2738840899,
    2738840933,
    2738840932,
    2738840931,
    2738840973,
    2738840972,
    2738840970,
    2738840969,
    2738840968,
    2738840965,
    2738840966
  ],
  "tags": {
    "building": "civic",
    "fee": "yes",
    "name": "Great Equatorial Building",
    "tourism": "museum",
    "wikidata": "Q17527527"
  }
},
{
  "type": "way",
  "id": 306698053,
  "nodes": [
    3116720542,
    3116713623,
    3116720539,
    3116720530,
    3116720532,
    3116720529,
    3116720531,
    3116719228,
    3116720533,
    3116720536,
    3116720537,
    3116720534,
    3116720538,
    3116720535,
    3116713624,
    3116720540,
    3116720541,
    3116720545,
    3116720543,
    3116713625,
    3116720544,
    3116720548,
    3116720547,
    3116720546,
    3116720542
  ],
  "tags": {
    "addr:city": "London Borough of Lambeth",
    "addr:housenumber": "2",
    "addr:postcode": "SE11 4TH",
    "addr:street": "Dugard Way",
    "building": "yes",
    "building:levels": "3",
    "email": "info@cinemamuseum.org.uk",
    "name": "The Cinema Museum",
    "phone": "+44 20 7840 2200",
    "tourism": "museum",
    "website": "http://cinemamuseum.org.uk",
    "wikidata": "Q5120743"
  }
},
{
  "type": "way",
  "id": 307495539,
  "nodes": [
    3126695033,
    3126695035,
    3126695031,
    3126695029,
    3126695026,
    3127481183,
    3126695033
  ],
  "tags": {
    "building": "yes",
    "name": "Purfleet Heritage Centre",
    "tourism": "museum"
  }
},
{
  "type": "way",
  "id": 367657974,
  "nodes": [
    3715555390,
    3715555389,
    3715555387,
    3715555385,
    3715555382,
    3715555380,
    4770434323,
    3715555351,
    4770434340,
    3715555350,
    3715555347,
    3715555344,
    3715555340,
    3715555335,
    3715588554,
    3715588556,
    3715588557,
    3715588558,
    3715588560,
    3715588562,
    3715588563,
    3715588564,
    3715588565,
    3715588567,
    3715588566,
    3715555390
  ],
  "tags": {
    "addr:city": "London",
    "addr:housename": "Tower Bridge Exhibition",
    "addr:street": "Tower Bridge Road",
    "building": "yes",
    "building:levels": "1",
    "fee": "yes",
    "name": "Tower Bridge Exhibition",
    "opening_hours": "Apr-Sep: 10:00-17:30; Oct-Mar: 09:30-17:00; Apr-Sep PH 10:00-17:30; Oct-Mar PH 09:30-17:00; Dec 24-26 closed; Jan 01 10:00-17:00",
    "operator": "City of London",
    "payment:cash": "yes",
    "payment:mastercard": "yes",
    "payment:visa": "yes",
    "phone": "+44 20 7403 3761",
    "toilets:wheelchair": "yes",
    "tourism": "museum",
    "website": "https://www.towerbridge.org.uk/",
    "wheelchair": "yes"
  }
},
{
  "type": "way",
  "id": 369136185,
  "nodes": [
    3729521024,
    3729521023,
    3729521005,
    3729521006,
    3729521017,
    3729521018,
    3729521014,
    3729521007,
    3729521008,
    3729521013,
    3729521019,
    3729520991,
    3729521020,
    3729521015,
    3729521009,
    3729521010,
    3729521016,
    3729521021,
    3729521022,
    3729521011,
    3729521012,
    3729521426,
    3729521425,
    3729521429,
    3729521430,
    3729521434,
    3729521433,
    3729521437,
    3729521438,
    3729521442,
    3729521441,
    3729521445,
    3729521446,
    3729521450,
    3729521449,
    3729521454,
    3729521453,
    3729521456,
    3729521455,
    3729521452,
    3729521451,
    3729521448,
    3729521447,
    3729521443,
    3729521444,
    3729520992,
    3729521440,
    3729521439,
    3729521435,
    3729521436,
    3729521432,
    3729521431,
    3729521427,
    3729521428,
    3729521024
  ],
  "tags": {
    "building": "barracks",
    "building:levels": "3",
    "name": "Waterloo Block",
    "old_name": "Waterloo Barracks",
    "tourism": "museum",
    "wikidata": "Q2552591"
  }
},
{
  "type": "way",
  "id": 371156655,
  "nodes": [
    3747551471,
    3747551470,
    3747551462,
    3747551450,
    3747551472,
    3747551474,
    3857383201,
    3857383202,
    3747551455,
    3747551475,
    3747551471
  ],
  "tags": {
    "building": "yes",
    "name": "Valence House",
    "source": "bing",
    "tourism": "museum",
    "wikidata": "Q7910630",
    "wikipedia": "en:Valence House Museum"
  }
},
{
  "type": "way",
  "id": 388845373,
  "nodes": [
    1927425602,
    5774683634,
    5774683644,
    5774683643,
    3920322839,
    2144856860,
    1927425608,
    1927425602
  ],
  "tags": {
    "addr:housenumber": "46-50",
    "addr:postcode": "E3 4RR",
    "addr:street": "Copperfield Road",
    "building": "yes",
    "building:colour": "brown",
    "building:levels": "3",
    "building:material": "brick",
    "name": "Ragged School Museum",
    "opening_hours": "Tu,We 10:00-17:00; Su[1] 14:00-17:00",
    "roof:colour": "grey",
    "tourism": "museum",
    "website": "http://www.raggedschoolmuseum.org.uk/",
    "wikidata": "Q7282907"
  }
},
{
  "type": "way",
  "id": 456809185,
  "nodes": [
    4530441187,
    4530441289,
    4530441290,
    4530441291,
    4530441292,
    4530441293,
    4530441294,
    4530441295,
    4530441296,
    4530441297,
    4530441298,
    4530441299,
    4530441300,
    4530441187
  ],
  "tags": {
    "addr:city": "Marden",
    "addr:postcode": "TN12 9DH",
    "addr:street": "Howland Road",
    "area": "yes",
    "name": "The South East Romany Museum",
    "tourism": "museum",
    "website": "http://www.mardenhistory.org.uk/home/?page_id=1338"
  }
},
{
  "type": "way",
  "id": 500204478,
  "nodes": [
    700428206,
    4913128604,
    4913128605,
    4913128606,
    4913128607,
    4913128608,
    700428206
  ],
  "tags": {
    "addr:housenumber": "105",
    "addr:postcode": "SS8 7TD",
    "addr:street": "Point Road",
    "building": "yes",
    "name": "Castle Point Transport Museum",
    "source": "OS OpenMap Local;OS OpenData StreetView",
    "tourism": "museum",
    "website": "https://www.castlepointtransportmuseum.co.uk/"
  }
},
{
  "type": "way",
  "id": 512846335,
  "nodes": [
    5219427678,
    5219427679,
    6771999442,
    5219427680,
    5219427677,
    5219427678
  ],
  "tags": {
    "addr:housenumber": "12",
    "addr:postcode": "EC4N 8AA",
    "addr:street": "Walbrook",
    "building": "part",
    "name": "London Mithraeum",
    "opening_hours": "Tu-Sa 10:00-18:00; Su 12:00-17:00; Mo off; Th[1] 10:00-20:00; Dec 25-26 off; Jan 01 off",
    "operator": "Bloomberg Space",
    "start_date": "2017",
    "tourism": "museum",
    "website": "https://www.londonmithraeum.com/",
    "wikidata": "Q1408799",
    "wikipedia": "en:London Mithraeum"
  }
},
{
  "type": "way",
  "id": 553157396,
  "nodes": [
    3080553849,
    5339970508,
    5339970507,
    946920427,
    5339970518,
    3080553849
  ],
  "tags": {
    "addr:city": "London",
    "addr:housenumber": "31",
    "addr:street": "Museum Street",
    "building": "retail",
    "building:colour": "light_grey",
    "building:levels": "4",
    "building:material": "plaster",
    "name": "Paul Stolper",
    "roof:colour": "dark_grey",
    "tourism": "museum",
    "wikidata": "Q16896961"
  }
},
{
  "type": "way",
  "id": 554358256,
  "nodes": [
    5350044097,
    4517052389,
    5350044096,
    5339970520,
    5339970512,
    946920426,
    5350044097
  ],
  "tags": {
    "addr:city": "London",
    "addr:housenumber": "35",
    "addr:street": "Little Russell Street",
    "name": "The Cartoon Museum",
    "tourism": "museum",
    "wheelchair": "no",
    "wikidata": "Q7721464"
  }
},
{
  "type": "way",
  "id": 554358276,
  "nodes": [
    5350044750,
    5349848797,
    5349848799,
    5350044749,
    5350044748,
    5350044747,
    5350044746,
    5350044733,
    5350044745,
    5350044750
  ],
  "tags": {
    "addr:city": "London",
    "addr:housenumber": "44",
    "addr:postcode": "WC1A 1LY",
    "addr:street": "Museum Street",
    "building": "yes",
    "building:colour": "white",
    "building:levels": "4",
    "building:material": "plaster",
    "camera:repair": "yes",
    "name": "Camera Museum",
    "roof:colour": "dark_grey",
    "shop": "camera",
    "source:addr:postcode": "FSA Food Hygiene Ratings Scheme open data",
    "tourism": "museum",
    "website": "https://www.cameramuseum.uk/"
  }
},
{
  "type": "way",
  "id": 620603565,
  "nodes": [
    5863299577,
    6287936436,
    6287936437,
    6287936438,
    5863299578,
    5863299579,
    5863299580,
    3730865100,
    5863299577
  ],
  "tags": {
    "addr:city": "London",
    "addr:housenumber": "41",
    "addr:postcode": "W1G 6JY",
    "addr:street": "Devonshire Place",
    "building": "yes",
    "description": "The Museum of Philatelic History at the Royal Philatelic Society London holds a collection of internationally significant objects. The collection of the Museum of Philatelic History started shortly after the Society’s inception in 1869 and has grown and e",
    "email": "museumarchives@rpsl.org.uk",
    "name": "The Museum of Philatelic History",
    "opening_hours": "Mo-Fr 09:30-16:30",
    "operator": "Royal Philatelic Society London",
    "phone": "+44 20 7486 1044",
    "source": "local knowledge;streetlevel imagery;aerial imagery",
    "tourism": "museum",
    "website": "http://www.rpsl.org.uk/museum.asp",
    "wikidata": "Q3446009"
  }
},
{
  "type": "way",
  "id": 639218639,
  "nodes": [
    6023694559,
    6023694560,
    6023694561,
    6023694563,
    6023694559
  ],
  "tags": {
    "addr:city": "Billericay",
    "addr:housenumber": "74",
    "addr:postcode": "CM12 9BS",
    "addr:street": "High Street",
    "building": "yes",
    "name": "The Cater Museum",
    "phone": "+44 1277 622023",
    "tourism": "museum",
    "website": "http://catermuseum.co.uk/"
  }
},
{
  "type": "way",
  "id": 654984197,
  "nodes": [
    6137092186,
    6137092187,
    6137092188,
    6137092189,
    6137092190,
    6137092191,
    6137092192,
    6137092193,
    6137092186
  ],
  "tags": {
    "building": "yes",
    "tourism": "museum"
  }
},
{
  "type": "way",
  "id": 684695074,
  "nodes": [
    6415429819,
    6415429820,
    6415429821,
    6415429822,
    6415429823,
    6415429824,
    6415429825,
    6415429826,
    6415429811,
    2146383925,
    6415429827,
    6415429828,
    6415429829,
    6415429830,
    6415429831,
    6415429832,
    6415429833,
    6415429834,
    6415429835,
    6415429836,
    6415429837,
    6415429838,
    6415429839,
    6415429819
  ],
  "tags": {
    "addr:street": "Marylebone Road",
    "building": "yes",
    "name": "Madame Tussauds",
    "tourism": "museum",
    "website": "https://www.madametussauds.com/london/en/plan-your-visit/which-entrance/",
    "wikidata": "Q2900180"
  }
},
{
  "type": "way",
  "id": 706183718,
  "nodes": [
    47855324,
    47855307,
    47855314,
    6635389346,
    6635389345,
    1238338435,
    1238338434,
    1238338430,
    1761162563,
    1238338495,
    1238338496,
    1238338512,
    1238338513,
    1238338514,
    1238338517,
    1238338518,
    1238338521,
    1238338533,
    1238338529,
    1238338532,
    1238338547,
    1238338530,
    1238338546,
    1238338548,
    1238338549,
    1238338550,
    47855324
  ],
  "tags": {
    "addr:city": "London",
    "addr:housenumber": "136",
    "addr:postcode": "E2 8EA",
    "addr:street": "Kingsland Road",
    "name": "Geffrye Museum",
    "opening_hours": "Tu-Sa 10:00-17:00; Su 12:00-17:00 but currently closed for building works until Spring 2020",
    "operator": "The Geffrye Museum Trust",
    "source": "Bing;survey;1922 London County Council plans",
    "tourism": "museum",
    "wikidata": "Q2918086",
    "wikipedia": "en:Geffrye Museum"
  }
},
{
  "type": "relation",
  "id": 177044,
  "members": [
    {
      "type": "way",
      "ref": 37909715,
      "role": "inner"
    },
    {
      "type": "way",
      "ref": 424202354,
      "role": "inner"
    },
    {
      "type": "way",
      "ref": 424202398,
      "role": "inner"
    },
    {
      "type": "way",
      "ref": 40405915,
      "role": "outer"
    },
    {
      "type": "way",
      "ref": 424202355,
      "role": "inner"
    }
  ],
  "tags": {
    "addr:city": "London",
    "addr:country": "GB",
    "addr:postcode": "WC1B 3DG",
    "addr:street": "Great Russell Street",
    "building": "museum",
    "building:levels": "4",
    "building:material": "sandstone",
    "construction_date": "1823–1847",
    "contact:phone": "+44 20 7323 8299",
    "contact:website": "https://www.britishmuseum.org",
    "highlight": "yes",
    "importance": "international",
    "internet_access": "wlan",
    "museum": "archaeological",
    "name": "British Museum",
    "name:de": "Britisches Museum",
    "name:el": "Βρετανικό Μουσείο",
    "name:es": "Museo Británico",
    "name:et": "Briti Muuseum",
    "name:fr": "Musée britannique",
    "name:he": "המוזיאון הבריטי",
    "name:it": "Museo Britannico",
    "name:ko": "대영 박물관",
    "name:la": "Museum Britannicum",
    "name:pt": "Museu Britânico",
    "name:ro": "Muzeul Britanic",
    "name:ru": "Британский музей",
    "name:zh": "大英博物馆",
    "opening_hours": "Mo-Th,Sa-Su 10:00-17:30; Fr 10:00-20:30",
    "start_date": "1753",
    "tourism": "museum",
    "type": "multipolygon",
    "wheelchair": "yes",
    "wikidata": "Q6373",
    "wikimedia_commons": "Category:British Museum",
    "wikipedia": "en:British Museum"
  }
},
{
  "type": "relation",
  "id": 2711501,
  "members": [
    {
      "type": "way",
      "ref": 201846173,
      "role": "inner"
    },
    {
      "type": "way",
      "ref": 156190525,
      "role": "outer"
    },
    {
      "type": "way",
      "ref": 201846172,
      "role": "inner"
    }
  ],
  "tags": {
    "addr:city": "London",
    "addr:country": "GB",
    "addr:housenumber": "150",
    "addr:postcode": "EC2Y 5HN",
    "addr:street": "London Wall",
    "building": "yes",
    "fee": "no",
    "layer": "1",
    "name": "Museum of London",
    "name:es": "Museo de Londres",
    "name:ko": "런던 박물관",
    "name:pt": "Museu de Londres",
    "opening_hours": "Mo-Su 10:00-18:00",
    "operator": "Museum of London",
    "phone": "+44 20 70019844",
    "source": "Bing;survey;local_knowledge",
    "tourism": "museum",
    "type": "multipolygon",
    "website": "https://www.museumoflondon.org.uk/",
    "wheelchair": "yes",
    "wikidata": "Q917820",
    "wikimedia_commons": "Category:Museum of London",
    "wikipedia": "en:Museum of London"
  }
},
{
  "type": "node",
  "id": 96071858,
  "lat": 51.4858974,
  "lon": -0.1601601
},
{
  "type": "node",
  "id": 96071860,
  "lat": 51.4865067,
  "lon": -0.1604437
},
{
  "type": "node",
  "id": 96071861,
  "lat": 51.4862647,
  "lon": -0.1608012
},
{
  "type": "node",
  "id": 1851327958,
  "lat": 51.4861905,
  "lon": -0.1597272
},
{
  "type": "node",
  "id": 1851328085,
  "lat": 51.4862922,
  "lon": -0.1599047
},
{
  "type": "node",
  "id": 1851328151,
  "lat": 51.4862411,
  "lon": -0.1599801
},
{
  "type": "node",
  "id": 1318614704,
  "lat": 51.4948147,
  "lon": -0.1204405
},
{
  "type": "node",
  "id": 1815318237,
  "lat": 51.4924780,
  "lon": -0.1191248
},
{
  "type": "node",
  "id": 1815318242,
  "lat": 51.4926399,
  "lon": -0.1190470
},
{
  "type": "node",
  "id": 1815318243,
  "lat": 51.4923778,
  "lon": -0.1193743
},
{
  "type": "node",
  "id": 1815318244,
  "lat": 51.4924880,
  "lon": -0.1192187
},
{
  "type": "node",
  "id": 1815318250,
  "lat": 51.4923677,
  "lon": -0.1192697
},
{
  "type": "node",
  "id": 1815318328,
  "lat": 51.4922876,
  "lon": -0.1194252
},
{
  "type": "node",
  "id": 1815318350,
  "lat": 51.4928587,
  "lon": -0.1203023
},
{
  "type": "node",
  "id": 1815318411,
  "lat": 51.4924694,
  "lon": -0.1204820
},
{
  "type": "node",
  "id": 6137092186,
  "lat": 51.4977384,
  "lon": -0.1251092
},
{
  "type": "node",
  "id": 6137092187,
  "lat": 51.4977367,
  "lon": -0.1248115
},
{
  "type": "node",
  "id": 6137092188,
  "lat": 51.4977050,
  "lon": -0.1245567
},
{
  "type": "node",
  "id": 6137092191,
  "lat": 51.4979254,
  "lon": -0.1246345
},
{
  "type": "node",
  "id": 6137092192,
  "lat": 51.4978553,
  "lon": -0.1246398
},
{
  "type": "node",
  "id": 6137092193,
  "lat": 51.4978703,
  "lon": -0.1251253
},
{
  "type": "node",
  "id": 1132182377,
  "lat": 51.4950422,
  "lon": -0.1198612
},
{
  "type": "node",
  "id": 1132182381,
  "lat": 51.4951066,
  "lon": -0.1201594
},
{
  "type": "node",
  "id": 1132182382,
  "lat": 51.4951198,
  "lon": -0.1203081
},
{
  "type": "node",
  "id": 1318614689,
  "lat": 51.4951132,
  "lon": -0.1203539
},
{
  "type": "node",
  "id": 1318614707,
  "lat": 51.4950027,
  "lon": -0.1194903
},
{
  "type": "node",
  "id": 6137092189,
  "lat": 51.4976499,
  "lon": -0.1242670
},
{
  "type": "node",
  "id": 6137092190,
  "lat": 51.4979070,
  "lon": -0.1242268
},
{
  "type": "node",
  "id": 3116713623,
  "lat": 51.4921889,
  "lon": -0.1053012
},
{
  "type": "node",
  "id": 3116713625,
  "lat": 51.4925325,
  "lon": -0.1048932
},
{
  "type": "node",
  "id": 3116719228,
  "lat": 51.4921274,
  "lon": -0.1049312
},
{
  "type": "node",
  "id": 3116720529,
  "lat": 51.4921330,
  "lon": -0.1049693
},
{
  "type": "node",
  "id": 3116720530,
  "lat": 51.4921338,
  "lon": -0.1050709
},
{
  "type": "node",
  "id": 3116720531,
  "lat": 51.4921403,
  "lon": -0.1049392
},
{
  "type": "node",
  "id": 3116720532,
  "lat": 51.4921549,
  "lon": -0.1049829
},
{
  "type": "node",
  "id": 3116720539,
  "lat": 51.4922300,
  "lon": -0.1051306
},
{
  "type": "node",
  "id": 3116720542,
  "lat": 51.4924555,
  "lon": -0.1054668
},
{
  "type": "node",
  "id": 3116720543,
  "lat": 51.4924933,
  "lon": -0.1048689
},
{
  "type": "node",
  "id": 3116720544,
  "lat": 51.4925105,
  "lon": -0.1049845
},
{
  "type": "node",
  "id": 3116720546,
  "lat": 51.4925489,
  "lon": -0.1050791
},
{
  "type": "node",
  "id": 3116720547,
  "lat": 51.4926410,
  "lon": -0.1051364
},
{
  "type": "node",
  "id": 3116720548,
  "lat": 51.4926558,
  "lon": -0.1050748
},
{
  "type": "node",
  "id": 61328912,
  "lat": 51.4962179,
  "lon": -0.1090022
},
{
  "type": "node",
  "id": 61328920,
  "lat": 51.4962211,
  "lon": -0.1081823
},
{
  "type": "node",
  "id": 61328981,
  "lat": 51.4962877,
  "lon": -0.1085627
},
{
  "type": "node",
  "id": 986831375,
  "lat": 51.4953729,
  "lon": -0.1085563
},
{
  "type": "node",
  "id": 986831397,
  "lat": 51.4962169,
  "lon": -0.1087222
},
{
  "type": "node",
  "id": 986831576,
  "lat": 51.4952779,
  "lon": -0.1084681
},
{
  "type": "node",
  "id": 986831867,
  "lat": 51.4954185,
  "lon": -0.1089076
},
{
  "type": "node",
  "id": 986831960,
  "lat": 51.4962883,
  "lon": -0.1087215
},
{
  "type": "node",
  "id": 986832016,
  "lat": 51.4952768,
  "lon": -0.1081916
},
{
  "type": "node",
  "id": 986832026,
  "lat": 51.4953738,
  "lon": -0.1088030
},
{
  "type": "node",
  "id": 986832070,
  "lat": 51.4953358,
  "lon": -0.1085567
},
{
  "type": "node",
  "id": 986832142,
  "lat": 51.4953355,
  "lon": -0.1084675
},
{
  "type": "node",
  "id": 986832237,
  "lat": 51.4953427,
  "lon": -0.1089083
},
{
  "type": "node",
  "id": 986832321,
  "lat": 51.4962222,
  "lon": -0.1084718
},
{
  "type": "node",
  "id": 986832369,
  "lat": 51.4953430,
  "lon": -0.1090109
},
{
  "type": "node",
  "id": 986832384,
  "lat": 51.4962873,
  "lon": -0.1084712
},
{
  "type": "node",
  "id": 986832461,
  "lat": 51.4954181,
  "lon": -0.1088026
},
{
  "type": "node",
  "id": 3249021690,
  "lat": 51.4958146,
  "lon": -0.1090062
},
{
  "type": "node",
  "id": 32845894,
  "lat": 51.4198245,
  "lon": -0.0766850
},
{
  "type": "node",
  "id": 32845895,
  "lat": 51.4198013,
  "lon": -0.0765938
},
{
  "type": "node",
  "id": 32845896,
  "lat": 51.4197485,
  "lon": -0.0766283
},
{
  "type": "node",
  "id": 32845897,
  "lat": 51.4197094,
  "lon": -0.0764742
},
{
  "type": "node",
  "id": 32845898,
  "lat": 51.4196226,
  "lon": -0.0765309
},
{
  "type": "node",
  "id": 32845899,
  "lat": 51.4197105,
  "lon": -0.0767594
},
{
  "type": "node",
  "id": 1267657129,
  "lat": 51.4196798,
  "lon": -0.0767562
},
{
  "type": "node",
  "id": 1267657274,
  "lat": 51.4197054,
  "lon": -0.0767394
},
{
  "type": "node",
  "id": 1379828958,
  "lat": 51.4198136,
  "lon": -0.0766423
},
{
  "type": "node",
  "id": 2194596713,
  "lat": 51.4196115,
  "lon": -0.0765588
},
{
  "type": "node",
  "id": 2194596718,
  "lat": 51.4196271,
  "lon": -0.0765486
},
{
  "type": "node",
  "id": 2194596720,
  "lat": 51.4196275,
  "lon": -0.0766218
},
{
  "type": "node",
  "id": 2194596724,
  "lat": 51.4196431,
  "lon": -0.0766117
},
{
  "type": "node",
  "id": 32869129,
  "lat": 51.4410728,
  "lon": -0.0642901
},
{
  "type": "node",
  "id": 32869225,
  "lat": 51.4408408,
  "lon": -0.0632132
},
{
  "type": "node",
  "id": 32869226,
  "lat": 51.4407165,
  "lon": -0.0625665
},
{
  "type": "node",
  "id": 32869227,
  "lat": 51.4406320,
  "lon": -0.0613283
},
{
  "type": "node",
  "id": 32869228,
  "lat": 51.4406148,
  "lon": -0.0606280
},
{
  "type": "node",
  "id": 32869229,
  "lat": 51.4414800,
  "lon": -0.0604999
},
{
  "type": "node",
  "id": 32869236,
  "lat": 51.4421997,
  "lon": -0.0634826
},
{
  "type": "node",
  "id": 32869237,
  "lat": 51.4414971,
  "lon": -0.0640103
},
{
  "type": "node",
  "id": 33778452,
  "lat": 51.4406468,
  "lon": -0.0618673
},
{
  "type": "node",
  "id": 34775511,
  "lat": 51.4424601,
  "lon": -0.0601067
},
{
  "type": "node",
  "id": 34775514,
  "lat": 51.4421594,
  "lon": -0.0590831
},
{
  "type": "node",
  "id": 34775517,
  "lat": 51.4416335,
  "lon": -0.0593958
},
{
  "type": "node",
  "id": 34775521,
  "lat": 51.4416298,
  "lon": -0.0599987
},
{
  "type": "node",
  "id": 34775523,
  "lat": 51.4414780,
  "lon": -0.0600004
},
{
  "type": "node",
  "id": 34776766,
  "lat": 51.4409708,
  "lon": -0.0613790
},
{
  "type": "node",
  "id": 34776769,
  "lat": 51.4407602,
  "lon": -0.0614144
},
{
  "type": "node",
  "id": 34776770,
  "lat": 51.4407056,
  "lon": -0.0606822
},
{
  "type": "node",
  "id": 34776771,
  "lat": 51.4413336,
  "lon": -0.0605715
},
{
  "type": "node",
  "id": 34776772,
  "lat": 51.4413527,
  "lon": -0.0608510
},
{
  "type": "node",
  "id": 34776773,
  "lat": 51.4410642,
  "lon": -0.0609757
},
{
  "type": "node",
  "id": 34776774,
  "lat": 51.4412230,
  "lon": -0.0611355
},
{
  "type": "node",
  "id": 34776775,
  "lat": 51.4412365,
  "lon": -0.0613321
},
{
  "type": "node",
  "id": 34779695,
  "lat": 51.4406213,
  "lon": -0.0608922
},
{
  "type": "node",
  "id": 848505067,
  "lat": 51.4410722,
  "lon": -0.0610918
},
{
  "type": "node",
  "id": 848505073,
  "lat": 51.4407754,
  "lon": -0.0614117
},
{
  "type": "node",
  "id": 2205062070,
  "lat": 51.4407258,
  "lon": -0.0609784
},
{
  "type": "node",
  "id": 2205062071,
  "lat": 51.4407335,
  "lon": -0.0609770
},
{
  "type": "node",
  "id": 2205062072,
  "lat": 51.4407488,
  "lon": -0.0612474
},
{
  "type": "node",
  "id": 2205062073,
  "lat": 51.4407506,
  "lon": -0.0612258
},
{
  "type": "node",
  "id": 2205062076,
  "lat": 51.4407632,
  "lon": -0.0612236
},
{
  "type": "node",
  "id": 2205062077,
  "lat": 51.4407646,
  "lon": -0.0612446
},
{
  "type": "node",
  "id": 2205062092,
  "lat": 51.4410113,
  "lon": -0.0640011
},
{
  "type": "node",
  "id": 2205062093,
  "lat": 51.4410143,
  "lon": -0.0640135
},
{
  "type": "node",
  "id": 2205062096,
  "lat": 51.4410721,
  "lon": -0.0613611
},
{
  "type": "node",
  "id": 2205062102,
  "lat": 51.4411916,
  "lon": -0.0608794
},
{
  "type": "node",
  "id": 2205062103,
  "lat": 51.4411966,
  "lon": -0.0609523
},
{
  "type": "node",
  "id": 2205062104,
  "lat": 51.4412038,
  "lon": -0.0610686
},
{
  "type": "node",
  "id": 2205062105,
  "lat": 51.4412085,
  "lon": -0.0611380
},
{
  "type": "node",
  "id": 2205062123,
  "lat": 51.4417656,
  "lon": -0.0637982
},
{
  "type": "node",
  "id": 2205062169,
  "lat": 51.4424137,
  "lon": -0.0633419
},
{
  "type": "node",
  "id": 2924625641,
  "lat": 51.4410949,
  "lon": -0.0610878
},
{
  "type": "node",
  "id": 32869233,
  "lat": 51.4430544,
  "lon": -0.0614105
},
{
  "type": "node",
  "id": 32869234,
  "lat": 51.4430776,
  "lon": -0.0614472
},
{
  "type": "node",
  "id": 32869235,
  "lat": 51.4437735,
  "lon": -0.0625850
},
{
  "type": "node",
  "id": 275531123,
  "lat": 51.4437717,
  "lon": -0.0625880
},
{
  "type": "node",
  "id": 416451217,
  "lat": 51.4430313,
  "lon": -0.0613761
},
{
  "type": "node",
  "id": 936793504,
  "lat": 51.4437487,
  "lon": -0.0625012
},
{
  "type": "node",
  "id": 936793523,
  "lat": 51.4436680,
  "lon": -0.0623240
},
{
  "type": "node",
  "id": 936793533,
  "lat": 51.4432656,
  "lon": -0.0628411
},
{
  "type": "node",
  "id": 936793724,
  "lat": 51.4430978,
  "lon": -0.0614264
},
{
  "type": "node",
  "id": 2205062179,
  "lat": 51.4425671,
  "lon": -0.0603686
},
{
  "type": "node",
  "id": 2205062181,
  "lat": 51.4427649,
  "lon": -0.0608532
},
{
  "type": "node",
  "id": 3116713624,
  "lat": 51.4922168,
  "lon": -0.1045206
},
{
  "type": "node",
  "id": 3116720533,
  "lat": 51.4921556,
  "lon": -0.1048143
},
{
  "type": "node",
  "id": 3116720534,
  "lat": 51.4921743,
  "lon": -0.1047920
},
{
  "type": "node",
  "id": 3116720535,
  "lat": 51.4921809,
  "lon": -0.1046698
},
{
  "type": "node",
  "id": 3116720536,
  "lat": 51.4921860,
  "lon": -0.1048333
},
{
  "type": "node",
  "id": 3116720537,
  "lat": 51.4921931,
  "lon": -0.1048037
},
{
  "type": "node",
  "id": 3116720538,
  "lat": 51.4922008,
  "lon": -0.1046821
},
{
  "type": "node",
  "id": 3116720540,
  "lat": 51.4922783,
  "lon": -0.1045587
},
{
  "type": "node",
  "id": 3116720541,
  "lat": 51.4922824,
  "lon": -0.1045417
},
{
  "type": "node",
  "id": 3116720545,
  "lat": 51.4925344,
  "lon": -0.1046983
},
{
  "type": "node",
  "id": 936982473,
  "lat": 51.4908478,
  "lon": -0.0970545
},
{
  "type": "node",
  "id": 936982497,
  "lat": 51.4910415,
  "lon": -0.0966741
},
{
  "type": "node",
  "id": 936982532,
  "lat": 51.4910343,
  "lon": -0.0971781
},
{
  "type": "node",
  "id": 936982553,
  "lat": 51.4909594,
  "lon": -0.0966196
},
{
  "type": "node",
  "id": 936982583,
  "lat": 51.4910146,
  "lon": -0.0967788
},
{
  "type": "node",
  "id": 936982682,
  "lat": 51.4909327,
  "lon": -0.0967245
},
{
  "type": "node",
  "id": 936982814,
  "lat": 51.4911977,
  "lon": -0.0965424
},
{
  "type": "node",
  "id": 936982852,
  "lat": 51.4910110,
  "lon": -0.0964186
},
{
  "type": "node",
  "id": 1167771345,
  "lat": 51.5010305,
  "lon": -0.0818725
},
{
  "type": "node",
  "id": 1167771365,
  "lat": 51.5012999,
  "lon": -0.0814594
},
{
  "type": "node",
  "id": 1167771396,
  "lat": 51.5013074,
  "lon": -0.0814841
},
{
  "type": "node",
  "id": 1167771475,
  "lat": 51.5010869,
  "lon": -0.0813945
},
{
  "type": "node",
  "id": 1167771501,
  "lat": 51.5012536,
  "lon": -0.0819403
},
{
  "type": "node",
  "id": 416327015,
  "lat": 51.4796886,
  "lon": -0.0068601
},
{
  "type": "node",
  "id": 5582357763,
  "lat": 51.4798642,
  "lon": -0.0069829
},
{
  "type": "node",
  "id": 27482429,
  "lat": 51.4811072,
  "lon": -0.0023653
},
{
  "type": "node",
  "id": 123643008,
  "lat": 51.4811303,
  "lon": -0.0059684
},
{
  "type": "node",
  "id": 123643010,
  "lat": 51.4811816,
  "lon": -0.0058150
},
{
  "type": "node",
  "id": 123643011,
  "lat": 51.4810565,
  "lon": -0.0057071
},
{
  "type": "node",
  "id": 123643013,
  "lat": 51.4810820,
  "lon": -0.0056306
},
{
  "type": "node",
  "id": 123643015,
  "lat": 51.4811539,
  "lon": -0.0056925
},
{
  "type": "node",
  "id": 123643016,
  "lat": 51.4812726,
  "lon": -0.0053374
},
{
  "type": "node",
  "id": 123643017,
  "lat": 51.4812025,
  "lon": -0.0052769
},
{
  "type": "node",
  "id": 123643018,
  "lat": 51.4812952,
  "lon": -0.0052542
},
{
  "type": "node",
  "id": 123643020,
  "lat": 51.4813631,
  "lon": -0.0053128
},
{
  "type": "node",
  "id": 123643021,
  "lat": 51.4814320,
  "lon": -0.0051067
},
{
  "type": "node",
  "id": 123643022,
  "lat": 51.4808752,
  "lon": -0.0046836
},
{
  "type": "node",
  "id": 123643024,
  "lat": 51.4811062,
  "lon": -0.0039914
},
{
  "type": "node",
  "id": 123643025,
  "lat": 51.4812013,
  "lon": -0.0040732
},
{
  "type": "node",
  "id": 123643026,
  "lat": 51.4813539,
  "lon": -0.0036158
},
{
  "type": "node",
  "id": 123643027,
  "lat": 51.4812659,
  "lon": -0.0035401
},
{
  "type": "node",
  "id": 123643028,
  "lat": 51.4814824,
  "lon": -0.0028918
},
{
  "type": "node",
  "id": 123643031,
  "lat": 51.4813150,
  "lon": -0.0024778
},
{
  "type": "node",
  "id": 123643032,
  "lat": 51.4812446,
  "lon": -0.0026886
},
{
  "type": "node",
  "id": 123643033,
  "lat": 51.4814040,
  "lon": -0.0027821
},
{
  "type": "node",
  "id": 123643034,
  "lat": 51.4811764,
  "lon": -0.0034631
},
{
  "type": "node",
  "id": 123643035,
  "lat": 51.4810652,
  "lon": -0.0033674
},
{
  "type": "node",
  "id": 123643036,
  "lat": 51.4809126,
  "lon": -0.0038248
},
{
  "type": "node",
  "id": 123643037,
  "lat": 51.4810208,
  "lon": -0.0039179
},
{
  "type": "node",
  "id": 123643038,
  "lat": 51.4807898,
  "lon": -0.0046099
},
{
  "type": "node",
  "id": 123643039,
  "lat": 51.4806509,
  "lon": -0.0044394
},
{
  "type": "node",
  "id": 123643041,
  "lat": 51.4805802,
  "lon": -0.0046508
},
{
  "type": "node",
  "id": 123643042,
  "lat": 51.4807434,
  "lon": -0.0047433
},
{
  "type": "node",
  "id": 123643044,
  "lat": 51.4805023,
  "lon": -0.0054275
},
{
  "type": "node",
  "id": 416327019,
  "lat": 51.4803487,
  "lon": -0.0046870
},
{
  "type": "node",
  "id": 416327025,
  "lat": 51.4816343,
  "lon": -0.0022371
},
{
  "type": "node",
  "id": 1934478979,
  "lat": 51.4805327,
  "lon": -0.0055552
},
{
  "type": "node",
  "id": 1934478981,
  "lat": 51.4803897,
  "lon": -0.0063749
},
{
  "type": "node",
  "id": 1934478983,
  "lat": 51.4806754,
  "lon": -0.0055763
},
{
  "type": "node",
  "id": 1934478984,
  "lat": 51.4806326,
  "lon": -0.0056484
},
{
  "type": "node",
  "id": 1934478985,
  "lat": 51.4802925,
  "lon": -0.0062911
},
{
  "type": "node",
  "id": 2323768981,
  "lat": 51.4803293,
  "lon": -0.0053798
},
{
  "type": "node",
  "id": 2323768992,
  "lat": 51.4802823,
  "lon": -0.0055205
},
{
  "type": "node",
  "id": 2323769013,
  "lat": 51.4803119,
  "lon": -0.0062331
},
{
  "type": "node",
  "id": 2323769023,
  "lat": 51.4801039,
  "lon": -0.0060539
},
{
  "type": "node",
  "id": 2460574198,
  "lat": 51.4805513,
  "lon": -0.0052105
},